time_sec,lat_deg,lon_deg,alt_agl_m,u_mps,v_mps,w_mps,true_airspeed_mps,ground_speed_mps,pitch_deg,roll_deg,yaw_deg,p_rad_sec,q_rad_sec,r_rad_sec,ax_mps2,ay_mps2,az_mps2,alpha_deg,beta_deg,qbar_pa,thrust_n,mach
0.010000000,35.000000000,139.000000000,0.002843,0.568615,0.000000,0.000000,0.568615,0.009924,89.000000,0.000000,0.000000,0.000000,0.000000,0.000000,56.861510,0.000000,0.000000,0.000000,0.000000,0.000000,2000.000000,0.000000
0.020000000,35.000000002,139.000000000,0.011374,1.137987,0.000000,0.000000,1.137987,0.019861,89.000000,0.000000,0.000000,0.000000,0.000000,0.000000,56.937152,0.000000,0.000000,0.000000,0.000000,0.000000,2000.000000,0.000000
0.030000000,35.000000004,139.000000000,0.025603,1.708116,0.000000,0.000000,1.708116,0.029811,89.000000,0.000000,0.000000,0.000000,0.000000,0.000000,57.012965,0.000000,0.000000,0.000000,0.000000,0.000000,2000.000000,0.000000
0.040000000,35.000000007,139.000000000,0.045535,2.279006,0.000000,0.000000,2.279006,0.039774,89.000000,0.000000,0.000000,0.000000,0.000000,0.000000,57.088950,0.000000,0.000000,0.000000,0.000000,0.000000,2000.000000,0.000000
0.050000000,35.000000011,139.000000000,0.071180,2.850657,0.000000,0.000000,2.850657,0.049751,89.000000,0.000000,0.000000,0.000000,0.000000,0.000000,57.165109,0.000000,0.000000,0.000000,0.000000,0.000000,2000.000000,0.000000
0.060000000,35.000000016,139.000000000,0.102544,3.423071,0.000000,0.000000,3.423071,0.059741,89.000000,0.000000,0.000000,0.000000,0.000000,0.000000,57.241441,0.000000,0.000000,0.000000,0.000000,0.000000,2000.000000,0.000000
0.070000000,35.000000022,139.000000000,0.139635,3.996251,0.000000,0.000000,3.996251,0.069744,89.000000,0.000000,0.000000,0.000000,0.000000,0.000000,57.317947,0.000000,0.000000,0.000000,0.000000,0.000000,2000.000000,0.000000
0.080000000,35.000000029,139.000000000,0.182460,4.570197,0.000000,0.000000,4.570197,0.079761,89.000000,0.000000,0.000000,0.000000,0.000000,0.000000,57.394629,0.000000,0.000000,0.000000,0.000000,0.000000,2000.000000,0.000000
0.090000000,35.000000036,139.000000000,0.231028,5.144912,0.000000,0.000000,5.144912,0.089791,89.000000,0.000000,0.000000,0.000000,0.000000,0.000000,57.471485,0.000000,0.000000,0.000000,0.000000,0.000000,2000.000000,0.000000
0.100000000,35.000000045,139.000000000,0.285347,5.720397,0.000000,0.000000,5.720397,0.099835,89.000000,0.000000,0.000000,0.000000,0.000000,0.000000,57.548518,0.000000,0.000000,0.000000,0.000000,0.000000,2000.000000,0.000000
0.110000000,35.000000054,139.000000000,0.345423,6.296654,0.000000,0.000000,6.296654,0.109892,89.000000,0.000000,0.000000,0.000000,0.000000,0.000000,57.625727,0.000000,0.000000,0.000000,0.000000,0.000000,2000.000000,0.000000
0.120000000,35.000000064,139.000000000,0.411264,6.873685,0.000000,0.000000,6.873685,0.119962,89.000000,0.000000,0.000000,0.000000,0.000000,0.000000,57.703113,0.000000,0.000000,0.000000,0.000000,0.000000,2000.000000,0.000000
0.130000000,35.000000076,139.000000000,0.482879,7.451492,0.000000,0.000000,7.451492,0.130046,89.000000,0.000000,0.000000,0.000000,0.000000,0.000000,57.780678,0.000000,0.000000,0.000000,0.000000,0.000000,2000.000000,0.000000
0.140000000,35.000000088,139.000000000,0.560275,8.030076,0.000000,0.000000,8.030076,0.140144,89.000000,0.000000,0.000000,0.000000,0.000000,0.000000,57.858420,0.000000,0.000000,0.000000,0.000000,0.000000,2000.000000,0.000000
0.150000000,35.000000101,139.000000000,0.643460,8.609440,0.000000,0.000000,8.609440,0.150255,89.000000,0.000000,0.000000,0.000000,0.000000,0.000000,57.936342,0.000000,0.000000,0.000000,0.000000,0.000000,2000.000000,0.000000
0.160000000,35.000000115,139.000000000,0.732442,9.189584,0.000000,0.000000,9.189584,0.160380,89.000000,0.000000,0.000000,0.000000,0.000000,0.000000,58.014443,0.000000,0.000000,0.000000,0.000000,0.000000,2000.000000,0.000000
0.170000000,35.000000130,139.000000000,0.827228,9.770512,0.000000,0.000000,9.770512,0.170519,89.000000,0.000000,0.000000,0.000000,0.000000,0.000000,58.092725,0.000000,0.000000,0.000000,0.000000,0.000000,2000.000000,0.000000
0.180000000,35.000000145,139.000000000,0.927826,10.352223,0.000000,0.000000,10.352223,0.180671,89.000000,0.000000,0.000000,0.000000,0.000000,0.000000,58.171188,0.000000,0.000000,0.000000,0.000000,0.000000,2000.000000,0.000000
0.190000000,35.000000162,139.000000000,1.034245,10.934722,0.000000,0.000000,10.934722,0.190837,89.000000,0.000000,0.000000,0.000000,0.000000,0.000000,58.249832,0.000000,0.000000,0.000000,0.000000,0.000000,2000.000000,0.000000
0.200000000,35.000000180,139.000000000,1.146491,11.518008,0.000000,0.000000,11.518008,0.201017,89.000000,0.000000,0.000000,0.000000,0.000000,0.000000,58.328658,0.000000,0.000000,0.000000,0.000000,0.000000,2000.000000,0.000000
0.210000000,35.000000198,139.000000000,1.264574,12.102085,0.000000,0.000000,12.102085,0.211211,89.000000,0.000000,0.000000,0.000000,0.000000,0.000000,58.407668,0.000000,0.000000,0.000000,0.000000,0.000000,2000.000000,0.000000
0.220000000,35.000000218,139.000000000,1.388500,12.686954,0.000000,0.000000,12.686954,0.221418,89.000000,0.000000,0.000000,0.000000,0.000000,0.000000,58.486860,0.000000,0.000000,0.000000,0.000000,0.000000,2000.000000,0.000000
0.230000000,35.000000238,139.000000000,1.518278,13.272616,0.000000,0.000000,13.272616,0.231639,89.000000,0.000000,0.000000,0.000000,0.000000,0.000000,58.566237,0.000000,0.000000,0.000000,0.000000,0.000000,2000.000000,0.000000
0.240000000,35.000000259,139.000000000,1.653916,13.859074,0.000000,0.000000,13.859074,0.241874,89.000000,0.000000,0.000000,0.000000,0.000000,0.000000,58.645798,0.000000,0.000000,0.000000,0.000000,0.000000,2000.000000,0.000000
0.250000000,35.000000282,139.000000000,1.795422,14.446329,0.000000,0.000000,14.446329,0.252123,89.000000,0.000000,0.000000,0.000000,0.000000,0.000000,58.725545,0.000000,0.000000,0.000000,0.000000,0.000000,2000.000000,0.000000
0.260000000,35.000000305,139.000000000,1.942803,15.034384,0.000000,0.000000,15.034384,0.262386,89.000000,0.000000,0.000000,0.000000,0.000000,0.000000,58.805478,0.000000,0.000000,0.000000,0.000000,0.000000,2000.000000,0.000000
0.270000000,35.000000329,139.000000000,2.096067,15.623240,0.000000,0.000000,15.623240,0.272663,89.000000,0.000000,0.000000,0.000000,0.000000,0.000000,58.885598,0.000000,0.000000,0.000000,0.000000,0.000000,2000.000000,0.000000
0.280000000,35.000000354,139.000000000,2.255224,16.212899,0.000000,0.000000,16.212899,0.282954,89.000000,0.000000,0.000000,0.000000,0.000000,0.000000,58.965905,0.000000,0.000000,0.000000,0.000000,0.000000,2000.000000,0.000000
0.290000000,35.000000380,139.000000000,2.420280,16.803363,0.000000,0.000000,16.803363,0.293259,89.000000,0.000000,0.000000,0.000000,0.000000,0.000000,59.046400,0.000000,0.000000,0.000000,0.000000,0.000000,2000.000000,0.000000
0.300000000,35.000000406,139.000000000,2.591244,17.394634,0.000000,0.000000,17.394634,0.303578,89.000000,0.000000,0.000000,0.000000,0.000000,0.000000,59.127083,0.000000,0.000000,0.000000,0.000000,0.000000,2000.000000,0.000000
0.310000000,35.000000434,139.000000000,2.768124,17.986714,0.000000,0.000000,17.986714,0.313911,89.000000,0.000000,0.000000,0.000000,0.000000,0.000000,59.207956,0.000000,0.000000,0.000000,0.000000,0.000000,2000.000000,0.000000
0.320000000,35.000000463,139.000000000,2.950927,18.579604,0.000000,0.000000,18.579604,0.324259,89.000000,0.000000,0.000000,0.000000,0.000000,0.000000,59.289019,0.000000,0.000000,0.000000,0.000000,0.000000,2000.000000,0.000000
0.330000000,35.000000492,139.000000000,3.139663,19.173307,0.000000,0.000000,19.173307,0.334620,89.000000,0.000000,0.000000,0.000000,0.000000,0.000000,59.370272,0.000000,0.000000,0.000000,0.000000,0.000000,2000.000000,0.000000
0.340000000,35.000000523,139.000000000,3.334339,19.767824,0.000000,0.000000,19.767824,0.344996,89.000000,0.000000,0.000000,0.000000,0.000000,0.000000,59.451717,0.000000,0.000000,0.000000,0.000000,0.000000,2000.000000,0.000000
0.350000000,35.000000554,139.000000000,3.534964,20.363157,0.000000,0.000000,20.363157,0.355386,89.000000,0.000000,0.000000,0.000000,0.000000,0.000000,59.533354,0.000000,0.000000,0.000000,0.000000,0.000000,2000.000000,0.000000
0.360000000,35.000000587,139.000000000,3.741545,20.959309,0.000000,0.000000,20.959309,0.365790,89.000000,0.000000,0.000000,0.000000,0.000000,0.000000,59.615184,0.000000,0.000000,0.000000,0.000000,0.000000,2000.000000,0.000000
0.370000000,35.000000620,139.000000000,3.954090,21.556281,0.000000,0.000000,21.556281,0.376209,89.000000,0.000000,0.000000,0.000000,0.000000,0.000000,59.697207,0.000000,0.000000,0.000000,0.000000,0.000000,2000.000000,0.000000
0.380000000,35.000000654,139.000000000,4.172609,22.154075,0.000000,0.000000,22.154075,0.386642,89.000000,0.000000,0.000000,0.000000,0.000000,0.000000,59.779424,0.000000,0.000000,0.000000,0.000000,0.000000,2000.000000,0.000000
0.390000000,35.000000689,139.000000000,4.397108,22.752694,0.000000,0.000000,22.752694,0.397089,89.000000,0.000000,0.000000,0.000000,0.000000,0.000000,59.861835,0.000000,0.000000,0.000000,0.000000,0.000000,2000.000000,0.000000
0.400000000,35.000000726,139.000000000,4.627597,23.352138,0.000000,0.000000,23.352138,0.407551,89.000000,0.000000,0.000000,0.000000,0.000000,0.000000,59.944443,0.000000,0.000000,0.000000,0.000000,0.000000,2000.000000,0.000000
0.410000000,35.000000763,139.000000000,4.864084,23.952411,0.000000,0.000000,23.952411,0.418027,89.000000,0.000000,0.000000,0.000000,0.000000,0.000000,60.027246,0.000000,0.000000,0.000000,0.000000,0.000000,2000.000000,0.000000
0.420000000,35.000000801,139.000000000,5.106577,24.553513,0.000000,0.000000,24.553513,0.428518,89.000000,0.000000,0.000000,0.000000,0.000000,0.000000,60.110246,0.000000,0.000000,0.000000,0.000000,0.000000,2000.000000,0.000000
0.430000000,35.000000846,139.000000000,5.352076,25.161345,-0.000029,0.001710,25.339556,0.440836,89.000000,0.000000,0.000000,-0.000000,-0.000000,-0.000000,62.642060,0.044485,0.170968,0.003894,6.799241,393.082843,2000.000000,0.074468
0.440000000,35.000000894,139.000000000,5.609220,25.797060,0.000652,0.003420,25.970988,0.453640,89.000000,0.000000,0.000000,-0.000000,-0.000000,-0.011392,62.681650,0.339520,0.170920,0.007595,6.634693,412.907061,2000.000000,0.076324
0.450000000,35.000000943,139.000000000,5.870445,26.424074,0.004125,0.005129,26.593955,0.466293,88.999979,-0.373928,359.626015,0.000000,-0.000000,-0.023011,62.721144,0.653771,0.170866,0.011120,6.486130,432.942597,2000.000000,0.078155
0.460000000,35.000000993,139.000000000,6.137743,27.051483,0.010771,0.006837,27.217488,0.478952,88.999806,-1.129123,358.870705,0.000000,-0.000001,-0.034952,62.760352,0.990227,0.170805,0.014481,6.350999,453.470890,2000.000000,0.079988
0.470000000,35.000001045,139.000000000,6.411353,27.679282,0.020816,0.008545,27.841567,0.491617,88.999210,-2.275367,357.724287,0.000000,-0.000002,-0.047230,62.799143,1.349903,0.170736,0.017689,6.228865,474.492412,2000.000000,0.081822
0.480000000,35.000001097,139.000000001,6.691243,28.307467,0.034492,0.010252,28.466172,0.504287,88.997770,-3.821193,356.178224,0.000000,-0.000003,-0.059862,62.837368,1.733905,0.170659,0.020753,6.119348,496.007643,2000.000000,0.083658
0.490000000,35.000001151,139.000000001,6.977415,28.936032,0.052042,0.011958,29.091283,0.516963,88.994900,-5.772185,354.226932,0.000000,-0.000004,-0.072866,62.874856,2.143443,0.170573,0.023683,6.022122,518.017042,2000.000000,0.085496
0.500000000,35.000001207,139.000000001,7.269873,29.564969,0.073725,0.013664,29.716883,0.529646,88.989845,-8.128595,351.870158,0.000000,-0.000005,-0.086265,62.911414,2.579840,0.170478,0.026486,5.936911,540.521048,2000.000000,0.087334
0.510000000,35.000001263,139.000000001,7.568622,30.194268,0.099809,0.015368,30.342955,0.542337,88.981678,-10.882367,349.115955,0.000000,-0.000006,-0.100082,62.946819,3.044544,0.170374,0.029172,5.863484,563.520079,2000.000000,0.089175
0.520000000,35.000001321,139.000000000,7.873666,30.823916,0.130580,0.017072,30.969483,0.555044,88.969309,-14.013902,345.983920,0.000000,-0.000008,-0.114344,62.980825,3.539139,0.170259,0.031746,5.801655,587.014530,2000.000000,0.091016
0.530000000,35.000001381,139.000000000,8.185008,31.453899,0.166336,0.018774,31.596452,0.567773,88.951512,-17.489130,342.508120,0.000000,-0.000010,-0.129079,63.013147,4.065363,0.170133,0.034216,5.751283,611.004765,2000.000000,0.092859
0.540000000,35.000001441,138.999999999,8.502651,32.084199,0.207397,0.020475,32.223847,0.580536,88.926960,-21.257764,338.738841,0.000000,-0.000012,-0.144320,63.043464,4.625121,0.169995,0.036587,5.712265,635.491122,2000.000000,0.094703
0.550000000,35.000001503,138.999999998,8.826601,32.714794,0.254099,0.022174,32.851653,0.593353,88.894285,-25.253637,334.742246,0.000000,-0.000014,-0.160102,63.071412,5.220497,0.169845,0.038865,5.684540,660.473901,2000.000000,0.096549
0.560000000,35.000001567,138.999999996,9.156861,33.345660,0.306800,0.023872,33.479856,0.606246,88.852141,-29.397764,330.597318,0.000000,-0.000017,-0.176464,63.096577,5.853781,0.169682,0.041055,5.668086,685.953366,2000.000000,0.098395
0.570000000,35.000001631,138.999999993,9.493434,33.976768,0.365880,0.025569,34.108441,0.619248,88.799268,-33.604029,326.390171,0.000000,-0.000020,-0.193448,63.118488,6.527480,0.169506,0.043161,5.662923,711.929738,2000.000000,0.100243
0.580000000,35.000001697,138.999999989,9.836324,34.608083,0.431746,0.027263,34.737394,0.632399,88.734544,-37.786545,322.206687,0.000000,-0.000023,-0.211101,63.136610,7.244340,0.169315,0.045189,5.669106,738.403190,2000.000000,0.102092
0.590000000,35.000001764,138.999999985,10.185535,35.239566,0.504831,0.028956,35.366700,0.645752,88.657019,-41.867065,318.125112,0.000000,-0.000026,-0.229474,63.150332,8.007375,0.169109,0.047142,5.686734,765.373840,2000.000000,0.103942
0.600000000,35.000001833,138.999999979,10.541071,35.871171,0.585600,0.030647,35.996345,0.659371,88.565913,-45.780811,314.210218,0.000000,-0.000030,-0.248622,63.158959,8.819883,0.168887,0.049025,5.715946,792.841748,2000.000000,0.105793
0.610000000,35.000001903,138.999999972,10.902935,36.502844,0.674548,0.032335,36.626312,0.673336,88.460603,-49.479712,310.510074,0.000000,-0.000034,-0.268605,63.161695,9.685479,0.168648,0.050839,5.756923,820.806903,2000.000000,0.107645
0.620000000,35.000001974,138.999999963,11.271130,37.134524,0.772211,0.034021,37.256587,0.687741,88.340586,-52.932892,307.055551,0.000000,-0.000038,-0.289490,63.157631,10.608123,0.168392,0.052590,5.809889,849.269221,2000.000000,0.109498
0.630000000,35.000002047,138.999999953,11.645660,37.766140,0.879161,0.035704,37.887151,0.702702,88.205439,-56.125017,303.861977,0.000001,-0.000043,-0.311348,63.145728,11.592149,0.168118,0.054280,5.875112,878.228530,2000.000000,0.111351
0.640000000,35.000002121,138.999999941,12.026528,38.397610,0.996014,0.037385,38.517989,0.718352,88.054775,-59.053396,300.932041,0.000001,-0.000048,-0.334258,63.124792,12.642303,0.167825,0.055912,5.952911,907.684562,2000.000000,0.113206
0.650000000,35.000002196,138.999999926,12.413737,39.028840,1.123435,0.039063,39.149079,0.734849,87.888213,-61.724690,298.259076,0.000001,-0.000053,-0.358304,63.093455,13.763778,0.167512,0.057489,6.043650,937.636940,2000.000000,0.115061
0.660000000,35.000002273,138.999999909,12.807291,39.659723,1.262140,0.040737,39.780404,0.752375,87.705341,-64.151835,295.830139,0.000001,-0.000058,-0.383580,63.050144,14.962259,0.167179,0.059014,6.147750,968.085163,2000.000000,0.116917
0.670000000,35.000002350,138.999999889,13.207192,40.290132,1.412903,0.042408,40.411940,0.771138,87.505701,-66.351487,293.628567,0.000001,-0.000064,-0.410184,62.993053,16.243961,0.166824,0.060488,6.265683,999.028593,2000.000000,0.118774
0.680000000,35.000002430,138.999999866,13.613443,40.919924,1.576560,0.044076,41.043666,0.791374,87.288767,-68.342080,291.635922,0.000001,-0.000070,-0.438229,62.920099,17.615680,0.166446,0.061915,6.397984,1030.466433,2000.000000,0.120631
0.690000000,35.000002510,138.999999840,14.026046,41.548935,1.754014,0.045740,41.675554,0.813346,87.053936,-70.142454,289.833355,0.000002,-0.000077,-0.467831,62.828884,19.084849,0.166045,0.063296,6.545248,1062.397709,2000.000000,0.122489
0.700000000,35.000002592,138.999999810,14.445004,42.176975,1.946245,0.047399,42.307578,0.837350,86.800519,-71.770957,288.202510,0.000002,-0.000084,-0.499120,62.716639,20.659585,0.165619,0.064634,6.708140,1094.821244,2000.000000,0.124347
0.710000000,35.000002675,138.999999775,14.870319,42.803824,2.154313,0.049055,42.939707,0.863705,86.527732,-73.244902,286.726066,0.000003,-0.000091,-0.532237,62.580168,22.348757,0.165169,0.065932,6.887395,1127.735635,2000.000000,0.126206
0.720000000,35.000002760,138.999999737,15.301992,43.429231,2.379366,0.050706,43.571908,0.892764,86.234691,-74.580278,285.388026,0.000003,-0.000098,-0.567334,62.415776,24.162047,0.164692,0.067190,7.083826,1161.139216,2000.000000,0.128064
0.730000000,35.000002846,138.999999693,15.740024,44.052905,2.622649,0.052352,44.204143,0.924903,85.920407,-75.791634,284.173829,0.000004,-0.000106,-0.604578,62.219189,26.110017,0.164187,0.068412,7.298330,1195.030026,2000.000000,0.129923
0.740000000,35.000002933,138.999999644,16.184417,44.674512,2.885516,0.053993,44.836371,0.960523,85.583776,-76.892072,283.070362,0.000004,-0.000114,-0.644148,61.985454,28.204186,0.163655,0.069598,7.531895,1229.405767,2000.000000,0.131782
0.750000000,35.000003021,138.999999589,16.635171,45.293664,3.169433,0.055628,45.468547,1.000048,85.223578,-77.893307,282.065899,0.000005,-0.000123,-0.686241,61.708836,30.457103,0.163092,0.070752,7.785604,1264.263759,2000.000000,0.133641
0.760000000,35.000003111,138.999999527,17.092286,45.909917,3.475993,0.057258,46.100620,1.043921,84.838466,-78.805766,281.150001,0.000006,-0.000132,-0.731070,61.382678,32.882430,0.162499,0.071875,8.060646,1299.600881,2000.000000,0.135499
0.770000000,35.000003203,138.999999459,17.555761,46.522754,3.806924,0.058882,46.732532,1.092601,84.426960,-79.638695,280.313406,0.000007,-0.000142,-0.778866,60.999255,35.495019,0.161875,0.072969,8.358323,1335.413511,2000.000000,0.137357
0.780000000,35.000003295,138.999999383,18.025596,47.131580,4.164105,0.060500,47.364221,1.146561,83.987434,-80.400282,279.547912,0.000008,-0.000151,-0.829881,60.549594,38.311000,0.161217,0.074036,8.680061,1371.697454,2000.000000,0.139215
0.790000000,35.000003389,138.999999299,18.501788,47.735708,4.549574,0.062111,47.995614,1.206288,83.518112,-81.097770,278.846258,0.000009,-0.000162,-0.884388,60.023264,41.347862,0.160525,0.075079,9.027418,1408.447858,2000.000000,0.141071
0.800000000,35.000003484,138.999999207,18.984333,48.334338,4.965545,0.063715,48.626630,1.272279,83.017050,-81.737566,278.202021,0.000010,-0.000172,-0.942684,59.408134,44.624529,0.159798,0.076099,9.402097,1445.659116,2000.000000,0.142927
0.810000000,35.000003581,138.999999105,19.473229,48.926548,5.414419,0.065312,49.257180,1.345041,82.482130,-82.325335,277.609514,0.000012,-0.000184,-1.005091,58.690089,48.161437,0.159033,0.077100,9.805956,1483.324756,2000.000000,0.144781
0.820000000,35.000003678,138.999998992,19.968470,49.511268,5.898801,0.066901,49.887160,1.425094,81.911042,-82.866096,277.063699,0.000014,-0.000195,-1.071958,57.852697,51.980587,0.158230,0.078084,10.241024,1521.437312,2000.000000,0.146633
0.830000000,35.000003778,138.999998869,20.470050,50.087256,6.421515,0.068482,50.516455,1.512970,81.301271,-83.364294,276.560105,0.000016,-0.000207,-1.143666,56.876826,56.105592,0.157388,0.079053,10.709513,1559.988171,2000.000000,0.148484
0.840000000,35.000003878,138.999998733,20.977960,50.653072,6.985620,0.070055,51.144932,1.609215,80.650079,-83.823875,276.094763,0.000018,-0.000220,-1.220624,55.740192,60.561686,0.156503,0.080011,11.213834,1598.967400,2000.000000,0.150332
0.850000000,35.000003980,138.999998585,21.492192,51.207045,7.594423,0.071618,51.772444,1.714394,79.954489,-84.248345,275.664137,0.000021,-0.000232,-1.303278,54.416840,65.375706,0.155575,0.080962,11.756615,1638.363548,2000.000000,0.152177
0.860000000,35.000004083,138.999998424,22.012733,51.747233,8.251496,0.073173,52.398820,1.829094,79.211266,-84.640822,275.265078,0.000024,-0.000246,-1.392107,52.876541,70.576010,0.154602,0.081909,12.340716,1678.163406,2000.000000,0.154020
0.870000000,35.000004188,138.999998247,22.539571,52.271380,8.960693,0.074717,53.023868,1.953924,78.416898,-85.004089,274.894771,0.000027,-0.000260,-1.487632,51.084105,76.192333,0.153582,0.082856,12.969250,1718.351741,2000.000000,0.155858
0.880000000,35.000004293,138.999998055,23.072688,52.776865,9.726155,0.076251,53.647368,2.089524,77.567571,-85.340627,274.550698,0.000031,-0.000274,-1.590412,48.998580,82.255544,0.152512,0.083810,13.645605,1758.910976,2000.000000,0.157691
0.890000000,35.000004401,138.999997846,23.612065,53.260641,10.552328,0.077775,54.269070,2.236564,76.659149,-85.652656,274.230598,0.000035,-0.000289,-1.701046,46.572352,88.797278,0.151390,0.084774,14.373459,1799.820828,2000.000000,0.159520
0.900000000,35.000004509,138.999997618,24.157680,53.719165,11.443962,0.079287,54.888688,2.395754,75.687150,-85.942164,273.932441,0.000040,-0.000304,-1.820179,43.750123,95.849405,0.150214,0.085756,15.156810,1841.057886,2000.000000,0.161342
0.910000000,35.000004619,138.999997371,24.709506,54.148324,12.406115,0.080788,55.505894,2.567837,74.646722,-86.210934,273.654393,0.000046,-0.000320,-1.948497,40.467769,103.443285,0.148980,0.086763,15.999994,1882.595114,2000.000000,0.163157
0.920000000,35.000004730,138.999997104,25.267513,54.543336,13.444139,0.082275,56.120314,2.753602,73.532619,-86.460568,273.394800,0.000052,-0.000336,-2.086730,36.651077,111.608756,0.147685,0.087805,16.907710,1924.401293,2000.000000,0.164964
0.930000000,35.000004842,138.999996813,25.831663,54.898652,14.563669,0.083750,56.731521,2.953882,72.339174,-86.692506,273.152163,0.000059,-0.000353,-2.235648,32.214381,120.372773,0.146325,0.088891,17.885042,1966.440360,2000.000000,0.166762
0.940000000,35.000004956,138.999996499,26.401917,55.207834,15.770578,0.085212,57.339025,3.169553,71.060279,-86.908046,272.925119,0.000067,-0.000370,-2.396059,27.059112,129.757620,0.144895,0.090034,18.937484,2008.670656,2000.000000,0.168549
0.950000000,35.000005070,138.999996159,26.978225,55.463426,17.070933,0.086658,57.942263,3.401537,69.689362,-87.108358,272.712428,0.000075,-0.000388,-2.568803,21.072323,139.778576,0.143392,0.091249,20.070959,2051.044062,2000.000000,0.170323
0.960000000,35.000005187,138.999995792,27.560530,55.656805,18.470910,0.088090,58.540592,3.650802,68.219370,-87.294498,272.512955,0.000085,-0.000406,-2.754741,14.125256,150.440926,0.141808,0.092552,21.291838,2093.505010,2000.000000,0.172083
0.970000000,35.000005304,138.999995395,28.148769,55.778020,19.976688,0.089506,59.133273,3.918356,66.642755,-87.467417,272.325659,0.000096,-0.000425,-2.954744,6.072078,161.736171,0.140138,0.093964,22.606951,2135.989355,2000.000000,0.173827
0.980000000,35.000005423,138.999994967,28.742866,55.815622,21.594296,0.090905,59.719462,4.205247,64.951473,-87.627979,272.149582,0.000109,-0.000444,-3.169673,-3.251035,173.637287,0.138374,0.095511,24.023599,2178.423103,2000.000000,0.175551
0.990000000,35.000005542,138.999994506,29.342735,55.756478,23.329412,0.092286,60.298190,4.512551,63.136985,-87.776958,271.983841,0.000123,-0.000464,-3.400355,-14.026212,186.092886,0.136506,0.097222,25.549545,2220.720980,2000.000000,0.177253
1.000000000,35.000005663,138.999994008,29.948277,55.585596,25.187109,0.093649,60.868352,4.841361,61.190278,-87.915056,271.827615,0.000138,-0.000484,-3.647550,-26.453257,199.020142,0.134524,0.099136,27.193005,2262.784847,2000.000000,0.178931
1.010000000,35.000005786,138.999993473,30.559376,55.285950,27.171509,0.094991,61.428683,5.192778,59.101907,-88.042904,271.680137,0.000156,-0.000505,-3.911906,-48.313631,212.295710,0.132421,0.101299,28.962612,2304.501957,1800.000000,0.180579
1.020000000,35.000005909,138.999992897,31.175902,54.724932,29.280924,0.096313,61.878142,5.510619,56.862054,-88.161069,271.540693,0.000175,-0.000526,-4.193074,-72.222953,225.224326,0.130234,0.103991,30.917702,2338.209868,1600.000000,0.181902
1.030000000,35.000006033,138.999992290,31.795838,53.919373,31.513418,0.097613,62.251888,5.807394,54.461106,-88.270038,271.408632,0.000197,-0.000548,-4.490528,-98.366797,237.604353,0.127932,0.107236,33.055053,2366.399942,1400.000000,0.183002
1.040000000,35.000006158,138.999991650,32.419154,52.846542,33.862198,0.098891,62.551233,6.078508,51.889751,-88.370236,271.283348,0.000221,-0.000570,-4.803488,-126.903034,249.026909,0.125495,0.111160,35.386836,2389.069734,1200.000000,0.183883
1.050000000,35.000006284,138.999990982,33.044976,51.482245,36.316182,0.100143,62.777972,6.319009,49.139126,-88.462040,271.164266,0.000249,-0.000593,-5.130607,-157.942118,258.996917,0.122898,0.115928,37.925281,2406.276526,1000.000000,0.184551
1.060000000,35.000006410,138.999990289,33.672597,49.801359,38.859145,0.101370,62.934498,6.523609,46.201141,-88.545783,271.050835,0.000279,-0.000616,-5.469838,-191.520814,266.930487,0.120107,0.121768,40.682369,2418.144909,800.000000,0.185012
1.070000000,35.000006536,138.999989575,34.301341,47.778643,41.468854,0.102570,63.023925,6.686727,43.068884,-88.621751,270.942521,0.000312,-0.000641,-5.818289,-227.570097,272.158989,0.117075,0.128995,43.669427,2424.875483,600.000000,0.185276
1.080000000,35.000006663,138.999988846,34.930578,45.389878,44.116265,0.103738,63.050237,6.802563,39.737097,-88.690191,270.838808,0.000349,-0.000666,-6.172069,-265.877997,273.942962,0.113736,0.138058,46.896615,2426.753946,400.000000,0.185355
1.090000000,35.000006790,138.999988107,35.559725,42.613394,46.764904,0.104873,63.018437,6.865214,36.202756,-88.751308,270.739192,0.000389,-0.000692,-6.526125,-306.049406,271.499437,0.109999,0.149617,50.372297,2424.160104,200.000000,0.185263
1.100000000,35.000006916,138.999987364,36.188264,39.431976,49.370554,0.105971,62.934701,6.868818,32.465729,-88.805268,270.643177,0.000434,-0.000721,-6.874098,-347.466610,264.046169,0.105720,0.164684,54.102269,2417.576099,0.000000,0.185018
1.110000000,35.000007043,138.999986624,36.815746,35.835159,51.881442,0.107024,62.806517,6.807753,28.529524,-88.852193,270.550275,0.000483,-0.000753,-7.208197,-381.737610,250.865494,0.100677,0.184883,58.088858,2407.592893,0.000000,0.184642
1.120000000,35.000007170,138.999985895,37.441811,31.934290,54.247227,0.108025,62.702305,6.774515,24.402109,-88.892170,270.460009,0.000537,-0.000791,-7.519117,-415.295735,232.239178,0.094475,0.212180,62.242288,2399.465556,0.000000,0.184337
1.130000000,35.000007296,138.999985164,38.067226,27.702060,56.408199,0.108960,62.598112,6.739064,20.096773,-88.925244,270.371909,0.000595,-0.000837,-7.797314,-446.834004,207.680136,0.086510,0.251183,66.575754,2391.354032,0.000000,0.184032
1.140000000,35.000007423,138.999984438,38.691526,23.161923,58.305678,0.109810,62.493931,6.701324,15.632260,-88.951426,270.285509,0.000660,-0.000897,-8.031663,-474.847012,177.263169,0.075550,0.310777,71.070585,2383.257889,0.000000,0.183727
1.150000000,35.000007549,138.999983717,39.314805,18.352505,59.882874,0.110538,62.389757,6.661224,11.033673,-88.970701,270.200354,0.000731,-0.000981,-8.210031,-497.705919,141.469672,0.058713,0.411688,75.701737,2375.176779,0.000000,0.183422
1.160000000,35.000007676,138.999983000,39.937065,13.328526,61.089087,0.111073,62.285583,6.618701,6.333051,-88.983023,270.116024,0.000811,-0.001109,-8.319597,-513.769586,101.254089,0.027331,0.616155,80.437177,2367.110061,0.000000,0.183117
1.170000000,35.000007802,138.999982288,40.558306,8.160532,61.884484,0.111226,62.181388,6.573694,1.569754,-88.988343,270.032149,0.000902,-0.001332,-8.347181,-521.519989,58.067494,-0.062311,1.237025,85.237303,2359.056116,0.000000,0.182812
1.180000000,35.000007928,138.999981581,41.178529,2.933254,62.244924,0.110199,62.077080,6.526066,-3.209322,-88.986627,269.948464,0.001011,-0.001858,-8.278846,-506.687882,13.732284,-0.983630,119.318028,89.883059,2351.008151,0.000000,0.182507
1.190000000,35.000008054,138.999980880,41.797734,-2.062924,62.181023,0.095809,61.970954,6.664581,-7.949316,-88.977920,269.864952,0.001163,-0.005637,-8.073760,-495.802679,-26.755855,9.741721,178.905915,85.339705,2342.837063,0.000000,0.182196
1.200000000,35.000008177,138.999980143,42.415686,-7.014146,61.713964,0.246955,61.865486,6.723765,-12.572041,-88.962790,269.783822,0.001612,0.028609,-7.967632,-484.902453,-65.508463,9.428435,178.574219,80.749196,2334.730702,0.000000,0.181887
1.210000000,35.000008328,138.999979423,43.032616,-11.826748,60.869543,0.340199,61.759919,6.786828,-17.133677,-88.935313,269.680322,-0.000637,0.062627,-7.950972,-476.699193,-103.165759,9.013704,178.674892,76.232777,2326.631650,0.000000,0.181578
1.220000000,35.000008477,138.999978692,43.648426,-16.543110,59.652825,0.428801,61.654424,6.847931,-21.685355,-88.892614,269.550838,-0.005550,0.096419,-8.011675,-470.218740,-141.162696,8.434105,178.735445,71.723108,2318.552795,0.000000,0.181269
1.230000000,35.000008636,138.999977957,44.263132,-21.179266,58.058036,0.510785,61.548965,6.907448,-26.271253,-88.830665,269.390706,-0.013171,0.129753,-8.138856,-464.431534,-180.474063,7.697080,178.785612,67.176349,2310.491339,0.000000,0.180961
1.240000000,35.000008804,138.999977218,44.876733,-25.740671,56.070354,0.584586,61.443540,6.965365,-30.929290,-88.743875,269.193801,-0.023591,0.162394,-8.322086,-458.164835,-221.768366,6.806591,178.834197,62.554427,2302.447276,0.000000,0.180652
1.250000000,35.000008980,138.999976475,45.489230,-30.220499,53.669084,0.648657,61.338151,7.021656,-35.691359,-88.624306,268.951673,-0.036925,0.194080,-8.551052,-450.135997,-265.399086,5.765803,178.884636,57.825221,2294.420584,0.000000,0.180343
1.260000000,35.000009165,138.999975729,46.100623,-34.598730,50.830873,0.701477,61.232797,7.076279,-40.583368,-88.460324,268.652152,-0.053300,0.224510,-8.815286,-438.992142,-311.383894,4.578027,178.938369,52.962505,2286.411244,0.000000,0.180035
1.270000000,35.000009358,138.999974979,46.710912,-38.841646,47.533155,0.741559,61.127478,7.129186,-45.625100,-88.234179,268.276880,-0.072827,0.253344,-9.103978,-423.366850,-359.376599,3.247378,178.996010,47.946036,2278.419235,0.000000,0.179726
1.280000000,35.000009559,138.999974226,47.320098,-42.901943,43.757863,0.767469,61.022195,7.180323,-50.829922,-87.917411,267.796690,-0.095583,0.280194,-9.405894,-401.959021,-408.642734,1.779328,179.057848,42.761754,2270.444535,0.000000,0.179418
1.290000000,35.000009769,138.999973471,47.928181,-46.719694,39.495356,0.777841,60.916946,7.229638,-56.204356,-87.461449,267.162185,-0.121587,0.304638,-9.709410,-373.634682,-458.051712,0.181224,179.124111,37.402033,2262.487122,0.000000,0.179110
1.300000000,35.000009987,138.999972714,48.535162,-50.224371,34.748330,0.771404,60.811732,7.277078,-61.747424,-86.776334,266.282448,-0.150771,0.326224,-10.002676,-337.546663,-506.099388,-1.537265,179.195128,31.865898,2254.546974,0.000000,0.178802
1.310000000,35.000010214,138.999971954,49.141041,-53.338080,29.535401,0.747009,60.706554,7.322600,-67.449397,-85.675545,264.969855,-0.182966,0.344496,-10.273907,-293.260276,-550.973310,-3.363792,179.271455,26.159165,2246.624067,0.000000,0.178494
1.320000000,35.000010449,138.999971193,49.745820,-55.980031,23.893892,0.703658,60.601410,7.366170,-73.288266,-83.701626,262.765714,-0.217887,0.359018,-10.511803,-240.866362,-590.667971,-5.283117,179.353976,20.294400,2238.718377,0.000000,0.178186
1.330000000,35.000010692,138.999970430,50.349498,-58.072037,17.881331,0.640531,60.496301,7.407772,-79.214405,-79.370712,258.184790,-0.255123,0.369402,-10.706071,-181.058440,-623.148561,-7.277070,179.444010,14.290648,2230.829880,0.000000,0.177878
1.340000000,35.000010943,138.999969666,50.952077,-59.544631,11.575202,0.557020,60.391227,7.447403,-85.021298,-64.151506,242.694300,-0.294144,0.375347,-10.847996,-115.150544,-646.550046,-9.324728,179.543430,8.172862,2222.958549,0.000000,0.177570
1.350000000,35.000011203,138.999968902,51.553557,-60.343145,5.070664,0.452747,60.286188,7.485086,-87.064715,35.841923,142.406727,-0.334319,0.376670,-10.931012,-45.018484,-659.386394,-11.402822,179.654793,1.971008,2215.104360,0.000000,0.177262
1.360000000,35.000011471,138.999968137,52.153940,-60.432971,-1.523773,0.327582,60.181183,7.520865,-81.617087,71.799134,106.130852,-0.374944,0.373330,-10.951197,27.039952,-660.736196,-13.486368,179.781524,-4.281150,2207.267286,0.000000,0.176955
1.370000000,35.000011747,138.999967373,52.753225,-59.803220,-8.092280,0.181655,60.076213,7.554813,-75.491837,78.508107,99.076985,-0.415283,0.365448,-10.907625,98.513428,-650.369603,-15.549471,179.928145,-10.547554,2199.447303,0.000000,0.176647
1.380000000,35.000012031,138.999966608,53.351415,-58.468168,-14.518786,0.015355,59.971276,7.587032,-69.307929,81.107010,96.105220,-0.454613,0.353302,-10.802505,166.817703,-628.831497,-35.863059,-179.899400,-16.791537,2191.644383,0.000000,0.176340
1.390000000,35.000012323,138.999965844,53.948510,-56.466832,-20.693696,-0.445139,59.868745,7.500249,-63.158826,82.406803,94.402847,-0.492269,0.272422,-10.629915,229.915338,-596.471949,-34.060070,-179.407984,-22.976119,2184.031428,0.000000,0.176040
1.400000000,35.000012577,138.999965083,54.544830,-53.858641,-26.515111,-0.795972,59.765223,7.450035,-57.102244,83.185012,93.181889,-0.520841,0.188601,-10.405174,285.646186,-555.705198,-32.345532,-178.980956,-29.062921,2176.360169,0.000000,0.175737
1.410000000,35.000012840,138.999964324,55.140043,-50.722595,-31.904484,-1.129975,59.661784,7.397458,-51.172452,83.681253,92.202660,-0.540204,0.103171,-10.138840,332.935883,-508.658304,-30.726861,-178.507733,-35.020843,2168.709102,0.000000,0.175434
1.420000000,35.000013092,138.999963567,55.734299,-47.145905,-36.805407,-1.448077,59.558357,7.342439,-45.395326,84.004712,91.355768,-0.550525,0.017436,-9.843114,371.363942,-457.590467,-29.214910,-177.964827,-40.825158,2161.073042,0.000000,0.175131
1.430000000,35.000013335,138.999962814,56.327572,-43.218159,-41.183870,-1.751331,59.454943,7.284911,-39.788841,84.212312,90.583874,-0.552218,-0.067421,-9.531133,401.163598,-404.639382,-27.816857,-177.320820,-46.457815,2153.451969,0.000000,0.174828
1.440000000,35.000013571,138.999962064,56.919865,-39.024988,-45.026526,-2.040848,59.351540,7.224795,-34.363041,84.336626,89.853679,-0.545878,-0.150382,-9.216312,423.108213,-351.644675,-26.535329,-176.530977,-51.907819,2145.845855,0.000000,0.174525
1.450000000,35.000013800,138.999961317,57.511178,-34.643073,-48.337371,-2.317755,59.248149,7.161986,-29.120093,84.397539,89.144133,-0.532204,-0.230610,-8.911777,438.360316,-300.035181,-25.367018,-175.527327,-57.171039,2138.254675,0.000000,0.174222
1.460000000,35.000014021,138.999960575,58.101512,-30.136689,-51.133483,-2.583131,59.144770,7.096338,-24.054557,84.407680,88.440853,-0.511927,-0.307440,-8.629947,448.312950,-250.779354,-24.299802,-174.199012,-62.249348,2130.678398,0.000000,0.173919
1.470000000,35.000014234,138.999959838,58.690868,-25.555814,-53.440401,-2.837906,59.041402,7.027630,-19.153841,84.375161,87.733200,-0.485749,-0.380332,-8.382260,454.446692,-204.387633,-23.305987,-172.349590,-67.148689,2123.116996,0.000000,0.173616
1.480000000,35.000014441,138.999959106,59.279246,-20.935585,-55.287640,-3.082677,58.938045,6.955543,-14.398803,84.305012,87.012626,-0.454294,-0.448794,-8.179027,458.216591,-160.949844,-22.324593,-169.592730,-71.874684,2115.570434,0.000000,0.173314
1.490000000,35.000014641,138.999958381,59.866648,-16.296791,-56.704630,-3.317284,58.834698,6.879623,-9.764412,84.199935,86.271667,-0.418077,-0.512222,-8.029339,460.973146,-120.190384,-21.207646,-165.054146,-76.420725,2108.038671,0.000000,0.173011
1.500000000,35.000014835,138.999957662,60.453073,-11.647041,-57.717225,-3.539669,58.731361,6.799378,-5.220465,84.060665,85.503302,-0.377498,-0.569552,-7.940855,463.887499,-81.528497,-19.522262,-156.319484,-80.725219,2100.521648,0.000000,0.172708
1.510000000,35.000015025,138.999956951,61.038523,-6.982671,-58.344839,-3.742030,58.628033,6.715465,-0.732403,83.886085,84.700640,-0.332875,-0.618206,-7.918811,467.382211,-44.150049,-15.739869,-134.815182,-84.451012,2093.019290,0.000000,0.172405
1.520000000,35.000015212,138.999956248,61.622994,-2.298548,-58.598973,-3.895740,58.524715,6.641947,3.737376,83.673231,83.857277,-0.284574,-0.650172,-7.960637,466.498209,-7.220712,-9.351783,-80.817239,-85.837724,2085.531717,0.000000,0.172103
1.530000000,35.000015403,138.999955555,62.206460,2.336656,-58.489091,-3.971668,58.421433,6.663351,8.225397,83.417675,82.970246,-0.233507,-0.655672,-8.027522,463.549865,29.398108,-10.062101,-39.059537,-83.311633,2078.060724,0.000000,0.171800
1.540000000,35.000015605,138.999954853,62.788808,6.923330,-58.015371,-4.090050,58.318164,6.719017,12.746705,83.115014,82.043107,-0.181575,-0.659927,-8.049032,459.071149,65.791808,-11.314789,-24.248132,-79.356184,2070.604679,0.000000,0.171498
1.550000000,35.000015804,138.999954145,63.370099,11.470749,-57.177051,-4.224099,58.214918,6.758936,17.274617,82.758293,81.068266,-0.129166,-0.664979,-8.005661,448.834871,101.259459,-11.923696,-17.741039,-75.053376,2063.164306,0.000000,0.171195
1.560000000,35.000016004,138.999953436,63.950344,15.906669,-55.989234,-4.360816,58.111700,6.794518,21.771091,82.339425,80.037134,-0.076641,-0.668411,-7.900196,432.681069,134.415487,-12.225678,-14.228222,-70.664322,2055.739934,0.000000,0.170893
1.570000000,35.000016205,138.999952723,64.529529,20.170291,-54.479012,-4.498717,58.008507,6.827327,26.199706,81.849744,78.941391,-0.024540,-0.669124,-7.740602,411.445641,164.172234,-12.374893,-12.084553,-66.286322,2048.331325,0.000000,0.170590
1.580000000,35.000016407,138.999952007,65.107657,24.212327,-52.683246,-4.636981,57.905339,6.857663,30.528517,81.279694,77.771932,0.026563,-0.666704,-7.536317,386.262221,189.787889,-12.438837,-10.673273,-61.973498,2040.938423,0.000000,0.170288
1.590000000,35.000016609,138.999951288,65.684732,27.995623,-50.645236,-4.775042,57.802194,6.885685,34.730841,80.618471,76.518299,0.076138,-0.661100,-7.297034,358.337593,210.866313,-12.450301,-9.698090,-57.762012,2033.561189,0.000000,0.169986
1.600000000,35.000016812,138.999950565,66.260755,31.495262,-48.411330,-4.912495,57.699073,6.911530,38.785342,79.853634,75.168233,0.123735,-0.652471,-7.032083,328.828863,227.323183,-12.426841,-9.003331,-53.677430,2026.199588,0.000000,0.169684
1.610000000,35.000017015,138.999949840,66.835728,34.697769,-46.027933,-5.049049,57.595976,6.935327,42.675778,78.970638,73.707226,0.169004,-0.641099,-6.750061,298.766679,239.329117,-12.378646,-8.499564,-49.737639,2018.853588,0.000000,0.169382
1.620000000,35.000017218,138.999949112,67.409651,37.599679,-43.539113,-5.184487,57.492902,6.957201,46.390515,77.952272,72.117974,0.211701,-0.627334,-6.458621,269.012026,247.242813,-12.312040,-8.131776,-45.954401,2011.523156,0.000000,0.169080
1.630000000,35.000017422,138.999948382,67.982527,40.205757,-40.984898,-5.318648,57.389851,6.977271,49.921903,76.777950,70.379697,0.251678,-0.611552,-6.164371,240.239773,251.544769,-12.231174,-7.864255,-42.334426,2004.208263,0.000000,0.168778
1.640000000,35.000017625,138.999947650,68.554356,42.527112,-38.400222,-5.451410,57.286823,6.995653,53.265567,75.422834,68.467272,0.288873,-0.594127,-5.872857,212.942282,252.778696,-12.138914,-7.672783,-38.880245,1996.908879,0.000000,0.168476
1.650000000,35.000017829,138.999946916,69.125140,44.579388,-35.814433,-5.582682,57.183817,7.012455,56.419660,73.856700,66.350123,0.323299,-0.575409,-5.588609,187.446377,251.504391,-12.037321,-7.540339,-35.590961,1989.624976,0.000000,0.168174
1.660000000,35.000018032,138.999946180,69.694880,46.381157,-33.251239,-5.712396,57.080834,7.027782,59.384077,72.042531,63.990821,0.355027,-0.555714,-5.315226,163.937738,248.263084,-11.927934,-7.454596,-32.462921,1982.356526,0.000000,0.167872
1.670000000,35.000018236,138.999945443,70.263578,47.952561,-30.728976,-5.840502,56.977873,7.041731,62.159658,69.934747,61.343324,0.384171,-0.535317,-5.055482,142.487999,243.554464,-11.811935,-7.406397,-29.490303,1975.103502,0.000000,0.167570
1.680000000,35.000018440,138.999944703,70.831233,49.314234,-28.261073,-5.966966,56.874934,7.054392,64.747360,67.477091,58.350871,0.410872,-0.514448,-4.811445,123.081230,237.823522,-11.690256,-7.388800,-26.665614,1967.865880,0.000000,0.167269
1.690000000,35.000018644,138.999943963,71.397848,50.486481,-25.856630,-6.091762,56.772016,7.065853,67.147359,64.600240,54.943592,0.435294,-0.493295,-4.584589,105.637778,231.455000,-11.563647,-7.396449,-23.980124,1960.643632,0.000000,0.166967
1.700000000,35.000018848,138.999943222,71.963423,51.488693,-23.521035,-6.214877,56.669120,7.076191,69.358073,61.219504,51.036220,0.457608,-0.472003,-4.375907,90.034430,224.773261,-11.432720,-7.425154,-21.424217,1953.436736,0.000000,0.166665
1.710000000,35.000019052,138.999942479,72.527959,52.338948,-21.256566,-6.336301,56.566246,7.085479,71.375063,57.233506,46.526765,0.477986,-0.450679,-4.186008,76.120635,218.045706,-11.297980,-7.471605,-18.987679,1946.245167,0.000000,0.166364
1.720000000,35.000019257,138.999941735,73.091458,53.053772,-19.062956,-6.456031,56.463393,7.093785,73.189833,52.525816,41.298151,0.496600,-0.429397,-4.015202,63.730964,211.488246,-11.159850,-7.533167,-16.659924,1939.068902,0.000000,0.166063
1.730000000,35.000019461,138.999940991,73.653919,53.648017,-16.937898,-6.574069,56.360561,7.101168,74.788668,46.973263,35.226531,0.513611,-0.408204,-3.863576,52.694231,205.271704,-11.018684,-7.607741,-14.430172,1931.907920,0.000000,0.165761
1.740000000,35.000019666,138.999940246,74.215343,54.134815,-14.877484,-6.690420,56.257750,7.107685,76.151908,40.466830,28.202182,0.529171,-0.387118,-3.731055,42.839839,199.528403,-10.874780,-7.693656,-12.287583,1924.762197,0.000000,0.165460
1.750000000,35.000019870,138.999939500,74.775732,54.525600,-12.876573,-6.805090,56.154960,7.113385,77.254458,32.951372,20.169219,0.543422,-0.366138,-3.617452,34.001895,194.358426,-10.728388,-7.789598,-10.221351,1917.631712,0.000000,0.165159
1.760000000,35.000020075,138.999938753,75.335085,54.830159,-10.929106,-6.918088,56.052190,7.118314,78.068736,24.483340,11.183319,0.556490,-0.345245,-3.522508,26.021590,189.835274,-10.579718,-7.894550,-8.220774,1910.516445,0.000000,0.164857
1.770000000,35.000020280,138.999938007,75.893405,55.056711,-9.028357,-7.029425,55.949442,7.122511,78.570891,15.285123,1.466065,0.568489,-0.324406,-3.445925,18.748299,186.010767,-10.428944,-8.007762,-6.275295,1903.416374,0.000000,0.164556
1.780000000,35.000020486,138.999937259,76.450690,55.211982,-7.167142,-7.139111,55.846714,7.126012,78.749196,5.749927,351.409819,0.579518,-0.303573,-3.387387,12.039743,182.919156,-10.276206,-8.128716,-4.374529,1896.331481,0.000000,0.164255
1.790000000,35.000020691,138.999936512,77.006943,55.301299,-5.337986,-7.247160,55.744006,7.128850,78.610540,-3.639180,341.496762,0.589664,-0.282690,-3.346586,5.761509,180.580435,-10.121614,-8.257109,-2.508277,1889.261744,0.000000,0.163954
1.800000000,35.000020897,138.999935764,77.562163,55.328656,-3.533256,-7.353581,55.641319,7.131052,78.180526,-12.446197,332.161966,0.598998,-0.261692,-3.323224,-0.213863,179.002914,-9.965249,-8.392849,-0.666519,1882.207144,0.000000,0.163653
1.810000000,35.000021103,138.999935017,78.116352,55.296788,-1.745281,-7.458389,55.538652,7.132641,77.496771,-20.388795,323.686787,0.607578,-0.240508,-3.317033,-6.008047,178.185097,-9.807164,-8.536049,1.160583,1875.167663,0.000000,0.163352
1.820000000,35.000021309,138.999934269,78.669509,55.207225,0.033565,-7.561595,55.436005,7.133640,76.599753,-27.359829,316.177340,0.615450,-0.219059,-3.327771,-11.738230,178.116933,-9.647380,-8.687029,2.982704,1868.143282,0.000000,0.163051
1.830000000,35.000021516,138.999933521,79.221635,55.060333,1.810768,-7.663211,55.333377,7.134066,75.525815,-33.383448,309.608390,0.622642,-0.197263,-3.355227,-17.518439,178.780478,-9.485889,-8.846334,4.809367,1861.133981,0.000000,0.162750
1.840000000,35.000021723,138.999932774,79.772731,54.855342,3.593604,-7.763248,55.230770,7.133936,74.303850,-38.554769,303.883674,0.629172,-0.175035,-3.399220,-23.460814,180.150026,-9.322649,-9.014745,6.649955,1854.139742,0.000000,0.162450
1.850000000,35.000021930,138.999932026,80.322798,54.590364,5.389059,-7.861715,55.128183,7.133263,72.954847,-42.993494,298.882270,0.635043,-0.152285,-3.459594,-29.676759,182.191741,-9.157580,-9.193315,8.513728,1847.160548,0.000000,0.162149
1.860000000,35.000022138,138.999931279,80.871835,54.262398,7.203744,-7.958623,55.025616,7.132059,71.492846,-46.817447,294.485059,0.640241,-0.128924,-3.536208,-36.277892,184.862814,-8.990563,-9.383395,10.409828,1840.196379,0.000000,0.161848
1.870000000,35.000022346,138.999930532,81.419844,53.867325,9.043806,-8.053978,54.923068,7.130334,69.926320,-50.130910,290.586377,0.644739,-0.104861,-3.628933,-43.376729,188.110163,-8.821431,-9.586694,12.347286,1833.247219,0.000000,0.161548
1.880000000,35.000022555,138.999929786,81.966825,53.399901,10.914818,-8.147785,54.820539,7.128100,68.259496,-53.021350,287.097282,0.648493,-0.080003,-3.737631,-51.087002,191.868718,-8.649965,-9.805331,14.335016,1826.313049,0.000000,0.161247
1.890000000,35.000022764,138.999929040,82.512778,52.853744,12.821660,-8.240048,54.718030,7.125365,66.493443,-55.560086,283.944871,0.651444,-0.054262,-3.862144,-59.523521,196.059287,-8.475880,-10.041927,16.381806,1819.393853,0.000000,0.160946
1.900000000,35.000022973,138.999928295,83.057704,52.221327,14.768367,-8.330765,54.615541,7.122141,64.626918,-57.804440,281.070120,0.653512,-0.027551,-4.002273,-68.801447,200.586071,-8.298820,-10.299704,18.496291,1812.489613,0.000000,0.160646
1.910000000,35.000023184,138.999927550,83.601603,51.493977,16.757960,-8.419933,54.513071,7.118439,62.657013,-59.800177,278.425432,0.654600,0.000211,-4.157755,-79.034838,205.333876,-8.118342,-10.582625,20.686915,1805.600312,0.000000,0.160346
1.920000000,35.000023394,138.999926806,84.144475,50.661890,18.792248,-8.507540,54.410620,7.114274,60.579647,-61.583751,275.972374,0.654591,0.029101,-4.328235,-90.334299,210.165133,-7.933894,-10.895579,22.961873,1798.725934,0.000000,0.160045
1.930000000,35.000023606,138.999926063,84.686322,49.714182,20.871594,-8.593572,54.308188,7.109664,58.389957,-63.184202,273.679760,0.653348,0.059184,-4.513236,-102.803558,214.916874,-7.744802,-11.244620,25.329032,1791.866463,0.000000,0.159745
1.940000000,35.000023818,138.999925321,85.227144,48.638962,22.994660,-8.678005,54.205775,7.104632,56.082617,-64.624690,271.522099,0.650713,0.090512,-4.712117,-116.534769,219.397897,-7.550234,-11.637292,27.795825,1785.021882,0.000000,0.159445
1.950000000,35.000024031,138.999924579,85.766940,47.423467,25.158116,-8.760804,54.103381,7.099209,53.652105,-65.923712,269.478357,0.646505,0.123122,-4.924040,-131.602381,223.386427,-7.349164,-12.083069,30.369105,1778.192176,0.000000,0.159144
1.960000000,35.000024245,138.999923839,86.305711,46.054258,27.356342,-8.841925,54.001007,7.093435,51.092965,-67.096046,267.530983,0.640523,0.157033,-5.147918,-148.055418,226.628711,-7.140327,-12.593963,33.054967,1771.377330,0.000000,0.158844
1.970000000,35.000024460,138.999923100,86.843458,44.517498,29.581104,-8.921308,53.898651,7.087365,48.400046,-68.153494,265.665145,0.632547,0.192235,-5.382368,-165.908142,228.839079,-6.922150,-13.185382,35.858505,1764.577331,0.000000,0.158544
1.980000000,35.000024676,138.999922362,87.380180,42.799325,31.821249,-8.998873,53.796314,7.081069,45.568753,-69.105448,263.868122,0.622339,0.228693,-5.625660,-185.129156,229.702144,-6.692666,-13.877349,38.783504,1757.792165,0.000000,0.158244
1.990000000,35.000024893,138.999921625,87.915878,40.886339,34.062425,-9.074518,53.693996,7.074645,42.595307,-69.959334,262.128830,0.609645,0.266336,-5.875663,-205.629271,228.877922,-6.449383,-14.696290,41.832036,1751.021820,0.000000,0.157944
2.000000000,35.000025111,138.999920889,88.450552,38.766209,36.286859,-9.148111,53.591697,7.068219,39.477024,-70.720945,260.437443,0.594205,0.305058,-6.129799,-227.248707,226.010687,-6.189116,-15.677703,45.003918,1744.266285,0.000000,0.157644
2.010000000,35.000025331,138.999920154,88.984201,36.428413,38.473246,-9.219481,53.489417,7.061965,36.212609,-71.394709,258.785085,0.575755,0.344709,-6.385005,-249.744606,220.742372,-5.907737,-16.870241,48.295976,1737.525552,0.000000,0.157344
2.020000000,35.000025552,138.999919421,89.516825,33.865086,40.596772,-9.288409,53.387156,7.056118,32.802465,-71.983877,257.163585,0.554040,0.385099,-6.637705,-272.780221,212.731120,-5.599823,-18.342142,51.700996,1730.799615,0.000000,0.157044
2.030000000,35.000025774,138.999918690,90.048424,31.071980,42.629345,-9.354609,53.284914,7.051003,29.249018,-72.490678,255.565273,0.528819,0.425999,-6.883813,-295.917639,201.675235,-5.258179,-20.191635,55.206148,1724.088471,0.000000,0.156744
2.040000000,35.000025999,138.999917959,90.578997,28.049477,44.540075,-9.417710,53.182691,7.047074,25.557026,-72.916426,253.982806,0.499885,0.467143,-7.118780,-318.616170,187.342125,-4.873240,-22.564283,58.790487,1717.392121,0.000000,0.156445
2.050000000,35.000026225,138.999917230,91.108541,24.803597,46.296054,-9.477227,53.080488,7.044979,21.733870,-73.261604,252.409023,0.467074,0.508244,-7.337694,-340.238644,169.600937,-4.432586,-25.682638,62.420717,1710.710575,0.000000,0.156145
2.060000000,35.000026454,138.999916502,91.637057,21.346939,47.863458,-9.532529,52.978305,7.045662,17.789782,-73.525919,250.836803,0.430279,0.549014,-7.535489,-360.067401,148.456397,-3.921585,-29.897550,66.043504,1704.043849,0.000000,0.155845
2.070000000,35.000026685,138.999915775,92.164539,17.699430,49.208991,-9.582820,52.876143,7.050529,13.737958,-73.708346,249.258930,0.389460,0.589180,-7.707307,-377.330927,124.079939,-3.329131,-35.774382,69.570833,1697.391976,0.000000,0.155546
2.080000000,35.000026918,138.999915048,92.690985,13.888837,50.301612,-9.627194,52.774003,7.061670,9.594466,-73.807146,247.667937,0.344656,0.628497,-7.849143,-391.243982,96.832492,-2.672295,-44.214220,72.851571,1690.755011,0.000000,0.155246
2.090000000,35.000027155,138.999914320,93.216387,9.950892,51.114468,-9.665041,52.671886,7.082055,5.377799,-73.819855,246.055887,0.295983,0.666674,-7.958979,-401.089817,67.269982,-2.077668,-56.490358,75.621371,1684.133043,0.000000,0.154947
2.100000000,35.000027395,138.999913591,93.740739,5.928570,51.626803,-9.697533,52.569794,7.114953,1.107784,-73.743212,244.414079,0.243630,0.703027,-8.038757,-406.492385,36.111401,-1.941913,-73.606048,77.453012,1677.526201,0.000000,0.154647
2.110000000,35.000027637,138.999912859,94.264029,1.867974,51.825253,-9.731134,52.467731,7.160459,-3.196639,-73.572948,242.732628,0.187870,0.735555,-8.097128,-408.069532,4.115250,-2.820499,-94.128431,77.857741,1670.934626,0.000000,0.154348
2.120000000,35.000027881,138.999912120,94.786253,-2.193952,51.703262,-9.778691,52.365696,7.209414,-7.521294,-73.303361,241.000020,0.129105,0.760397,-8.150460,-407.480386,-28.195217,-4.552904,-113.415109,76.677383,1664.358296,0.000000,0.154049
2.130000000,35.000028123,138.999911376,95.307422,-6.239743,51.258015,-9.847999,52.263683,7.248556,-11.861237,-72.926556,239.202510,0.067956,0.774315,-8.217386,-405.917929,-60.756923,-6.283282,-128.133280,74.247014,1657.796904,0.000000,0.153750
2.140000000,35.000028361,138.999910626,95.827552,-10.260813,50.486835,-9.934914,52.161690,7.273768,-16.221780,-72.431116,237.322509,0.005177,0.777034,-8.310744,-403.573279,-93.823580,-7.551244,-138.391189,71.018742,1651.250154,0.000000,0.153450
2.150000000,35.000028594,138.999909873,96.346656,-14.247036,49.384672,-10.032644,52.059714,7.287365,-20.614581,-71.800091,235.336311,-0.058539,0.769798,-8.435667,-400.181552,-127.717690,-8.344697,-145.492456,67.298222,1644.717945,0.000000,0.153151
2.160000000,35.000028823,138.999909117,96.864740,-18.185495,47.943310,-10.136462,51.957755,7.291976,-25.052775,-71.008652,233.212191,-0.122610,0.753803,-8.591934,-395.280098,-162.702931,-8.765379,-150.534400,63.248734,1638.200222,0.000000,0.152852
2.170000000,35.000029046,138.999908358,97.381812,-22.059204,46.152056,-10.243191,51.855812,7.289409,-29.547472,-70.021198,230.908093,-0.186513,0.729834,-8.776237,-388.270240,-198.914728,-8.903153,-154.227623,58.951700,1631.696928,0.000000,0.152553
2.180000000,35.000029264,138.999907598,97.897876,-25.845455,43.999217,-10.350471,51.753884,7.280892,-34.105302,-68.787212,228.367772,-0.249710,0.698336,-8.983471,-378.461031,-236.314960,-8.820201,-157.009270,54.447303,1625.208002,0.000000,0.152254
2.190000000,35.000029477,138.999906836,98.412938,-29.514737,41.473966,-10.456418,51.651971,7.267289,-38.726207,-67.234833,225.514448,-0.311608,0.659542,-9.207407,-365.120286,-274.662025,-8.558114,-159.150469,49.755838,1618.733391,0.000000,0.151955
2.200000000,35.000029683,138.999906075,98.927000,-33.030357,38.568462,-10.559451,51.550071,7.249230,-43.400825,-65.260648,222.240563,-0.371525,0.613581,-9.441059,-347.532704,-313.493077,-8.145640,-160.823641,44.888630,1612.273044,0.000000,0.151656
2.210000000,35.000029884,138.999905313,99.440067,-36.348734,35.280091,-10.658206,51.448185,7.227184,-48.106682,-62.713229,218.391237,-0.428681,0.560563,-9.676939,-325.064271,-352.119768,-7.603969,-162.141446,39.853806,1605.826918,0.000000,0.151358
2.220000000,35.000030080,138.999904553,99.952142,-39.420391,31.613700,-10.751482,51.346312,7.201510,-52.802011,-59.366465,213.737514,-0.482203,0.500639,-9.907280,-297.230988,-389.641098,-6.950040,-163.179238,34.659465,1599.394970,0.000000,0.151059
2.230000000,35.000030269,138.999903793,100.463225,-42.191645,27.583642,-10.838218,51.244451,7.172489,-57.415020,-54.877354,207.934062,-0.531141,0.434064,-10.124271,-263.767405,-424.977281,-6.198577,-163.988256,29.315484,1592.977163,0.000000,0.150760
2.240000000,35.000030454,138.999903036,100.973321,-44.606970,23.215410,-10.917478,51.142602,7.140347,-61.824717,-48.725925,200.459015,-0.574501,0.361233,-10.320329,-224.687812,-456.926946,-5.363325,-164.603547,23.834515,1586.573462,0.000000,0.150461
2.250000000,35.000030633,138.999902280,101.482431,-46.611937,18.546636,-10.988452,51.040765,7.105273,-65.827789,-40.162016,190.560671,-0.611285,0.282721,-10.488395,-180.330978,-484.246941,-4.457777,-165.048835,18.232459,1580.183833,0.000000,0.150162
2.260000000,35.000030807,138.999901527,101.990556,-48.156518,13.627233,-11.050448,50.938938,7.067428,-69.091898,-28.298409,177.350565,-0.640542,0.199292,-10.622256,-131.378975,-505.749789,-3.495554,-165.339523,12.528565,1573.808248,0.000000,0.149864
2.270000000,35.000030976,138.999900776,102.497698,-49.198499,8.518534,-11.102906,50.837123,7.026961,-71.138008,-12.745076,160.437657,-0.661430,0.111908,-10.716864,-78.842433,-520.409381,-2.490516,-165.484545,6.745225,1567.446676,0.000000,0.149565
2.280000000,35.000031140,138.999900029,103.003858,-49.706627,3.291384,-11.145394,50.735318,6.984009,-71.488912,5.079187,141.239905,-0.673263,0.021708,-10.768621,-24.008609,-527.461827,-1.456672,-165.487414,0.907516,1561.099091,0.000000,0.149266
2.290000000,35.000031300,138.999899286,103.509039,-49.663134,-1.976731,-11.177615,50.633524,6.938708,-70.019296,21.933379,122.997598,-0.675570,-0.070029,-10.775612,31.645450,-526.486833,-0.407930,-165.346704,-4.957450,1554.765469,0.000000,0.148968
2.300000000,35.000031456,138.999898547,104.013240,-49.065317,-7.205283,-11.199401,50.531739,6.891198,-67.071277,35.412501,108.115089,-0.668125,-0.161929,-10.737739,86.565925,-517.456356,0.642279,-165.056046,-10.821318,1548.445784,0.000000,0.148669
2.310000000,35.000031607,138.999897812,104.516464,-47.925938,-12.314660,-11.210715,50.429965,6.841627,-63.144917,45.278053,96.830248,-0.650970,-0.252589,-10.656758,139.247250,-500.741757,1.681469,-164.603647,-16.655336,1542.140018,0.000000,0.148371
2.320000000,35.000031755,138.999897081,105.018710,-46.272381,-17.230084,-11.211635,50.328200,6.790158,-58.638739,52.328774,88.343644,-0.624411,-0.340636,-10.536200,188.352144,-477.077444,2.698641,-163.971266,-22.431191,1535.848148,0.000000,0.148072
2.330000000,35.000031899,138.999896356,105.519979,-44.144664,-21.885044,-11.202345,50.226444,6.736974,-53.811475,57.406000,81.813117,-0.589000,-0.424789,-10.381178,232.810269,-447.486415,3.684880,-163.132463,-28.121710,1529.570159,0.000000,0.147773
2.340000000,35.000032040,138.999895636,106.020271,-41.592551,-26.223900,-11.183109,50.124698,6.682288,-48.823291,61.127150,76.620197,-0.545491,-0.503907,-10.198113,271.883190,-413.179405,4.634028,-162.049813,-33.701325,1523.306035,0.000000,0.147475
2.350000000,35.000032179,138.999894921,106.519587,-38.672138,-30.203448,-11.154249,50.022960,6.626356,-43.774354,63.904697,72.351023,-0.494787,-0.577021,-9.994385,305.189593,-375.442837,5.543480,-160.670532,-39.146154,1517.055764,0.000000,0.147176
2.360000000,35.000032315,138.999894212,107.017927,-35.442283,-33.793361,-11.116103,49.921232,6.569495,-38.728441,66.009898,68.732490,-0.437887,-0.643344,-9.777961,332.691575,-335.531008,6.415227,-158.919593,-44.433510,1510.819335,0.000000,0.146878
2.370000000,35.000032449,138.999893509,107.515289,-31.961288,-36.975599,-11.068978,49.819514,6.512116,-33.726121,67.623137,65.581759,-0.375820,-0.702261,-9.557013,354.648393,-294.575108,7.257340,-156.688753,-49.540540,1504.596744,0.000000,0.146579
2.380000000,35.000032581,138.999892812,108.011674,-28.284098,-39.742981,-11.013084,49.717804,6.454773,-28.792152,68.866692,62.773329,-0.309601,-0.753297,-9.339551,371.547226,-253.517058,8.086206,-153.818879,-54.441482,1498.387988,0.000000,0.146281
2.390000000,35.000032712,138.999892122,108.507079,-24.460239,-42.097166,-10.948442,49.616104,6.398244,-23.939829,69.825067,60.218529,-0.240185,-0.796070,-9.133073,384.020486,-213.071177,8.929883,-150.071416,-59.102577,1492.193073,0.000000,0.145983
2.400000000,35.000032844,138.999891437,109.001503,-20.532595,-44.046342,-10.874745,49.514414,6.343682,-19.173781,70.557547,57.852765,-0.168449,-0.830211,-8.944211,392.756117,-173.712653,9.832524,-145.083797,-63.472834,1486.012012,0.000000,0.145684
2.410000000,35.000032975,138.999890758,109.494942,-16.537086,-45.602866,-10.791181,49.412734,6.292847,-14.491962,71.106042,55.627486,-0.095184,-0.855287,-8.778323,398.401074,-135.689827,10.857286,-138.308452,-67.467464,1479.844831,0.000000,0.145386
2.420000000,35.000033108,138.999890086,109.987392,-12.503319,-46.781096,-10.696219,49.311065,6.248494,-9.887315,71.500065,53.505045,-0.021105,-0.870702,-8.638922,401.451456,-99.057913,12.074964,-128.970080,-70.939909,1473.691577,0.000000,0.145088
2.430000000,35.000033242,138.999889418,110.478845,-8.456367,-47.595640,-10.587593,49.209409,6.214793,-5.349393,71.759944,51.455383,0.053110,-0.875661,-8.526779,402.134647,-63.735215,13.499297,-116.211719,-73.645477,1467.552327,0.000000,0.144789
2.440000000,35.000033380,138.999888754,110.969292,-4.419714,-48.060230,-10.463195,49.107768,6.197130,-0.866282,71.898976,49.453953,0.126780,-0.869387,-8.438584,400.380607,-29.586056,14.931260,-99.849558,-75.239074,1461.427198,0.000000,0.144491
2.450000000,35.000033522,138.999888092,111.458719,-0.417939,-48.187361,-10.324007,49.006144,6.199318,3.572851,71.924966,47.480427,0.199165,-0.851922,-8.365657,396.064943,3.475644,15.924376,-81.663967,-75.416741,1455.316341,0.000000,0.144193
2.460000000,35.000033667,138.999887430,111.947112,3.524373,-47.988638,-10.176798,48.904540,6.218297,7.974453,71.841468,45.517724,0.269484,-0.825079,-8.294740,389.212039,35.400137,16.244350,-64.959820,-74.176580,1449.219878,0.000000,0.143895
2.470000000,35.000033815,138.999886765,112.434466,7.385077,-47.475961,-10.029648,48.802957,6.245039,12.337629,71.648766,43.550840,0.337009,-0.791702,-8.212480,379.734188,65.967529,16.132027,-51.808231,-71.840495,1443.137867,0.000000,0.143597
2.480000000,35.000033965,138.999886098,112.920782,11.140876,-46.663670,-9.885719,48.701395,6.272636,16.653821,71.344566,41.565717,0.401160,-0.753891,-8.110082,367.440907,94.805899,15.897637,-42.197260,-68.799174,1437.070325,0.000000,0.143298
2.490000000,35.000034115,138.999885428,113.406061,14.764924,-45.570292,-9.744585,48.599854,6.298521,20.909368,70.924452,39.548541,0.461486,-0.712674,-7.984222,352.336552,121.477992,15.688361,-35.277952,-65.346946,1431.017237,0.000000,0.143000
2.500000000,35.000034267,138.999884756,113.890306,18.229887,-44.218839,-9.605145,48.498334,6.322133,25.088630,70.382066,37.485180,0.517628,-0.668567,-7.835531,334.697059,145.590841,15.541248,-30.232755,-61.671892,1424.978572,0.000000,0.142703
