time_sec,lat_deg,lon_deg,alt_agl_m,u_mps,v_mps,w_mps,true_airspeed_mps,ground_speed_mps,pitch_deg,roll_deg,yaw_deg,p_rad_sec,q_rad_sec,r_rad_sec,ax_mps2,ay_mps2,az_mps2,alpha_deg,beta_deg,qbar_pa,thrust_n,mach
8.540000000,35.000083500,138.999524819,224.504138,5.372994,0.000000,11.360094,14.102877,5.372994,-64.687214,0.000000,-82.612160,0.000000,0.000000,0.000000,-2.890159,0.000000,5.907668,0.000000,0.000000,0.000000,0.000000,0.000000
8.550000000,35.000083562,138.999524238,224.389949,5.344130,0.000000,11.418883,14.133230,5.344130,-64.920023,0.000000,-82.597860,0.000000,0.000000,0.000000,-2.886360,0.000000,5.878841,0.000000,0.000000,0.000000,0.000000,0.000000
8.560000000,35.000083623,138.999523660,224.275175,5.315305,0.000000,11.477383,14.163608,5.315305,-65.150617,0.000000,-82.583424,0.000000,0.000000,0.000000,-2.882537,0.000000,5.850017,0.000000,0.000000,0.000000,0.000000,0.000000
8.570000000,35.000083685,138.999523085,224.159819,5.286518,0.000000,11.535595,14.194010,5.286518,-65.379022,0.000000,-82.568850,0.000000,0.000000,0.000000,-2.878689,0.000000,5.821199,0.000000,0.000000,0.000000,0.000000,0.000000
8.580000000,35.000083746,138.999522513,224.043884,5.257769,0.000000,11.593519,14.224431,5.257769,-65.605264,0.000000,-82.554136,0.000000,0.000000,0.000000,-2.874816,0.000000,5.792387,0.000000,0.000000,0.000000,0.000000,0.000000
8.590000000,35.000083807,138.999521945,223.927372,5.229060,0.000000,11.651155,14.254867,5.229060,-65.829368,0.000000,-82.539281,0.000000,0.000000,0.000000,-2.870916,0.000000,5.763584,0.000000,0.000000,0.000000,0.000000,0.000000
8.600000000,35.000083868,138.999521379,223.810287,5.200390,0.000000,11.708503,14.285315,5.200390,-66.051362,0.000000,-82.524282,0.000000,0.000000,0.000000,-2.866990,0.000000,5.734790,0.000000,0.000000,0.000000,0.000000,0.000000
8.610000000,35.000083928,138.999520817,223.692632,5.171759,0.000000,11.765563,14.315771,5.171759,-66.271269,0.000000,-82.509138,0.000000,0.000000,0.000000,-2.863037,0.000000,5.706008,0.000000,0.000000,0.000000,0.000000,0.000000
8.620000000,35.000083989,138.999520258,223.574408,5.143169,0.000000,11.822335,14.346232,5.143169,-66.489115,0.000000,-82.493846,0.000000,0.000000,0.000000,-2.859055,0.000000,5.677239,0.000000,0.000000,0.000000,0.000000,0.000000
8.630000000,35.000084049,138.999519702,223.455620,5.114618,0.000000,11.878820,14.376694,5.114618,-66.704924,0.000000,-82.478405,0.000000,0.000000,0.000000,-2.855046,0.000000,5.648484,0.000000,0.000000,0.000000,0.000000,0.000000
8.640000000,35.000084109,138.999519149,223.336270,5.086108,0.000000,11.935017,14.407155,5.086108,-66.918722,0.000000,-82.462812,0.000000,0.000000,0.000000,-2.851007,0.000000,5.619746,0.000000,0.000000,0.000000,0.000000,0.000000
8.650000000,35.000084168,138.999518599,223.216361,5.057638,0.000000,11.990928,14.437610,5.057638,-67.130531,0.000000,-82.447066,0.000000,0.000000,0.000000,-2.846939,0.000000,5.591025,0.000000,0.000000,0.000000,0.000000,0.000000
8.660000000,35.000084228,138.999518052,223.095895,5.029209,0.000000,12.046551,14.468057,5.029209,-67.340377,0.000000,-82.431165,0.000000,0.000000,0.000000,-2.842842,0.000000,5.562323,0.000000,0.000000,0.000000,0.000000,0.000000
8.670000000,35.000084287,138.999517509,222.974876,5.000822,0.000000,12.101887,14.498493,5.000822,-67.548283,0.000000,-82.415106,0.000000,0.000000,0.000000,-2.838714,0.000000,5.533643,0.000000,0.000000,0.000000,0.000000,0.000000
8.680000000,35.000084346,138.999516968,222.853307,4.972476,0.000000,12.156937,14.528914,4.972476,-67.754271,0.000000,-82.398887,0.000000,0.000000,0.000000,-2.834555,0.000000,5.504984,0.000000,0.000000,0.000000,0.000000,0.000000
8.690000000,35.000084405,138.999516431,222.731190,4.944173,0.000000,12.211701,14.559317,4.944173,-67.958366,0.000000,-82.382507,0.000000,0.000000,0.000000,-2.830365,0.000000,5.476350,0.000000,0.000000,0.000000,0.000000,0.000000
8.700000000,35.000084464,138.999515896,222.608528,4.915911,0.000000,12.266178,14.589700,4.915911,-68.160589,0.000000,-82.365962,0.000000,0.000000,0.000000,-2.826144,0.000000,5.447741,0.000000,0.000000,0.000000,0.000000,0.000000
8.710000000,35.000084522,138.999515365,222.485324,4.887692,0.000000,12.320370,14.620059,4.887692,-68.360964,0.000000,-82.349252,0.000000,0.000000,0.000000,-2.821891,0.000000,5.419158,0.000000,0.000000,0.000000,0.000000,0.000000
8.720000000,35.000084581,138.999514837,222.361582,4.859515,0.000000,12.374276,14.650392,4.859515,-68.559513,0.000000,-82.332373,0.000000,0.000000,0.000000,-2.817606,0.000000,5.390604,0.000000,0.000000,0.000000,0.000000,0.000000
8.730000000,35.000084639,138.999514312,222.237303,4.831382,0.000000,12.427897,14.680695,4.831382,-68.756257,0.000000,-82.315323,0.000000,0.000000,0.000000,-2.813289,0.000000,5.362080,0.000000,0.000000,0.000000,0.000000,0.000000
8.740000000,35.000084696,138.999513790,222.112490,4.803293,0.000000,12.481232,14.710967,4.803293,-68.951218,0.000000,-82.298099,0.000000,0.000000,0.000000,-2.808939,0.000000,5.333588,0.000000,0.000000,0.000000,0.000000,0.000000
8.750000000,35.000084754,138.999513271,221.987147,4.775247,0.000000,12.534284,14.741204,4.775247,-69.144417,0.000000,-82.280701,0.000000,0.000000,0.000000,-2.804556,0.000000,5.305128,0.000000,0.000000,0.000000,0.000000,0.000000
8.760000000,35.000084811,138.999512755,221.861277,4.747245,0.000000,12.587051,14.771404,4.747245,-69.335876,0.000000,-82.263124,0.000000,0.000000,0.000000,-2.800140,0.000000,5.276703,0.000000,0.000000,0.000000,0.000000,0.000000
8.770000000,35.000084869,138.999512242,221.734882,4.719288,0.000000,12.639534,14.801563,4.719288,-69.525616,0.000000,-82.245367,0.000000,0.000000,0.000000,-2.795690,0.000000,5.248313,0.000000,0.000000,0.000000,0.000000,0.000000
8.780000000,35.000084926,138.999511733,221.607964,4.691376,0.000000,12.691733,14.831681,4.691376,-69.713657,0.000000,-82.227427,0.000000,0.000000,0.000000,-2.791207,0.000000,5.219961,0.000000,0.000000,0.000000,0.000000,0.000000
8.790000000,35.000084982,138.999511226,221.480528,4.663509,0.000000,12.743650,14.861753,4.663509,-69.900019,0.000000,-82.209301,0.000000,0.000000,0.000000,-2.786690,0.000000,5.191647,0.000000,0.000000,0.000000,0.000000,0.000000
8.800000000,35.000085039,138.999510722,221.352575,4.635687,0.000000,12.795284,14.891779,4.635687,-70.084723,0.000000,-82.190988,0.000000,0.000000,0.000000,-2.782140,0.000000,5.163373,0.000000,0.000000,0.000000,0.000000,0.000000
8.810000000,35.000085095,138.999510222,221.224109,4.607911,0.000000,12.846635,14.921754,4.607911,-70.267788,0.000000,-82.172483,0.000000,0.000000,0.000000,-2.777555,0.000000,5.135141,0.000000,0.000000,0.000000,0.000000,0.000000
8.820000000,35.000085152,138.999509724,221.095132,4.580182,0.000000,12.897705,14.951678,4.580182,-70.449233,0.000000,-82.153786,0.000000,0.000000,0.000000,-2.772935,0.000000,5.106952,0.000000,0.000000,0.000000,0.000000,0.000000
8.830000000,35.000085207,138.999509230,220.965647,4.552499,0.000000,12.948493,14.981547,4.552499,-70.629079,0.000000,-82.134892,0.000000,0.000000,0.000000,-2.768282,0.000000,5.078807,0.000000,0.000000,0.000000,0.000000,0.000000
8.840000000,35.000085263,138.999508738,220.835657,4.524863,0.000000,12.999000,15.011360,4.524863,-70.807344,0.000000,-82.115799,0.000000,0.000000,0.000000,-2.763594,0.000000,5.050708,0.000000,0.000000,0.000000,0.000000,0.000000
8.850000000,35.000085319,138.999508250,220.705164,4.497274,0.000000,13.049226,15.041114,4.497274,-70.984047,0.000000,-82.096504,0.000000,0.000000,0.000000,-2.758871,0.000000,5.022656,0.000000,0.000000,0.000000,0.000000,0.000000
8.860000000,35.000085374,138.999507764,220.574173,4.469732,0.000000,13.099173,15.070807,4.469732,-71.159206,0.000000,-82.077004,0.000000,0.000000,0.000000,-2.754114,0.000000,4.994652,0.000000,0.000000,0.000000,0.000000,0.000000
8.870000000,35.000085429,138.999507282,220.442684,4.442239,0.000000,13.148840,15.100437,4.442239,-71.332839,0.000000,-82.057297,0.000000,0.000000,0.000000,-2.749323,0.000000,4.966698,0.000000,0.000000,0.000000,0.000000,0.000000
8.880000000,35.000085484,138.999506802,220.310702,4.414793,0.000000,13.198228,15.130003,4.414793,-71.504965,0.000000,-82.037380,0.000000,0.000000,0.000000,-2.744496,0.000000,4.938795,0.000000,0.000000,0.000000,0.000000,0.000000
8.890000000,35.000085539,138.999506326,220.178229,4.387397,0.000000,13.247337,15.159502,4.387397,-71.675602,0.000000,-82.017248,0.000000,0.000000,0.000000,-2.739635,0.000000,4.910944,0.000000,0.000000,0.000000,0.000000,0.000000
8.900000000,35.000085593,138.999505852,220.045267,4.360049,0.000000,13.296169,15.188931,4.360049,-71.844767,0.000000,-81.996900,0.000000,0.000000,0.000000,-2.734739,0.000000,4.883147,0.000000,0.000000,0.000000,0.000000,0.000000
8.910000000,35.000085648,138.999505382,219.911820,4.332751,0.000000,13.344723,15.218290,4.332751,-72.012477,0.000000,-81.976333,0.000000,0.000000,0.000000,-2.729809,0.000000,4.855405,0.000000,0.000000,0.000000,0.000000,0.000000
8.920000000,35.000085702,138.999504914,219.777890,4.305502,0.000000,13.393000,15.247577,4.305502,-72.178749,0.000000,-81.955541,0.000000,0.000000,0.000000,-2.724843,0.000000,4.827719,0.000000,0.000000,0.000000,0.000000,0.000000
8.930000000,35.000085756,138.999504450,219.643480,4.278303,0.000000,13.441001,15.276789,4.278303,-72.343600,0.000000,-81.934524,0.000000,0.000000,0.000000,-2.719843,0.000000,4.800090,0.000000,0.000000,0.000000,0.000000,0.000000
8.940000000,35.000085810,138.999503988,219.508592,4.251155,0.000000,13.488726,15.305925,4.251155,-72.507048,0.000000,-81.913277,0.000000,0.000000,0.000000,-2.714809,0.000000,4.772521,0.000000,0.000000,0.000000,0.000000,0.000000
8.950000000,35.000085863,138.999503529,219.373231,4.224057,0.000000,13.536176,15.334983,4.224057,-72.669107,0.000000,-81.891796,0.000000,0.000000,0.000000,-2.709739,0.000000,4.745011,0.000000,0.000000,0.000000,0.000000,0.000000
8.960000000,35.000085916,138.999503074,219.237397,4.197011,0.000000,13.583352,15.363962,4.197011,-72.829795,0.000000,-81.870079,0.000000,0.000000,0.000000,-2.704636,0.000000,4.717562,0.000000,0.000000,0.000000,0.000000,0.000000
8.970000000,35.000085970,138.999502621,219.101095,4.170015,0.000000,13.630253,15.392859,4.170015,-72.989127,0.000000,-81.848122,0.000000,0.000000,0.000000,-2.699498,0.000000,4.690175,0.000000,0.000000,0.000000,0.000000,0.000000
8.980000000,35.000086022,138.999502171,218.964326,4.143072,0.000000,13.676882,15.421674,4.143072,-73.147119,0.000000,-81.825921,0.000000,0.000000,0.000000,-2.694325,0.000000,4.662852,0.000000,0.000000,0.000000,0.000000,0.000000
8.990000000,35.000086075,138.999501725,218.827093,4.116180,0.000000,13.723238,15.450404,4.116180,-73.303786,0.000000,-81.803473,0.000000,0.000000,0.000000,-2.689119,0.000000,4.635593,0.000000,0.000000,0.000000,0.000000,0.000000
9.000000000,35.000086128,138.999501281,218.689400,4.089341,0.000000,13.769322,15.479049,4.089341,-73.459144,0.000000,-81.780774,0.000000,0.000000,0.000000,-2.683878,0.000000,4.608400,0.000000,0.000000,0.000000,0.000000,0.000000
9.010000000,35.000086180,138.999500840,218.551249,4.062555,0.000000,13.815135,15.507606,4.062555,-73.613209,0.000000,-81.757819,0.000000,0.000000,0.000000,-2.678603,0.000000,4.581274,0.000000,0.000000,0.000000,0.000000,0.000000
9.020000000,35.000086232,138.999500402,218.412642,4.035821,0.000000,13.860677,15.536075,4.035821,-73.765993,0.000000,-81.734606,0.000000,0.000000,0.000000,-2.673295,0.000000,4.554216,0.000000,0.000000,0.000000,0.000000,0.000000
9.030000000,35.000086284,138.999499967,218.273583,4.009142,0.000000,13.905949,15.564453,4.009142,-73.917514,0.000000,-81.711130,0.000000,0.000000,0.000000,-2.667952,0.000000,4.527227,0.000000,0.000000,0.000000,0.000000,0.000000
9.040000000,35.000086336,138.999499535,218.134073,3.982516,0.000000,13.950952,15.592740,3.982516,-74.067784,0.000000,-81.687387,0.000000,0.000000,0.000000,-2.662576,0.000000,4.500309,0.000000,0.000000,0.000000,0.000000,0.000000
9.050000000,35.000086387,138.999499105,217.994116,3.955943,0.000000,13.995687,15.620934,3.955943,-74.216818,0.000000,-81.663372,0.000000,0.000000,0.000000,-2.657167,0.000000,4.473461,0.000000,0.000000,0.000000,0.000000,0.000000
9.060000000,35.000086439,138.999498679,217.853715,3.929426,0.000000,14.040154,15.649034,3.929426,-74.364630,0.000000,-81.639083,0.000000,0.000000,0.000000,-2.651725,0.000000,4.446686,0.000000,0.000000,0.000000,0.000000,0.000000
9.070000000,35.000086490,138.999498256,217.712871,3.902963,0.000000,14.084353,15.677039,3.902963,-74.511234,0.000000,-81.614514,0.000000,0.000000,0.000000,-2.646249,0.000000,4.419983,0.000000,0.000000,0.000000,0.000000,0.000000
9.080000000,35.000086541,138.999497835,217.571588,3.876555,0.000000,14.128287,15.704947,3.876555,-74.656645,0.000000,-81.589661,0.000000,0.000000,0.000000,-2.640741,0.000000,4.393356,0.000000,0.000000,0.000000,0.000000,0.000000
9.090000000,35.000086591,138.999497417,217.429869,3.850203,0.000000,14.171955,15.732758,3.850203,-74.800874,0.000000,-81.564520,0.000000,0.000000,0.000000,-2.635200,0.000000,4.366803,0.000000,0.000000,0.000000,0.000000,0.000000
9.100000000,35.000086642,138.999497003,217.287715,3.823906,0.000000,14.215358,15.760470,3.823906,-74.943936,0.000000,-81.539086,0.000000,0.000000,0.000000,-2.629626,0.000000,4.340327,0.000000,0.000000,0.000000,0.000000,0.000000
9.110000000,35.000086692,138.999496591,217.145130,3.797666,0.000000,14.258498,15.788081,3.797666,-75.085843,0.000000,-81.513354,0.000000,0.000000,0.000000,-2.624020,0.000000,4.313928,0.000000,0.000000,0.000000,0.000000,0.000000
9.120000000,35.000086742,138.999496182,217.002116,3.771481,0.000000,14.301374,15.815592,3.771481,-75.226609,0.000000,-81.487319,0.000000,0.000000,0.000000,-2.618383,0.000000,4.287607,0.000000,0.000000,0.000000,0.000000,0.000000
9.130000000,35.000086792,138.999495775,216.858677,3.745354,0.000000,14.343987,15.843001,3.745354,-75.366246,0.000000,-81.460978,0.000000,0.000000,0.000000,-2.612713,0.000000,4.261365,0.000000,0.000000,0.000000,0.000000,0.000000
9.140000000,35.000086842,138.999495372,216.714813,3.719283,0.000000,14.386339,15.870306,3.719283,-75.504767,0.000000,-81.434324,0.000000,0.000000,0.000000,-2.607012,0.000000,4.235203,0.000000,0.000000,0.000000,0.000000,0.000000
9.150000000,35.000086892,138.999494972,216.570529,3.693270,0.000000,14.428431,15.897508,3.693270,-75.642184,0.000000,-81.407353,0.000000,0.000000,0.000000,-2.601279,0.000000,4.209122,0.000000,0.000000,0.000000,0.000000,0.000000
9.160000000,35.000086941,138.999494574,216.425826,3.667315,0.000000,14.470262,15.924604,3.667315,-75.778510,0.000000,-81.380059,0.000000,0.000000,0.000000,-2.595516,0.000000,4.183123,0.000000,0.000000,0.000000,0.000000,0.000000
9.170000000,35.000086990,138.999494179,216.280708,3.641417,0.000000,14.511834,15.951594,3.641417,-75.913756,0.000000,-81.352438,0.000000,0.000000,0.000000,-2.589722,0.000000,4.157206,0.000000,0.000000,0.000000,0.000000,0.000000
9.180000000,35.000087039,138.999493787,216.135176,3.615578,0.000000,14.553148,15.978478,3.615578,-76.047935,0.000000,-81.324483,0.000000,0.000000,0.000000,-2.583897,0.000000,4.131373,0.000000,0.000000,0.000000,0.000000,0.000000
9.190000000,35.000087088,138.999493398,215.989234,3.589797,0.000000,14.594204,16.005254,3.589797,-76.181058,0.000000,-81.296190,0.000000,0.000000,0.000000,-2.578041,0.000000,4.105624,0.000000,0.000000,0.000000,0.000000,0.000000
9.200000000,35.000087137,138.999493012,215.842884,3.564075,0.000000,14.635003,16.031922,3.564075,-76.313136,0.000000,-81.267553,0.000000,0.000000,0.000000,-2.572156,0.000000,4.079960,0.000000,0.000000,0.000000,0.000000,0.000000
9.210000000,35.000087185,138.999492628,215.696129,3.538412,0.000000,14.675547,16.058480,3.538412,-76.444182,0.000000,-81.238565,0.000000,0.000000,0.000000,-2.566241,0.000000,4.054382,0.000000,0.000000,0.000000,0.000000,0.000000
9.220000000,35.000087233,138.999492248,215.548970,3.512808,0.000000,14.715836,16.084928,3.512808,-76.574206,0.000000,-81.209221,0.000000,0.000000,0.000000,-2.560296,0.000000,4.028891,0.000000,0.000000,0.000000,0.000000,0.000000
9.230000000,35.000087281,138.999491870,215.401412,3.487265,0.000000,14.755871,16.111266,3.487265,-76.703219,0.000000,-81.179516,0.000000,0.000000,0.000000,-2.554323,0.000000,4.003487,0.000000,0.000000,0.000000,0.000000,0.000000
9.240000000,35.000087329,138.999491495,215.253455,3.461781,0.000000,14.795653,16.137492,3.461781,-76.831233,0.000000,-81.149442,0.000000,0.000000,0.000000,-2.548320,0.000000,3.978172,0.000000,0.000000,0.000000,0.000000,0.000000
9.250000000,35.000087377,138.999491122,215.105103,3.436358,0.000000,14.835182,16.163605,3.436358,-76.958258,0.000000,-81.118994,0.000000,0.000000,0.000000,-2.542289,0.000000,3.952945,0.000000,0.000000,0.000000,0.000000,0.000000
9.260000000,35.000087424,138.999490753,214.956359,3.410995,0.000000,14.874460,16.189606,3.410995,-77.084304,0.000000,-81.088165,0.000000,0.000000,0.000000,-2.536229,0.000000,3.927808,0.000000,0.000000,0.000000,0.000000,0.000000
9.270000000,35.000087472,138.999490386,214.807224,3.385693,0.000000,14.913488,16.215494,3.385693,-77.209383,0.000000,-81.056948,0.000000,0.000000,0.000000,-2.530141,0.000000,3.902761,0.000000,0.000000,0.000000,0.000000,0.000000
9.280000000,35.000087519,138.999490022,214.657701,3.360452,0.000000,14.952266,16.241267,3.360452,-77.333505,0.000000,-81.025337,0.000000,0.000000,0.000000,-2.524026,0.000000,3.877805,0.000000,0.000000,0.000000,0.000000,0.000000
9.290000000,35.000087566,138.999489661,214.507793,3.335273,0.000000,14.990795,16.266926,3.335273,-77.456679,0.000000,-80.993326,0.000000,0.000000,0.000000,-2.517883,0.000000,3.852941,0.000000,0.000000,0.000000,0.000000,0.000000
9.300000000,35.000087612,138.999489302,214.357503,3.310155,0.000000,15.029077,16.292470,3.310155,-77.578916,0.000000,-80.960905,0.000000,0.000000,0.000000,-2.511713,0.000000,3.828169,0.000000,0.000000,0.000000,0.000000,0.000000
9.310000000,35.000087659,138.999488946,214.206831,3.285099,0.000000,15.067112,16.317898,3.285099,-77.700226,0.000000,-80.928070,0.000000,0.000000,0.000000,-2.505516,0.000000,3.803490,0.000000,0.000000,0.000000,0.000000,0.000000
9.320000000,35.000087705,138.999488593,214.055782,3.260106,0.000000,15.104901,16.343209,3.260106,-77.820618,0.000000,-80.894812,0.000000,0.000000,0.000000,-2.499292,0.000000,3.778905,0.000000,0.000000,0.000000,0.000000,0.000000
9.330000000,35.000087751,138.999488243,213.904358,3.235175,0.000000,15.142445,16.368404,3.235175,-77.940103,0.000000,-80.861124,0.000000,0.000000,0.000000,-2.493043,0.000000,3.754413,0.000000,0.000000,0.000000,0.000000,0.000000
9.340000000,35.000087797,138.999487896,213.752561,3.210307,0.000000,15.179745,16.393482,3.210307,-78.058689,0.000000,-80.826997,0.000000,0.000000,0.000000,-2.486767,0.000000,3.730017,0.000000,0.000000,0.000000,0.000000,0.000000
9.350000000,35.000087843,138.999487551,213.600393,3.185502,0.000000,15.216802,16.418442,3.185502,-78.176386,0.000000,-80.792425,0.000000,0.000000,0.000000,-2.480466,0.000000,3.705715,0.000000,0.000000,0.000000,0.000000,0.000000
9.360000000,35.000087889,138.999487209,213.447856,3.160760,0.000000,15.253618,16.443284,3.160760,-78.293203,0.000000,-80.757398,0.000000,0.000000,0.000000,-2.474140,0.000000,3.681510,0.000000,0.000000,0.000000,0.000000,0.000000
9.370000000,35.000087934,138.999486869,213.294954,3.136081,0.000000,15.290192,16.468008,3.136081,-78.409150,0.000000,-80.721909,0.000000,0.000000,0.000000,-2.467788,0.000000,3.657401,0.000000,0.000000,0.000000,0.000000,0.000000
9.380000000,35.000087979,138.999486532,213.141689,3.111466,0.000000,15.326525,16.492613,3.111466,-78.524235,0.000000,-80.685949,0.000000,0.000000,0.000000,-2.461412,0.000000,3.633389,0.000000,0.000000,0.000000,0.000000,0.000000
9.390000000,35.000088024,138.999486198,212.988063,3.086916,0.000000,15.362620,16.517098,3.086916,-78.638467,0.000000,-80.649510,0.000000,0.000000,0.000000,-2.455012,0.000000,3.609474,0.000000,0.000000,0.000000,0.000000,0.000000
9.400000000,35.000088069,138.999485867,212.834078,3.062429,0.000000,15.398477,16.541465,3.062429,-78.751856,0.000000,-80.612582,0.000000,0.000000,0.000000,-2.448588,0.000000,3.585657,0.000000,0.000000,0.000000,0.000000,0.000000
9.410000000,35.000088114,138.999485538,212.679737,3.038007,0.000000,15.434096,16.565711,3.038007,-78.864409,0.000000,-80.575157,0.000000,0.000000,0.000000,-2.442140,0.000000,3.561938,0.000000,0.000000,0.000000,0.000000,0.000000
9.420000000,35.000088159,138.999485212,212.525042,3.013650,0.000000,15.469479,16.589838,3.013650,-78.976135,0.000000,-80.537224,0.000000,0.000000,0.000000,-2.435668,0.000000,3.538318,0.000000,0.000000,0.000000,0.000000,0.000000
9.430000000,35.000088203,138.999484889,212.369996,2.989357,0.000000,15.504627,16.613844,2.989357,-79.087042,0.000000,-80.498775,0.000000,0.000000,0.000000,-2.429174,0.000000,3.514798,0.000000,0.000000,0.000000,0.000000,0.000000
9.440000000,35.000088247,138.999484568,212.214601,2.965130,0.000000,15.539541,16.637730,2.965130,-79.197140,0.000000,-80.459799,0.000000,0.000000,0.000000,-2.422657,0.000000,3.491377,0.000000,0.000000,0.000000,0.000000,0.000000
9.450000000,35.000088291,138.999484250,212.058859,2.940968,0.000000,15.574222,16.661495,2.940968,-79.306435,0.000000,-80.420286,0.000000,0.000000,0.000000,-2.416118,0.000000,3.468056,0.000000,0.000000,0.000000,0.000000,0.000000
9.460000000,35.000088335,138.999483935,211.902772,2.916872,0.000000,15.608670,16.685139,2.916872,-79.414937,0.000000,-80.380227,0.000000,0.000000,0.000000,-2.409556,0.000000,3.444836,0.000000,0.000000,0.000000,0.000000,0.000000
9.470000000,35.000088378,138.999483622,211.746343,2.892841,0.000000,15.642887,16.708661,2.892841,-79.522652,0.000000,-80.339610,0.000000,0.000000,0.000000,-2.402973,0.000000,3.421716,0.000000,0.000000,0.000000,0.000000,0.000000
9.480000000,35.000088422,138.999483312,211.589574,2.868877,0.000000,15.676874,16.732063,2.868877,-79.629589,0.000000,-80.298424,0.000000,0.000000,0.000000,-2.396368,0.000000,3.398698,0.000000,0.000000,0.000000,0.000000,0.000000
9.490000000,35.000088465,138.999483005,211.432468,2.844979,0.000000,15.710632,16.755343,2.844979,-79.735756,0.000000,-80.256658,0.000000,0.000000,0.000000,-2.389742,0.000000,3.375781,0.000000,0.000000,0.000000,0.000000,0.000000
9.500000000,35.000088508,138.999482700,211.275026,2.821147,0.000000,15.744162,16.778501,2.821147,-79.841160,0.000000,-80.214302,0.000000,0.000000,0.000000,-2.383096,0.000000,3.352967,0.000000,0.000000,0.000000,0.000000,0.000000
9.510000000,35.000088551,138.999482398,211.117252,2.797382,0.000000,15.777464,16.801537,2.797382,-79.945808,0.000000,-80.171342,0.000000,0.000000,0.000000,-2.376429,0.000000,3.330254,0.000000,0.000000,0.000000,0.000000,0.000000
9.520000000,35.000088594,138.999482098,210.959146,2.773684,0.000000,15.810541,16.824452,2.773684,-80.049709,0.000000,-80.127767,0.000000,0.000000,0.000000,-2.369741,0.000000,3.307644,0.000000,0.000000,0.000000,0.000000,0.000000
9.530000000,35.000088636,138.999481801,210.800712,2.750052,0.000000,15.843392,16.847245,2.750052,-80.152869,0.000000,-80.083565,0.000000,0.000000,0.000000,-2.363034,0.000000,3.285137,0.000000,0.000000,0.000000,0.000000,0.000000
9.540000000,35.000088679,138.999481506,210.641952,2.726489,0.000000,15.876019,16.869915,2.726489,-80.255295,0.000000,-80.038722,0.000000,0.000000,0.000000,-2.356308,0.000000,3.262734,0.000000,0.000000,0.000000,0.000000,0.000000
9.550000000,35.000088721,138.999481214,210.482868,2.702992,0.000000,15.908424,16.892464,2.702992,-80.356995,0.000000,-79.993226,0.000000,0.000000,0.000000,-2.349562,0.000000,3.240433,0.000000,0.000000,0.000000,0.000000,0.000000
9.560000000,35.000088763,138.999480925,210.323462,2.679563,0.000000,15.940606,16.914890,2.679563,-80.457976,0.000000,-79.947062,0.000000,0.000000,0.000000,-2.342797,0.000000,3.218237,0.000000,0.000000,0.000000,0.000000,0.000000
9.570000000,35.000088805,138.999480638,210.163736,2.656202,0.000000,15.972567,16.937195,2.656202,-80.558244,0.000000,-79.900219,0.000000,0.000000,0.000000,-2.336013,0.000000,3.196144,0.000000,0.000000,0.000000,0.000000,0.000000
9.580000000,35.000088846,138.999480354,210.003693,2.632909,0.000000,16.004309,16.959377,2.632909,-80.657807,0.000000,-79.852680,0.000000,0.000000,0.000000,-2.329211,0.000000,3.174156,0.000000,0.000000,0.000000,0.000000,0.000000
9.590000000,35.000088888,138.999480072,209.843335,2.609684,0.000000,16.035832,16.981437,2.609684,-80.756671,0.000000,-79.804431,0.000000,0.000000,0.000000,-2.322392,0.000000,3.152271,0.000000,0.000000,0.000000,0.000000,0.000000
9.600000000,35.000088929,138.999479793,209.682663,2.586528,0.000000,16.067137,17.003375,2.586528,-80.854843,0.000000,-79.755459,0.000000,0.000000,0.000000,-2.315554,0.000000,3.130492,0.000000,0.000000,0.000000,0.000000,0.000000
9.610000000,35.000088970,138.999479517,209.521681,2.563440,0.000000,16.098225,17.025191,2.563440,-80.952330,0.000000,-79.705746,0.000000,0.000000,0.000000,-2.308699,0.000000,3.108817,0.000000,0.000000,0.000000,0.000000,0.000000
9.620000000,35.000089011,138.999479243,209.360390,2.540421,0.000000,16.129097,17.046885,2.540421,-81.049137,0.000000,-79.655277,0.000000,0.000000,0.000000,-2.301826,0.000000,3.087247,0.000000,0.000000,0.000000,0.000000,0.000000
9.630000000,35.000089052,138.999478971,209.198793,2.517470,0.000000,16.159755,17.068456,2.517470,-81.145271,0.000000,-79.604035,0.000000,0.000000,0.000000,-2.294937,0.000000,3.065783,0.000000,0.000000,0.000000,0.000000,0.000000
9.640000000,35.000089093,138.999478702,209.036891,2.494589,0.000000,16.190199,17.089906,2.494589,-81.240739,0.000000,-79.552005,0.000000,0.000000,0.000000,-2.288031,0.000000,3.044424,0.000000,0.000000,0.000000,0.000000,0.000000
9.650000000,35.000089133,138.999478436,208.874686,2.471777,0.000000,16.220431,17.111234,2.471777,-81.335547,0.000000,-79.499168,0.000000,0.000000,0.000000,-2.281109,0.000000,3.023170,0.000000,0.000000,0.000000,0.000000,0.000000
9.660000000,35.000089174,138.999478172,208.712182,2.449034,0.000000,16.250451,17.132441,2.449034,-81.429700,0.000000,-79.445507,0.000000,0.000000,0.000000,-2.274170,0.000000,3.002022,0.000000,0.000000,0.000000,0.000000,0.000000
9.670000000,35.000089214,138.999477910,208.549379,2.426361,0.000000,16.280261,17.153526,2.426361,-81.523206,0.000000,-79.391004,0.000000,0.000000,0.000000,-2.267216,0.000000,2.980979,0.000000,0.000000,0.000000,0.000000,0.000000
9.680000000,35.000089254,138.999477651,208.386281,2.403757,0.000000,16.309861,17.174489,2.403757,-81.616069,0.000000,-79.335639,0.000000,0.000000,0.000000,-2.260246,0.000000,2.960042,0.000000,0.000000,0.000000,0.000000,0.000000
9.690000000,35.000089293,138.999477394,208.222888,2.381223,0.000000,16.339254,17.195331,2.381223,-81.708296,0.000000,-79.279393,0.000000,0.000000,0.000000,-2.253261,0.000000,2.939212,0.000000,0.000000,0.000000,0.000000,0.000000
9.700000000,35.000089333,138.999477140,208.059204,2.358760,0.000000,16.368438,17.216051,2.358760,-81.799892,0.000000,-79.222247,0.000000,0.000000,0.000000,-2.246260,0.000000,2.918487,0.000000,0.000000,0.000000,0.000000,0.000000
9.710000000,35.000089373,138.999476889,207.895229,2.336366,0.000000,16.397417,17.236651,2.336366,-81.890863,0.000000,-79.164178,0.000000,0.000000,0.000000,-2.239245,0.000000,2.897868,0.000000,0.000000,0.000000,0.000000,0.000000
9.720000000,35.000089412,138.999476639,207.730968,2.314043,0.000000,16.426191,17.257130,2.314043,-81.981216,0.000000,-79.105167,0.000000,0.000000,0.000000,-2.232215,0.000000,2.877355,0.000000,0.000000,0.000000,0.000000,0.000000
9.730000000,35.000089451,138.999476393,207.566420,2.291790,0.000000,16.454760,17.277488,2.291790,-82.070954,0.000000,-79.045191,0.000000,0.000000,0.000000,-2.225170,0.000000,2.856949,0.000000,0.000000,0.000000,0.000000,0.000000
9.740000000,35.000089490,138.999476148,207.401589,2.269607,0.000000,16.483127,17.297726,2.269607,-82.160085,0.000000,-78.984228,0.000000,0.000000,0.000000,-2.218112,0.000000,2.836649,0.000000,0.000000,0.000000,0.000000,0.000000
9.750000000,35.000089529,138.999475906,207.236476,2.247495,0.000000,16.511291,17.317843,2.247495,-82.248612,0.000000,-78.922254,0.000000,0.000000,0.000000,-2.211039,0.000000,2.816455,0.000000,0.000000,0.000000,0.000000,0.000000
9.760000000,35.000089567,138.999475667,207.071083,2.225455,0.000000,16.539255,17.337840,2.225455,-82.336543,0.000000,-78.859246,0.000000,0.000000,0.000000,-2.203952,0.000000,2.796368,0.000000,0.000000,0.000000,0.000000,0.000000
9.770000000,35.000089606,138.999475430,206.905413,2.203485,0.000000,16.567019,17.357717,2.203485,-82.423881,0.000000,-78.795178,0.000000,0.000000,0.000000,-2.196852,0.000000,2.776386,0.000000,0.000000,0.000000,0.000000,0.000000
9.780000000,35.000089644,138.999475195,206.739467,2.181586,0.000000,16.594584,17.377475,2.181586,-82.510632,0.000000,-78.730025,0.000000,0.000000,0.000000,-2.189739,0.000000,2.756511,0.000000,0.000000,0.000000,0.000000,0.000000
9.790000000,35.000089682,138.999474963,206.573248,2.159758,0.000000,16.621951,17.397113,2.159758,-82.596801,0.000000,-78.663760,0.000000,0.000000,0.000000,-2.182612,0.000000,2.736743,0.000000,0.000000,0.000000,0.000000,0.000000
9.800000000,35.000089720,138.999474733,206.406757,2.138002,0.000000,16.649122,17.416632,2.138002,-82.682393,0.000000,-78.596356,0.000000,0.000000,0.000000,-2.175472,0.000000,2.717080,0.000000,0.000000,0.000000,0.000000,0.000000
9.810000000,35.000089758,138.999474506,206.239996,2.116317,0.000000,16.676097,17.436033,2.116317,-82.767414,0.000000,-78.527786,0.000000,0.000000,0.000000,-2.168318,0.000000,2.697524,0.000000,0.000000,0.000000,0.000000,0.000000
9.820000000,35.000089796,138.999474281,206.072967,2.094704,0.000000,16.702878,17.455314,2.094704,-82.851868,0.000000,-78.458019,0.000000,0.000000,0.000000,-2.161153,0.000000,2.678074,0.000000,0.000000,0.000000,0.000000,0.000000
9.830000000,35.000089833,138.999474058,205.905672,2.073163,0.000000,16.729465,17.474477,2.073163,-82.935759,0.000000,-78.387026,0.000000,0.000000,0.000000,-2.153974,0.000000,2.658730,0.000000,0.000000,0.000000,0.000000,0.000000
9.840000000,35.000089870,138.999473838,205.738113,2.051693,0.000000,16.755860,17.493523,2.051693,-83.019093,0.000000,-78.314776,0.000000,0.000000,0.000000,-2.146783,0.000000,2.639493,0.000000,0.000000,0.000000,0.000000,0.000000
9.850000000,35.000089908,138.999473620,205.570293,2.030296,0.000000,16.782064,17.512450,2.030296,-83.101874,0.000000,-78.241236,0.000000,0.000000,0.000000,-2.139579,0.000000,2.620361,0.000000,0.000000,0.000000,0.000000,0.000000
9.860000000,35.000089945,138.999473404,205.402212,2.008971,0.000000,16.808077,17.531260,2.008971,-83.184107,0.000000,-78.166374,0.000000,0.000000,0.000000,-2.132363,0.000000,2.601335,0.000000,0.000000,0.000000,0.000000,0.000000
9.870000000,35.000089981,138.999473191,205.233873,1.987717,0.000000,16.833901,17.549952,1.987717,-83.265797,0.000000,-78.090154,0.000000,0.000000,0.000000,-2.125135,0.000000,2.582415,0.000000,0.000000,0.000000,0.000000,0.000000
9.880000000,35.000090018,138.999472980,205.065278,1.966537,0.000000,16.859537,17.568528,1.966537,-83.346948,0.000000,-78.012542,0.000000,0.000000,0.000000,-2.117894,0.000000,2.563601,0.000000,0.000000,0.000000,0.000000,0.000000
9.890000000,35.000090055,138.999472771,204.896428,1.945428,0.000000,16.884986,17.586987,1.945428,-83.427563,0.000000,-77.933500,0.000000,0.000000,0.000000,-2.110641,0.000000,2.544893,0.000000,0.000000,0.000000,0.000000,0.000000
9.900000000,35.000090091,138.999472565,204.727325,1.924393,0.000000,16.910249,17.605330,1.924393,-83.507649,0.000000,-77.852991,0.000000,0.000000,0.000000,-2.103376,0.000000,2.526290,0.000000,0.000000,0.000000,0.000000,0.000000
9.910000000,35.000090127,138.999472361,204.557972,1.903430,0.000000,16.935327,17.623558,1.903430,-83.587209,0.000000,-77.770974,0.000000,0.000000,0.000000,-2.096099,0.000000,2.507793,0.000000,0.000000,0.000000,0.000000,0.000000
9.920000000,35.000090163,138.999472159,204.388370,1.882540,0.000000,16.960221,17.641669,1.882540,-83.666247,0.000000,-77.687410,0.000000,0.000000,0.000000,-2.088810,0.000000,2.489401,0.000000,0.000000,0.000000,0.000000,0.000000
9.930000000,35.000090199,138.999471960,204.218521,1.861722,0.000000,16.984932,17.659666,1.861722,-83.744767,0.000000,-77.602255,0.000000,0.000000,0.000000,-2.081509,0.000000,2.471114,0.000000,0.000000,0.000000,0.000000,0.000000
9.940000000,35.000090235,138.999471763,204.048426,1.840978,0.000000,17.009462,17.677547,1.840978,-83.822774,0.000000,-77.515466,0.000000,0.000000,0.000000,-2.074196,0.000000,2.452932,0.000000,0.000000,0.000000,0.000000,0.000000
9.950000000,35.000090271,138.999471568,203.878088,1.820307,0.000000,17.033810,17.695314,1.820307,-83.900272,0.000000,-77.426998,0.000000,0.000000,0.000000,-2.066870,0.000000,2.434855,0.000000,0.000000,0.000000,0.000000,0.000000
9.960000000,35.000090306,138.999471375,203.707508,1.799710,0.000000,17.057979,17.712967,1.799710,-83.977264,0.000000,-77.336802,0.000000,0.000000,0.000000,-2.059532,0.000000,2.416883,0.000000,0.000000,0.000000,0.000000,0.000000
9.970000000,35.000090341,138.999471185,203.536688,1.779186,0.000000,17.081969,17.730506,1.779186,-84.053754,0.000000,-77.244830,0.000000,0.000000,0.000000,-2.052182,0.000000,2.399015,0.000000,0.000000,0.000000,0.000000,0.000000
9.980000000,35.000090376,138.999470997,203.365631,1.758735,0.000000,17.105782,17.747932,1.758735,-84.129747,0.000000,-77.151032,0.000000,0.000000,0.000000,-2.044819,0.000000,2.381252,0.000000,0.000000,0.000000,0.000000,0.000000
9.990000000,35.000090411,138.999470811,203.194336,1.738358,0.000000,17.129418,17.765245,1.738358,-84.205246,0.000000,-77.055354,0.000000,0.000000,0.000000,-2.037444,0.000000,2.363593,0.000000,0.000000,0.000000,0.000000,0.000000
10.000000000,35.000090446,138.999470628,203.022808,1.718055,0.000000,17.152878,17.782445,1.718055,-84.280255,0.000000,-76.957741,0.000000,0.000000,0.000000,-2.030056,0.000000,2.346038,0.000000,0.000000,0.000000,0.000000,0.000000
10.010000000,35.000090481,138.999470446,202.851046,1.697826,0.000000,17.176164,17.799533,1.697826,-84.354777,0.000000,-76.858137,0.000000,0.000000,0.000000,-2.022655,0.000000,2.328586,0.000000,0.000000,0.000000,0.000000,0.000000
10.020000000,35.000090515,138.999470267,202.679053,1.677671,0.000000,17.199276,17.816509,1.677671,-84.428816,0.000000,-76.756483,0.000000,0.000000,0.000000,-2.015241,0.000000,2.311239,0.000000,0.000000,0.000000,0.000000,0.000000
10.030000000,35.000090550,138.999470090,202.506831,1.657590,0.000000,17.222216,17.833374,1.657590,-84.502376,0.000000,-76.652717,0.000000,0.000000,0.000000,-2.007813,0.000000,2.293994,0.000000,0.000000,0.000000,0.000000,0.000000
10.040000000,35.000090584,138.999469916,202.334381,1.637584,0.000000,17.244985,17.850128,1.637584,-84.575460,0.000000,-76.546774,0.000000,0.000000,0.000000,-2.000372,0.000000,2.276853,0.000000,0.000000,0.000000,0.000000,0.000000
10.050000000,35.000090618,138.999469743,202.161705,1.617651,0.000000,17.267583,17.866771,1.617651,-84.648071,0.000000,-76.438589,0.000000,0.000000,0.000000,-1.992917,0.000000,2.259815,0.000000,0.000000,0.000000,0.000000,0.000000
10.060000000,35.000090652,138.999469573,201.988805,1.597794,0.000000,17.290012,17.883304,1.597794,-84.720213,0.000000,-76.328092,0.000000,0.000000,0.000000,-1.985447,0.000000,2.242880,0.000000,0.000000,0.000000,0.000000,0.000000
10.070000000,35.000090686,138.999469405,201.815682,1.578011,0.000000,17.312272,17.899728,1.578011,-84.791889,0.000000,-76.215212,0.000000,0.000000,0.000000,-1.977963,0.000000,2.226047,0.000000,0.000000,0.000000,0.000000,0.000000
10.080000000,35.000090719,138.999469239,201.642339,1.558303,0.000000,17.334365,17.916042,1.558303,-84.863103,0.000000,-76.099872,0.000000,0.000000,0.000000,-1.970464,0.000000,2.209317,0.000000,0.000000,0.000000,0.000000,0.000000
10.090000000,35.000090753,138.999469075,201.468776,1.538671,0.000000,17.356292,17.932247,1.538671,-84.933857,0.000000,-75.981995,0.000000,0.000000,0.000000,-1.962949,0.000000,2.192688,0.000000,0.000000,0.000000,0.000000,0.000000
10.100000000,35.000090786,138.999468914,201.294995,1.519113,0.000000,17.378054,17.948344,1.519113,-85.004154,0.000000,-75.861499,0.000000,0.000000,0.000000,-1.955419,0.000000,2.176161,0.000000,0.000000,0.000000,0.000000,0.000000
10.110000000,35.000090819,138.999468754,201.120999,1.499631,0.000000,17.399651,17.964332,1.499631,-85.073999,0.000000,-75.738300,0.000000,0.000000,0.000000,-1.947872,0.000000,2.159736,0.000000,0.000000,0.000000,0.000000,0.000000
10.120000000,35.000090853,138.999468597,200.946788,1.480224,0.000000,17.421085,17.980213,1.480224,-85.143392,0.000000,-75.612308,0.000000,0.000000,0.000000,-1.940308,0.000000,2.143412,0.000000,0.000000,0.000000,0.000000,0.000000
10.130000000,35.000090885,138.999468442,200.772364,1.460893,0.000000,17.442357,17.995987,1.460893,-85.212338,0.000000,-75.483430,0.000000,0.000000,0.000000,-1.932726,0.000000,2.127189,0.000000,0.000000,0.000000,0.000000,0.000000
10.140000000,35.000090918,138.999468289,200.597730,1.441638,0.000000,17.463468,18.011655,1.441638,-85.280840,0.000000,-75.351572,0.000000,0.000000,0.000000,-1.925126,0.000000,2.111067,0.000000,0.000000,0.000000,0.000000,0.000000
10.150000000,35.000090951,138.999468138,200.422886,1.422459,0.000000,17.484418,18.027216,1.422459,-85.348899,0.000000,-75.216630,0.000000,0.000000,0.000000,-1.917506,0.000000,2.095045,0.000000,0.000000,0.000000,0.000000,0.000000
10.160000000,35.000090983,138.999467990,200.247833,1.403356,0.000000,17.505210,18.042671,1.403356,-85.416519,0.000000,-75.078500,0.000000,0.000000,0.000000,-1.909867,0.000000,2.079123,0.000000,0.000000,0.000000,0.000000,0.000000
10.170000000,35.000091016,138.999467843,200.072575,1.384330,0.000000,17.525843,18.058021,1.384330,-85.483703,0.000000,-74.937072,0.000000,0.000000,0.000000,-1.902207,0.000000,2.063301,0.000000,0.000000,0.000000,0.000000,0.000000
10.180000000,35.000091048,138.999467698,199.897112,1.365380,0.000000,17.546318,18.073266,1.365380,-85.550452,0.000000,-74.792230,0.000000,0.000000,0.000000,-1.894525,0.000000,2.047579,0.000000,0.000000,0.000000,0.000000,0.000000
10.190000000,35.000091080,138.999467556,199.721445,1.346507,0.000000,17.566638,18.088407,1.346507,-85.616770,0.000000,-74.643854,0.000000,0.000000,0.000000,-1.886820,0.000000,2.031956,0.000000,0.000000,0.000000,0.000000,0.000000
10.200000000,35.000091112,138.999467416,199.545577,1.327712,0.000000,17.586802,18.103443,1.327712,-85.682658,0.000000,-74.491817,0.000000,0.000000,0.000000,-1.879092,0.000000,2.016431,0.000000,0.000000,0.000000,0.000000,0.000000
10.210000000,35.000091143,138.999467278,199.369509,1.308993,0.000000,17.606812,18.118377,1.308993,-85.748119,0.000000,-74.335987,0.000000,0.000000,0.000000,-1.871339,0.000000,2.001006,0.000000,0.000000,0.000000,0.000000,0.000000
10.220000000,35.000091175,138.999467141,199.193243,1.290353,0.000000,17.626669,18.133207,1.290353,-85.813156,0.000000,-74.176225,0.000000,0.000000,0.000000,-1.863560,0.000000,1.985678,0.000000,0.000000,0.000000,0.000000,0.000000
10.230000000,35.000091206,138.999467007,199.016779,1.271790,0.000000,17.646374,18.147935,1.271790,-85.877770,0.000000,-74.012386,0.000000,0.000000,0.000000,-1.855753,0.000000,1.970449,0.000000,0.000000,0.000000,0.000000,0.000000
10.240000000,35.000091238,138.999466875,198.840120,1.253305,0.000000,17.665927,18.162561,1.253305,-85.941963,0.000000,-73.844318,0.000000,0.000000,0.000000,-1.847917,0.000000,1.955318,0.000000,0.000000,0.000000,0.000000,0.000000
10.250000000,35.000091269,138.999466745,198.663266,1.234899,0.000000,17.685330,18.177085,1.234899,-86.005738,0.000000,-73.671860,0.000000,0.000000,0.000000,-1.840051,0.000000,1.940283,0.000000,0.000000,0.000000,0.000000,0.000000
10.260000000,35.000091300,138.999466617,198.486221,1.216572,0.000000,17.704583,18.191508,1.216572,-86.069096,0.000000,-73.494844,0.000000,0.000000,0.000000,-1.832152,0.000000,1.925346,0.000000,0.000000,0.000000,0.000000,0.000000
10.270000000,35.000091331,138.999466492,198.308984,1.198323,0.000000,17.723688,18.205830,1.198323,-86.132039,0.000000,-73.313095,0.000000,0.000000,0.000000,-1.824220,0.000000,1.910506,0.000000,0.000000,0.000000,0.000000,0.000000
10.280000000,35.000091362,138.999466368,198.131557,1.180154,0.000000,17.742646,18.220053,1.180154,-86.194569,0.000000,-73.126425,0.000000,0.000000,0.000000,-1.816251,0.000000,1.895761,0.000000,0.000000,0.000000,0.000000,0.000000
10.290000000,35.000091392,138.999466246,197.953943,1.162065,0.000000,17.761457,18.234175,1.162065,-86.256688,0.000000,-72.934641,0.000000,0.000000,0.000000,-1.808245,0.000000,1.881113,0.000000,0.000000,0.000000,0.000000,0.000000
10.300000000,35.000091423,138.999466126,197.776141,1.144056,0.000000,17.780122,18.248199,1.144056,-86.318396,0.000000,-72.737536,0.000000,0.000000,0.000000,-1.800198,0.000000,1.866561,0.000000,0.000000,0.000000,0.000000,0.000000
10.310000000,35.000091453,138.999466008,197.598155,1.126128,0.000000,17.798643,18.262123,1.126128,-86.379696,0.000000,-72.534895,0.000000,0.000000,0.000000,-1.792109,0.000000,1.852103,0.000000,0.000000,0.000000,0.000000,0.000000
10.320000000,35.000091483,138.999465893,197.419985,1.108281,0.000000,17.817021,18.275950,1.108281,-86.440588,0.000000,-72.326490,0.000000,0.000000,0.000000,-1.783975,0.000000,1.837741,0.000000,0.000000,0.000000,0.000000,0.000000
10.330000000,35.000091514,138.999465779,197.241632,1.090515,0.000000,17.835256,18.289679,1.090515,-86.501074,0.000000,-72.112080,0.000000,0.000000,0.000000,-1.775792,0.000000,1.823473,0.000000,0.000000,0.000000,0.000000,0.000000
10.340000000,35.000091543,138.999465667,197.063099,1.072832,0.000000,17.853349,18.303311,1.072832,-86.561155,0.000000,-71.891412,0.000000,0.000000,0.000000,-1.767559,0.000000,1.809300,0.000000,0.000000,0.000000,0.000000,0.000000
10.350000000,35.000091573,138.999465557,196.884386,1.055231,0.000000,17.871301,18.316846,1.055231,-86.620831,0.000000,-71.664219,0.000000,0.000000,0.000000,-1.759272,0.000000,1.795220,0.000000,0.000000,0.000000,0.000000,0.000000
10.360000000,35.000091603,138.999465449,196.705495,1.037712,0.000000,17.889113,18.330284,1.037712,-86.680104,0.000000,-71.430218,0.000000,0.000000,0.000000,-1.750927,0.000000,1.781234,0.000000,0.000000,0.000000,0.000000,0.000000
10.370000000,35.000091633,138.999465343,196.526427,1.020278,0.000000,17.906787,18.343627,1.020278,-86.738974,0.000000,-71.189110,0.000000,0.000000,0.000000,-1.742521,0.000000,1.767341,0.000000,0.000000,0.000000,0.000000,0.000000
10.380000000,35.000091662,138.999465239,196.347183,1.002928,0.000000,17.924322,18.356875,1.002928,-86.797442,0.000000,-70.940581,0.000000,0.000000,0.000000,-1.734050,0.000000,1.753541,0.000000,0.000000,0.000000,0.000000,0.000000
10.390000000,35.000091691,138.999465137,196.167766,0.985663,0.000000,17.941720,18.370028,0.985663,-86.855507,0.000000,-70.684295,0.000000,0.000000,0.000000,-1.725508,0.000000,1.739834,0.000000,0.000000,0.000000,0.000000,0.000000
10.400000000,35.000091720,138.999465037,195.988176,0.968483,0.000000,17.958982,18.383087,0.968483,-86.913171,0.000000,-70.419900,0.000000,0.000000,0.000000,-1.716893,0.000000,1.726218,0.000000,0.000000,0.000000,0.000000,0.000000
10.410000000,35.000091749,138.999464939,195.808415,0.951390,0.000000,17.976109,18.396052,0.951390,-86.970432,0.000000,-70.147020,0.000000,0.000000,0.000000,-1.708198,0.000000,1.712694,0.000000,0.000000,0.000000,0.000000,0.000000
10.420000000,35.000091778,138.999464843,195.628484,0.934385,0.000000,17.993102,18.408924,0.934385,-87.027291,0.000000,-69.865258,0.000000,0.000000,0.000000,-1.699419,0.000000,1.699261,0.000000,0.000000,0.000000,0.000000,0.000000
10.430000000,35.000091807,138.999464749,195.448385,0.917467,0.000000,18.009961,18.421703,0.917467,-87.083747,0.000000,-69.574191,0.000000,0.000000,0.000000,-1.690548,0.000000,1.685919,0.000000,0.000000,0.000000,0.000000,0.000000
10.440000000,35.000091836,138.999464656,195.268118,0.900639,0.000000,18.026688,18.434390,0.900639,-87.139800,0.000000,-69.273373,0.000000,0.000000,0.000000,-1.681581,0.000000,1.672667,0.000000,0.000000,0.000000,0.000000,0.000000
10.450000000,35.000091864,138.999464566,195.087685,0.883900,0.000000,18.043283,18.446985,0.883900,-87.195449,0.000000,-68.962328,0.000000,0.000000,0.000000,-1.672509,0.000000,1.659506,0.000000,0.000000,0.000000,0.000000,0.000000
10.460000000,35.000091893,138.999464477,194.907088,0.867253,0.000000,18.059747,18.459488,0.867253,-87.250692,0.000000,-68.640548,0.000000,0.000000,0.000000,-1.663326,0.000000,1.646434,0.000000,0.000000,0.000000,0.000000,0.000000
10.470000000,35.000091921,138.999464390,194.726327,0.850698,0.000000,18.076082,18.471901,0.850698,-87.305529,0.000000,-68.307496,0.000000,0.000000,0.000000,-1.654024,0.000000,1.633452,0.000000,0.000000,0.000000,0.000000,0.000000
10.480000000,35.000091949,138.999464306,194.545404,0.834237,0.000000,18.092287,18.484224,0.834237,-87.359957,0.000000,-67.962597,0.000000,0.000000,0.000000,-1.644593,0.000000,1.620559,0.000000,0.000000,0.000000,0.000000,0.000000
10.490000000,35.000091977,138.999464223,194.364320,0.817871,0.000000,18.108365,18.496457,0.817871,-87.413974,0.000000,-67.605242,0.000000,0.000000,0.000000,-1.635024,0.000000,1.607754,0.000000,0.000000,0.000000,0.000000,0.000000
10.500000000,35.000092005,138.999464142,194.183077,0.801600,0.000000,18.124315,18.508601,0.801600,-87.467579,0.000000,-67.234777,0.000000,0.000000,0.000000,-1.625306,0.000000,1.595037,0.000000,0.000000,0.000000,0.000000,0.000000
10.510000000,35.000092033,138.999464062,194.001676,0.785428,0.000000,18.140139,18.520655,0.785428,-87.520768,0.000000,-66.850507,0.000000,0.000000,0.000000,-1.615429,0.000000,1.582408,0.000000,0.000000,0.000000,0.000000,0.000000
10.520000000,35.000092060,138.999463985,193.820117,0.769355,0.000000,18.155838,18.532622,0.769355,-87.573538,0.000000,-66.451688,0.000000,0.000000,0.000000,-1.605379,0.000000,1.569866,0.000000,0.000000,0.000000,0.000000,0.000000
10.530000000,35.000092088,138.999463910,193.638403,0.753384,0.000000,18.171412,18.544501,0.753384,-87.625886,0.000000,-66.037527,0.000000,0.000000,0.000000,-1.595144,0.000000,1.557412,0.000000,0.000000,0.000000,0.000000,0.000000
10.540000000,35.000092115,138.999463836,193.456535,0.737515,0.000000,18.186863,18.556292,0.737515,-87.677809,0.000000,-65.607172,0.000000,0.000000,0.000000,-1.584709,0.000000,1.545043,0.000000,0.000000,0.000000,0.000000,0.000000
10.550000000,35.000092142,138.999463764,193.274513,0.721752,0.000000,18.202190,18.567997,0.721752,-87.729300,0.000000,-65.159714,0.000000,0.000000,0.000000,-1.574057,0.000000,1.532761,0.000000,0.000000,0.000000,0.000000,0.000000
10.560000000,35.000092169,138.999463694,193.092339,0.706097,0.000000,18.217396,18.579616,0.706097,-87.780357,0.000000,-64.694179,0.000000,0.000000,0.000000,-1.563171,0.000000,1.520565,0.000000,0.000000,0.000000,0.000000,0.000000
10.570000000,35.000092196,138.999463626,192.910014,0.690551,0.000000,18.232480,18.591148,0.690551,-87.830972,0.000000,-64.209520,0.000000,0.000000,0.000000,-1.552032,0.000000,1.508454,0.000000,0.000000,0.000000,0.000000,0.000000
10.580000000,35.000092223,138.999463560,192.727539,0.675118,0.000000,18.247445,18.602596,0.675118,-87.881140,0.000000,-63.704618,0.000000,0.000000,0.000000,-1.540619,0.000000,1.496427,0.000000,0.000000,0.000000,0.000000,0.000000
10.590000000,35.000092250,138.999463495,192.544917,0.659801,0.000000,18.262290,18.613958,0.659801,-87.930853,0.000000,-63.178269,0.000000,0.000000,0.000000,-1.528909,0.000000,1.484486,0.000000,0.000000,0.000000,0.000000,0.000000
10.600000000,35.000092277,138.999463432,192.362146,0.644602,0.000000,18.277016,18.625237,0.644602,-87.980105,0.000000,-62.629179,0.000000,0.000000,0.000000,-1.516875,0.000000,1.472628,0.000000,0.000000,0.000000,0.000000,0.000000
10.610000000,35.000092303,138.999463371,192.179230,0.629524,0.000000,18.291624,18.636431,0.629524,-88.028887,0.000000,-62.055960,0.000000,0.000000,0.000000,-1.504492,0.000000,1.460854,0.000000,0.000000,0.000000,0.000000,0.000000
10.620000000,35.000092329,138.999463312,191.996169,0.614573,0.000000,18.306116,18.647543,0.614573,-88.077189,0.000000,-61.457118,0.000000,0.000000,0.000000,-1.491727,0.000000,1.449163,0.000000,0.000000,0.000000,0.000000,0.000000
10.630000000,35.000092356,138.999463255,191.812964,0.599751,0.000000,18.320492,18.658571,0.599751,-88.125001,0.000000,-60.831045,0.000000,0.000000,0.000000,-1.478547,0.000000,1.437555,0.000000,0.000000,0.000000,0.000000,0.000000
10.640000000,35.000092382,138.999463199,191.629617,0.585062,0.000000,18.334752,18.669517,0.585062,-88.172311,0.000000,-60.176010,0.000000,0.000000,0.000000,-1.464915,0.000000,1.426029,0.000000,0.000000,0.000000,0.000000,0.000000
10.650000000,35.000092408,138.999463145,191.446128,0.570512,0.000000,18.348898,18.680381,0.570512,-88.219107,0.000000,-59.490153,0.000000,0.000000,0.000000,-1.450790,0.000000,1.414586,0.000000,0.000000,0.000000,0.000000,0.000000
10.660000000,35.000092434,138.999463093,191.262498,0.556106,0.000000,18.362930,18.691164,0.556106,-88.265375,0.000000,-58.771466,0.000000,0.000000,0.000000,-1.436127,0.000000,1.403224,0.000000,0.000000,0.000000,0.000000,0.000000
10.670000000,35.000092460,138.999463043,191.078730,0.541849,0.000000,18.376849,18.701867,0.541849,-88.311098,0.000000,-58.017791,0.000000,0.000000,0.000000,-1.420876,0.000000,1.391943,0.000000,0.000000,0.000000,0.000000,0.000000
10.680000000,35.000092485,138.999462994,190.894823,0.527748,0.000000,18.390657,18.712488,0.527748,-88.356261,0.000000,-57.226802,0.000000,0.000000,0.000000,-1.404982,0.000000,1.380742,0.000000,0.000000,0.000000,0.000000,0.000000
10.690000000,35.000092511,138.999462947,190.710780,0.513809,0.000000,18.404353,18.723030,0.513809,-88.400845,0.000000,-56.395995,0.000000,0.000000,0.000000,-1.388385,0.000000,1.369622,0.000000,0.000000,0.000000,0.000000,0.000000
10.700000000,35.000092536,138.999462902,190.526600,0.500039,0.000000,18.417939,18.733493,0.500039,-88.444827,0.000000,-55.522678,0.000000,0.000000,0.000000,-1.371017,0.000000,1.358582,0.000000,0.000000,0.000000,0.000000,0.000000
10.710000000,35.000092562,138.999462858,190.342286,0.486446,0.000000,18.431415,18.743876,0.486446,-88.488187,0.000000,-54.603954,0.000000,0.000000,0.000000,-1.352805,0.000000,1.347622,0.000000,0.000000,0.000000,0.000000,0.000000
10.720000000,35.000092587,138.999462816,190.157838,0.473040,0.000000,18.444782,18.754182,0.473040,-88.530897,0.000000,-53.636716,0.000000,0.000000,0.000000,-1.333667,0.000000,1.336740,0.000000,0.000000,0.000000,0.000000,0.000000
10.730000000,35.000092612,138.999462776,189.973258,0.459830,0.000000,18.458042,18.764409,0.459830,-88.572931,0.000000,-52.617628,0.000000,0.000000,0.000000,-1.313512,0.000000,1.325938,0.000000,0.000000,0.000000,0.000000,0.000000
10.740000000,35.000092637,138.999462738,189.788546,0.446827,0.000000,18.471194,18.774559,0.446827,-88.614257,0.000000,-51.543124,0.000000,0.000000,0.000000,-1.292243,0.000000,1.315213,0.000000,0.000000,0.000000,0.000000,0.000000
10.750000000,35.000092662,138.999462701,189.603704,0.434042,0.000000,18.484240,18.784632,0.434042,-88.654842,0.000000,-50.409396,0.000000,0.000000,0.000000,-1.269750,0.000000,1.304566,0.000000,0.000000,0.000000,0.000000,0.000000
10.760000000,35.000092686,138.999462666,189.418732,0.421488,0.000000,18.497180,18.794628,0.421488,-88.694648,0.000000,-49.212392,0.000000,0.000000,0.000000,-1.245913,0.000000,1.293996,0.000000,0.000000,0.000000,0.000000,0.000000
10.770000000,35.000092711,138.999462633,189.233632,0.409180,0.000000,18.510015,18.804549,0.409180,-88.733634,0.000000,-47.947820,0.000000,0.000000,0.000000,-1.220604,0.000000,1.283504,0.000000,0.000000,0.000000,0.000000,0.000000
10.780000000,35.000092735,138.999462601,189.048404,0.397132,0.000000,18.522745,18.814394,0.397132,-88.771755,0.000000,-46.611156,0.000000,0.000000,0.000000,-1.193681,0.000000,1.273088,0.000000,0.000000,0.000000,0.000000,0.000000
10.790000000,35.000092760,138.999462571,188.863050,0.385361,0.000000,18.535373,18.824163,0.385361,-88.808960,0.000000,-45.197662,0.000000,0.000000,0.000000,-1.164989,0.000000,1.262748,0.000000,0.000000,0.000000,0.000000,0.000000
10.800000000,35.000092784,138.999462543,188.677571,0.373886,0.000000,18.547898,18.833859,0.373886,-88.845196,0.000000,-43.702418,0.000000,0.000000,0.000000,-1.134365,0.000000,1.252483,0.000000,0.000000,0.000000,0.000000,0.000000
10.810000000,35.000092808,138.999462516,188.491968,0.362727,0.000000,18.560321,18.843480,0.362727,-88.880403,0.000000,-42.120369,0.000000,0.000000,0.000000,-1.101632,0.000000,1.242294,0.000000,0.000000,0.000000,0.000000,0.000000
10.820000000,35.000092832,138.999462491,188.306242,0.351906,0.000000,18.572643,18.853028,0.351906,-88.914515,0.000000,-40.446387,0.000000,0.000000,0.000000,-1.066607,0.000000,1.232180,0.000000,0.000000,0.000000,0.000000,0.000000
10.830000000,35.000092856,138.999462468,188.120393,0.341447,0.000000,18.584864,18.862502,0.341447,-88.947462,0.000000,-38.675366,0.000000,0.000000,0.000000,-1.029098,0.000000,1.222140,0.000000,0.000000,0.000000,0.000000,0.000000
10.840000000,35.000092880,138.999462446,187.934423,0.331376,0.000000,18.596986,18.871904,0.331376,-88.979167,0.000000,-36.802338,0.000000,0.000000,0.000000,-0.988908,0.000000,1.212175,0.000000,0.000000,0.000000,0.000000,0.000000
10.850000000,35.000092904,138.999462426,187.748333,0.321719,0.000000,18.609009,18.881234,0.321719,-89.009548,0.000000,-34.822621,0.000000,0.000000,0.000000,-0.945843,0.000000,1.202282,0.000000,0.000000,0.000000,0.000000,0.000000
10.860000000,35.000092927,138.999462407,187.562124,0.312508,0.000000,18.620933,18.890492,0.312508,-89.038517,0.000000,-32.732011,0.000000,0.000000,0.000000,-0.899717,0.000000,1.192463,0.000000,0.000000,0.000000,0.000000,0.000000
10.870000000,35.000092951,138.999462391,187.375796,0.303773,0.000000,18.632760,18.899678,0.303773,-89.065980,0.000000,-30.527006,0.000000,0.000000,0.000000,-0.850360,0.000000,1.182717,0.000000,0.000000,0.000000,0.000000,0.000000
10.880000000,35.000092974,138.999462375,187.189351,0.295547,0.000000,18.644491,18.908794,0.295547,-89.091839,0.000000,-28.205070,0.000000,0.000000,0.000000,-0.797626,0.000000,1.173043,0.000000,0.000000,0.000000,0.000000,0.000000
10.890000000,35.000092998,138.999462362,187.002790,0.287865,0.000000,18.656125,18.917839,0.287865,-89.115992,0.000000,-25.764927,0.000000,0.000000,0.000000,-0.741412,0.000000,1.163441,0.000000,0.000000,0.000000,0.000000,0.000000
10.900000000,35.000093021,138.999462349,186.816114,0.280762,0.000000,18.667664,18.926815,0.280762,-89.138336,0.000000,-23.206888,0.000000,0.000000,0.000000,-0.681666,0.000000,1.153910,0.000000,0.000000,0.000000,0.000000,0.000000
10.910000000,35.000093044,138.999462339,186.629322,0.274272,0.000000,18.679109,18.935721,0.274272,-89.158766,0.000000,-20.533173,0.000000,0.000000,0.000000,-0.618404,0.000000,1.144450,0.000000,0.000000,0.000000,0.000000,0.000000
10.920000000,35.000093067,138.999462330,186.442418,0.268431,0.000000,18.690459,18.944558,0.268431,-89.177179,0.000000,-17.748216,0.000000,0.000000,0.000000,-0.551727,0.000000,1.135061,0.000000,0.000000,0.000000,0.000000,0.000000
10.930000000,35.000093090,138.999462322,186.255401,0.263271,0.000000,18.701717,18.953327,0.263271,-89.193478,0.000000,-14.858925,0.000000,0.000000,0.000000,-0.481832,0.000000,1.125742,0.000000,0.000000,0.000000,0.000000,0.000000
10.940000000,35.000093113,138.999462317,186.068272,0.258824,0.000000,18.712882,18.962028,0.258824,-89.207573,0.000000,-11.874845,0.000000,0.000000,0.000000,-0.409022,0.000000,1.116493,0.000000,0.000000,0.000000,0.000000,0.000000
10.950000000,35.000093135,138.999462312,185.881032,0.255116,0.000000,18.723955,18.970661,0.255116,-89.219386,0.000000,-8.808202,0.000000,0.000000,0.000000,-0.333711,0.000000,1.107314,0.000000,0.000000,0.000000,0.000000,0.000000
10.960000000,35.000093158,138.999462310,185.693683,0.252171,0.000000,18.734937,18.979226,0.252171,-89.228851,0.000000,-5.673783,0.000000,0.000000,0.000000,-0.256421,0.000000,1.098203,0.000000,0.000000,0.000000,0.000000,0.000000
10.970000000,35.000093180,138.999462308,185.506225,0.250003,0.000000,18.745828,18.987725,0.250003,-89.235921,0.000000,-2.488646,0.000000,0.000000,0.000000,-0.177768,0.000000,1.089161,0.000000,0.000000,0.000000,0.000000,0.000000
10.980000000,35.000093202,138.999462309,185.318658,0.248625,0.000000,18.756630,18.996158,0.248625,-89.240571,0.000000,0.728355,0.000000,0.000000,0.000000,-0.098444,0.000000,1.080187,0.000000,0.000000,0.000000,0.000000,0.000000
10.990000000,35.000093225,138.999462311,185.130985,0.248038,0.000000,18.767343,19.004525,0.248038,-89.242795,0.000000,3.957194,0.000000,0.000000,0.000000,-0.019186,0.000000,1.071280,0.000000,0.000000,0.000000,0.000000,0.000000
11.000000000,35.000093247,138.999462314,184.943205,0.248239,0.000000,18.777968,19.012827,0.248239,-89.242611,0.000000,7.177396,0.000000,0.000000,0.000000,0.059256,0.000000,1.062441,0.000000,0.000000,0.000000,0.000000,0.000000
11.010000000,35.000093269,138.999462319,184.755320,0.249216,0.000000,18.788504,19.021064,0.249216,-89.240058,0.000000,10.368814,0.000000,0.000000,0.000000,0.136155,0.000000,1.053669,0.000000,0.000000,0.000000,0.000000,0.000000
11.020000000,35.000093291,138.999462325,184.567331,0.250949,0.000000,18.798954,19.029236,0.250949,-89.235198,0.000000,13.512366,0.000000,0.000000,0.000000,0.210840,0.000000,1.044964,0.000000,0.000000,0.000000,0.000000,0.000000
11.030000000,35.000093313,138.999462333,184.379237,0.253414,0.000000,18.809317,19.037344,0.253414,-89.228111,0.000000,16.590677,0.000000,0.000000,0.000000,0.282724,0.000000,1.036324,0.000000,0.000000,0.000000,0.000000,0.000000
11.040000000,35.000093334,138.999462343,184.191042,0.256581,0.000000,18.819595,19.045389,0.256581,-89.218895,0.000000,19.588582,0.000000,0.000000,0.000000,0.351320,0.000000,1.027750,0.000000,0.000000,0.000000,0.000000,0.000000
11.050000000,35.000093356,138.999462354,184.002744,0.260414,0.000000,18.829787,19.053370,0.260414,-89.207657,0.000000,22.493440,0.000000,0.000000,0.000000,0.416258,0.000000,1.019242,0.000000,0.000000,0.000000,0.000000,0.000000
11.060000000,35.000093377,138.999462366,183.814345,0.264875,0.000000,18.839895,19.061289,0.264875,-89.194516,0.000000,25.295285,0.000000,0.000000,0.000000,0.477283,0.000000,1.010798,0.000000,0.000000,0.000000,0.000000,0.000000
11.070000000,35.000093399,138.999462380,183.625846,0.269925,0.000000,18.849919,19.069145,0.269925,-89.179597,0.000000,27.986806,0.000000,0.000000,0.000000,0.534249,0.000000,1.002419,0.000000,0.000000,0.000000,0.000000,0.000000
11.080000000,35.000093420,138.999462395,183.437247,0.275524,0.000000,18.859860,19.076940,0.275524,-89.163026,0.000000,30.563194,0.000000,0.000000,0.000000,0.587106,0.000000,0.994104,0.000000,0.000000,0.000000,0.000000,0.000000
11.090000000,35.000093441,138.999462412,183.248550,0.281629,0.000000,18.869719,19.084673,0.281629,-89.144929,0.000000,33.021903,0.000000,0.000000,0.000000,0.635892,0.000000,0.985852,0.000000,0.000000,0.000000,0.000000,0.000000
11.100000000,35.000093462,138.999462430,183.059755,0.288201,0.000000,18.879495,19.092345,0.288201,-89.125431,0.000000,35.362345,0.000000,0.000000,0.000000,0.680709,0.000000,0.977664,0.000000,0.000000,0.000000,0.000000,0.000000
11.110000000,35.000093483,138.999462450,182.870863,0.295201,0.000000,18.889191,19.099956,0.295201,-89.104651,0.000000,37.585568,0.000000,0.000000,0.000000,0.721710,0.000000,0.969538,0.000000,0.000000,0.000000,0.000000,0.000000
11.120000000,35.000093504,138.999462471,182.681875,0.302592,0.000000,18.898806,19.107508,0.302592,-89.082705,0.000000,39.693931,0.000000,0.000000,0.000000,0.759087,0.000000,0.961475,0.000000,0.000000,0.000000,0.000000,0.000000
11.130000000,35.000093525,138.999462494,182.492791,0.310339,0.000000,18.908340,19.114999,0.310339,-89.059699,0.000000,41.690803,0.000000,0.000000,0.000000,0.793052,0.000000,0.953474,0.000000,0.000000,0.000000,0.000000,0.000000
11.140000000,35.000093546,138.999462518,182.303613,0.318409,0.000000,18.917796,19.122431,0.318409,-89.035736,0.000000,43.580294,0.000000,0.000000,0.000000,0.823833,0.000000,0.945535,0.000000,0.000000,0.000000,0.000000,0.000000
