time_sec,lat_deg,lon_deg,alt_agl_m,u_mps,v_mps,w_mps,true_airspeed_mps,ground_speed_mps,pitch_deg,roll_deg,yaw_deg,p_rad_sec,q_rad_sec,r_rad_sec,ax_mps2,ay_mps2,az_mps2,alpha_deg,beta_deg,qbar_pa,thrust_n,mach
0.001000000,40.242865000,140.010450000,0.000000,0.000000,0.000000,0.000000,0.603372,0.000000,75.000000,0.000000,279.000000,0.000000,0.000000,0.000000,-9.443100,0.000000,0.000000,0.000000,0.000000,0.000000,0.622109,0.000000
0.012000000,40.242865000,140.010450000,0.000000,0.000000,0.000000,0.000000,0.603372,0.000000,75.000000,0.000000,279.000000,0.000000,0.000000,0.000000,-9.381369,0.000000,0.000000,0.000000,0.000000,0.000000,1.928539,0.000000
0.023000000,40.242865000,140.010450000,0.000000,0.000000,0.000000,0.000000,0.603372,0.000000,75.000000,0.000000,279.000000,0.000000,0.000000,0.000000,-7.802795,0.000000,0.000000,0.000000,0.000000,0.000000,35.335812,0.000000
0.034000000,40.242865000,140.010450000,0.000000,0.000000,0.000000,0.000000,0.603372,0.000000,75.000000,0.000000,279.000000,0.000000,0.000000,0.000000,-3.234503,0.000000,0.000000,0.000000,0.000000,0.000000,132.011607,0.000000
0.045000000,40.242865000,140.010450000,0.000000,0.000000,0.000000,0.000000,0.603372,0.000000,75.000000,0.000000,279.000000,0.000000,0.000000,0.000000,-1.076480,0.000000,0.000000,0.000000,0.000000,0.000000,177.674432,0.000000
0.056000000,40.242865000,140.010450000,0.000016,0.006722,0.000000,0.000000,0.596650,0.001740,75.000000,0.000000,279.000000,0.000000,0.000000,0.000000,1.669819,0.000000,0.000000,0.000000,0.000000,0.000000,235.779442,0.000000
0.067000000,40.242865000,140.010449999,0.000246,0.042223,0.000000,0.000000,0.561149,0.010928,75.000000,0.000000,279.000000,0.000000,0.000000,0.000000,4.716470,0.000000,0.000000,0.000000,0.000000,0.000000,300.229980,0.000000
0.078000000,40.242865000,140.010449997,0.001051,0.116657,0.000000,0.000000,0.486716,0.030193,75.000000,0.000000,279.000000,0.000000,0.000000,0.000000,8.640024,0.000000,0.000000,0.000000,0.000000,0.000000,383.219366,0.000000
0.089000000,40.242865001,140.010449991,0.002871,0.230162,0.000000,0.000000,0.373210,0.059570,75.000000,0.000000,279.000000,0.000000,0.000000,0.000000,11.341309,0.000000,0.000000,0.000000,0.000000,0.000000,440.328992,0.000000
0.100000000,40.242865002,140.010449981,0.006030,0.368799,0.000000,0.000000,0.234573,0.095452,75.000000,0.000000,279.000000,0.000000,0.000000,0.000000,13.690486,0.000000,0.000000,0.000000,0.000000,0.000000,489.973325,0.000000
0.111000000,40.242865004,140.010449966,0.010820,0.539276,0.000000,0.000000,0.064096,0.139575,75.000000,0.000000,279.000000,0.000000,0.000000,0.000000,17.087652,0.000000,0.000000,0.000000,0.000000,0.000000,561.764771,0.000000
0.122000000,40.242865007,140.010449945,0.017641,0.751928,0.000000,0.000000,0.148556,0.194613,75.000000,0.000000,279.000000,0.000000,0.000000,0.000000,21.048102,0.000000,0.000000,0.000000,0.000000,0.000000,645.438427,0.000000
0.133000000,40.242865010,140.010449916,0.026907,0.996364,0.000000,0.000000,0.392991,0.257878,75.000000,0.000000,279.000000,0.000000,0.000000,0.000000,23.327274,0.000000,0.000000,0.000000,0.000000,0.000000,693.527502,0.000000
0.144000000,40.242865015,140.010449879,0.038926,1.272612,0.000000,0.000000,0.669240,0.329376,75.000000,0.000000,279.000000,0.000000,0.000000,0.000000,27.055473,0.000000,0.000000,0.000000,0.000000,0.000000,772.224341,0.000000
0.155000000,40.242865020,140.010449831,0.054151,1.602863,0.000000,0.000000,0.999490,0.414851,75.000000,0.000000,279.000000,0.000000,0.000000,0.000000,32.351759,0.000000,0.000000,0.000000,0.000000,0.000000,884.017419,0.000000
0.166000000,40.242865028,140.010449772,0.073181,1.988371,0.000000,0.000000,1.384999,0.514628,75.000000,0.000000,279.000000,0.000000,0.000000,0.000000,37.365758,0.000000,0.000000,0.000000,0.000000,0.000000,989.775971,0.000000
0.177000000,40.242865036,140.010449699,0.096590,2.422208,0.000000,0.000000,1.818836,0.626914,75.000000,0.000000,279.000000,0.000000,0.000000,0.000000,40.174677,0.000000,0.000000,0.000000,0.000000,0.000000,1048.876318,0.000000
0.188000000,40.242865047,140.010449612,0.124691,2.868735,0.000000,0.000000,2.265362,0.742483,75.000000,0.000000,279.000000,0.000000,0.000000,0.000000,40.914702,0.000000,0.000000,0.000000,0.000000,0.000000,1064.242444,0.000000
0.199000000,40.242865059,140.010449509,0.157592,3.327729,0.000000,0.000000,2.724357,0.861280,75.000000,0.000000,279.000000,0.000000,0.000000,0.000000,42.668847,0.000000,0.000000,0.000000,0.000000,0.000000,1101.009106,0.000000
0.210000000,40.242865074,140.010449391,0.195474,3.804436,0.000000,0.000000,3.201064,0.984660,75.000000,0.000000,279.000000,0.000000,0.000000,0.000000,43.708237,0.000000,0.000000,0.000000,0.000000,0.000000,1122.658545,0.000000
0.221000000,40.242865090,140.010449257,0.238493,4.297439,0.000000,0.000000,3.694067,1.112259,75.000000,0.000000,279.000000,0.000000,0.000000,0.000000,45.856906,0.000000,0.000000,0.000000,0.000000,0.000000,1167.699219,0.000000
0.232000000,40.242865108,140.010449107,0.286841,4.803842,0.000000,0.000000,4.200469,1.243326,75.000000,0.000000,279.000000,0.000000,0.000000,0.000000,46.296965,0.000000,0.000000,0.000000,0.000000,0.000000,1176.657605,0.000000
0.243000000,40.242865128,140.010448939,0.340628,5.323581,0.000000,0.000000,4.720209,1.377844,75.000000,0.000000,279.000000,0.000000,0.000000,0.000000,47.976333,0.000000,0.000000,0.000000,0.000000,0.000000,1211.744556,0.000000
0.254000000,40.242865151,140.010448754,0.400023,5.858678,0.000000,0.000000,5.255306,1.516338,75.000000,0.000000,279.000000,0.000000,0.000000,0.000000,49.090634,0.000000,0.000000,0.000000,0.000000,0.000000,1234.887061,0.000000
0.265000000,40.242865175,140.010448551,0.465157,6.403265,0.000000,0.000000,5.799893,1.657287,75.000000,0.000000,279.000000,0.000000,0.000000,0.000000,49.993359,0.000000,0.000000,0.000000,0.000000,0.000000,1253.550318,0.000000
0.276000000,40.242865202,140.010448330,0.536144,6.960959,0.000000,0.000000,6.357587,1.801629,75.000000,0.000000,279.000000,0.000000,0.000000,0.000000,51.265976,0.000000,0.000000,0.000000,0.000000,0.000000,1279.989990,0.000000
0.287000000,40.242865231,140.010448090,0.613126,7.531091,0.000000,0.000000,6.927719,1.949190,75.000000,0.000000,279.000000,0.000000,0.000000,0.000000,52.167648,0.000000,0.000000,0.000000,0.000000,0.000000,1298.591064,0.000000
0.298000000,40.242865262,140.010447832,0.696207,8.108258,0.000000,0.000000,7.504886,2.098572,75.000000,0.000000,279.000000,0.000000,0.000000,0.000000,52.680168,0.000000,0.000000,0.000000,0.000000,0.000000,1308.980273,0.000000
0.309000000,40.242865296,140.010447554,0.785453,8.692626,0.000000,0.000000,8.089254,2.249817,75.000000,0.000000,279.000000,0.000000,0.000000,0.000000,53.618692,0.000000,0.000000,0.000000,0.000000,0.000000,1328.327881,0.000000
0.320000000,40.242865332,140.010447256,0.880973,9.289318,0.000000,0.000000,8.685946,2.404252,75.000000,0.000000,279.000000,0.000000,0.000000,0.000000,54.770969,0.000000,0.000000,0.000000,0.000000,0.000000,1352.154651,0.000000
0.331000000,40.242865370,140.010446939,0.982878,9.892411,0.000000,0.000000,9.289039,2.560344,75.000000,0.000000,279.000000,0.000000,0.000000,0.000000,54.776999,0.000000,0.000000,0.000000,0.000000,0.000000,1351.843628,0.000000
0.342000000,40.242865411,140.010446601,1.091216,10.502501,0.000000,0.000000,9.899128,2.718247,75.000000,0.000000,279.000000,0.000000,0.000000,0.000000,56.034294,0.000000,0.000000,0.000000,0.000000,0.000000,1377.847779,0.000000
0.353000000,40.242865454,140.010446243,1.206109,11.125807,0.000000,0.000000,10.522434,2.879571,75.000000,0.000000,279.000000,0.000000,0.000000,0.000000,56.878607,0.000000,0.000000,0.000000,0.000000,0.000000,1395.142407,0.000000
0.364000000,40.242865500,140.010445865,1.327625,11.746171,0.000000,0.000000,11.142798,3.040133,75.000000,0.000000,279.000000,0.000000,0.000000,0.000000,56.267283,0.000000,0.000000,0.000000,0.000000,0.000000,1381.829309,0.000000
0.375000000,40.242865548,140.010445466,1.455729,12.368095,0.000000,0.000000,11.764723,3.201099,75.000000,0.000000,279.000000,0.000000,0.000000,0.000000,56.792441,0.000000,0.000000,0.000000,0.000000,0.000000,1392.405175,0.000000
0.386000000,40.242865599,140.010445046,1.590473,12.995442,0.000000,0.000000,12.392069,3.363468,75.000000,0.000000,279.000000,0.000000,0.000000,0.000000,57.060451,0.000000,0.000000,0.000000,0.000000,0.000000,1397.568664,0.000000
0.397000000,40.242865652,140.010444606,1.731887,13.624005,0.000000,0.000000,13.020633,3.526152,75.000000,0.000000,279.000000,0.000000,0.000000,0.000000,57.417548,0.000000,0.000000,0.000000,0.000000,0.000000,1404.598511,0.000000
0.408000000,40.242865708,140.010444145,1.880011,14.257825,0.000000,0.000000,13.654453,3.690197,75.000000,0.000000,279.000000,0.000000,0.000000,0.000000,57.588335,0.000000,0.000000,0.000000,0.000000,0.000000,1407.709033,0.000000
0.419000000,40.242865766,140.010443662,2.034878,14.895168,0.000000,0.000000,14.291796,3.855153,75.000000,0.000000,279.000000,0.000000,0.000000,0.000000,58.506403,0.000000,0.000000,0.000000,0.000000,0.000000,1426.496753,0.000000
0.430000000,40.242865827,140.010443159,2.196569,15.539635,0.000000,0.000000,14.936263,4.021953,75.000000,0.000000,279.000000,0.000000,0.000000,0.000000,58.419989,0.000000,0.000000,0.000000,0.000000,0.000000,1424.194970,0.000000
0.441000000,40.242865891,140.010442634,2.365097,16.183275,0.000000,0.000000,15.579903,4.188540,75.000000,0.000000,279.000000,0.000000,0.000000,0.000000,58.642002,0.000000,0.000000,0.000000,0.000000,0.000000,1428.363037,0.000000
0.452000000,40.242865957,140.010442088,2.540470,16.827056,0.000000,0.000000,16.223684,4.355163,75.000000,0.000000,279.000000,0.000000,0.000000,0.000000,58.386386,0.000000,0.000000,0.000000,0.000000,0.000000,1422.515235,0.000000
0.463000000,40.242866025,140.010441520,2.722656,17.465295,0.000000,0.000000,16.861923,4.520351,75.000000,0.000000,279.000000,0.000000,0.000000,0.000000,57.993859,0.000000,0.000000,0.000000,0.000000,0.000000,1413.805689,0.000000
0.474000000,40.242866096,140.010440931,2.911644,18.109619,0.000000,0.000000,17.506247,4.687114,75.000000,0.000000,279.000000,0.000000,0.000000,0.000000,58.661398,0.000000,0.000000,0.000000,0.000000,0.000000,1427.305518,0.000000
0.485000000,40.242866170,140.010440322,3.107471,18.750508,0.000000,0.000000,18.147136,4.852989,75.000000,0.000000,279.000000,0.000000,0.000000,0.000000,58.200435,0.000000,0.000000,0.000000,0.000000,0.000000,1417.165064,0.000000
0.496000000,40.242866246,140.010439690,3.310106,19.391876,0.000000,0.000000,18.788504,5.018987,75.000000,0.000000,279.000000,0.000000,0.000000,0.000000,58.238404,0.000000,0.000000,0.000000,0.000000,0.000000,1417.476135,0.000000
0.507000000,40.242866325,140.010439038,3.519545,20.030979,0.000000,0.000000,19.427606,5.184399,75.000000,0.000000,279.000000,0.000000,0.000000,0.000000,58.044455,0.000000,0.000000,0.000000,0.000000,0.000000,1412.934765,0.000000
0.518000000,40.242866407,140.010438365,3.735775,20.671848,0.000000,0.000000,20.068475,5.350268,75.000000,0.000000,279.000000,0.000000,0.000000,0.000000,58.677098,0.000000,0.000000,0.000000,0.000000,0.000000,1425.688013,0.000000
0.529000000,40.242866491,140.010437670,3.958859,21.319774,0.000000,0.000000,20.716402,5.517964,75.000000,0.000000,279.000000,0.000000,0.000000,0.000000,58.882033,0.000000,0.000000,0.000000,0.000000,0.000000,1429.482910,0.000000
0.540000000,40.242866577,140.010436954,4.188811,21.962547,0.000000,0.000000,21.359175,5.684325,75.000000,0.000000,279.000000,0.000000,0.000000,0.000000,57.917482,0.000000,0.000000,0.000000,0.000000,0.000000,1408.828833,0.000000
0.551000000,40.242866666,140.010436216,4.425546,22.598598,0.000000,0.000000,21.995226,5.848948,75.000000,0.000000,279.000000,0.000000,0.000000,0.000000,57.833170,0.000000,0.000000,0.000000,0.000000,0.000000,1406.589233,0.000000
0.562000000,40.242866758,140.010435458,4.669050,23.237449,0.000000,0.000000,22.634076,6.014294,75.000000,0.000000,279.000000,0.000000,0.000000,0.000000,58.275936,0.000000,0.000000,0.000000,0.000000,0.000000,1415.360962,0.000000
0.570000000,40.242866826,140.010434893,4.850420,23.704911,0.000000,0.000000,23.101546,6.135283,75.000000,0.000000,279.000000,0.000000,0.000000,0.000000,58.554900,0.000000,0.000000,0.000000,0.000000,0.000000,1420.835571,0.000000
0.581000000,40.242866930,140.010434096,5.105285,24.314358,-0.000071,0.027879,25.215472,6.319949,74.999997,0.000015,279.000016,-0.000000,-0.000056,0.000073,58.495534,-0.022042,2.522502,5.227373,7.105927,389.251770,0.000000,0.074103
0.592000000,40.242867037,140.010433275,5.366922,24.956176,-0.000350,0.055598,25.852335,6.512878,74.999903,0.000474,279.000489,-0.000000,-0.000266,0.000343,58.301749,-0.029317,2.516711,5.158445,6.929380,409.152334,0.000000,0.075975
0.603000000,40.242867148,140.010432428,5.635302,25.599488,-0.000711,0.083250,26.490943,6.706189,74.999674,0.001574,279.001628,-0.000000,-0.000483,0.000619,58.725080,-0.037079,2.510457,5.092442,6.760753,429.604773,0.000000,0.077852
0.614000000,40.242867261,140.010431557,5.910468,26.247789,-0.001160,0.110832,27.134736,6.900789,74.999306,0.003333,279.003448,-0.000000,-0.000709,0.000903,58.730806,-0.045348,2.503715,5.028504,6.598661,450.727443,0.000000,0.079745
0.625000000,40.242867378,140.010430661,6.192413,26.889667,-0.001703,0.138336,27.772408,7.093726,74.998794,0.005764,279.005965,-0.000000,-0.000942,0.001193,58.419963,-0.054117,2.496481,4.968559,6.445361,472.147976,0.000000,0.081619
0.636000000,40.242867498,140.010429741,6.481107,27.533027,-0.002345,0.165759,28.411765,7.287048,74.998131,0.008884,279.009194,-0.000000,-0.001185,0.001489,58.108616,-0.063409,2.488729,4.910909,6.298405,494.123401,0.000000,0.083498
0.647000000,40.242867621,140.010428795,6.776517,28.169165,-0.003092,0.193093,29.044170,7.478503,74.997314,0.012708,279.013152,-0.000000,-0.001435,0.001792,57.883473,-0.073214,2.480455,4.856861,6.159224,516.350518,0.000000,0.085357
0.658000000,40.242867747,140.010427825,7.078615,28.807592,-0.003949,0.220334,29.679028,7.670555,74.996336,0.017249,279.017853,-0.000000,-0.001694,0.002101,58.207741,-0.083561,2.471627,4.804584,6.025291,539.154749,0.000000,0.087223
0.669000000,40.242867876,140.010426831,7.387434,29.448803,-0.004923,0.247474,30.316822,7.863334,74.995192,0.022524,279.023313,-0.000000,-0.001962,0.002416,58.334814,-0.094468,2.462221,4.753887,5.896199,562.559608,0.000000,0.089098
0.680000000,40.242868008,140.010425812,7.702987,30.089145,-0.006020,0.274508,30.953920,8.055897,74.993877,0.028546,279.029548,-0.000000,-0.002239,0.002738,58.055162,-0.105934,2.452224,4.705231,5.772354,586.434298,0.000000,0.090970
0.691000000,40.242868144,140.010424768,8.025251,30.727630,-0.007246,0.301429,31.589331,8.247988,74.992384,0.035331,279.036571,-0.000000,-0.002525,0.003067,57.963523,-0.117966,2.441623,4.658621,5.653592,610.738745,0.000000,0.092838
0.702000000,40.242868283,140.010423700,8.354199,31.360999,-0.008607,0.328231,32.219813,8.438767,74.990708,0.042892,279.044399,-0.000000,-0.002820,0.003401,57.452742,-0.130557,2.430409,4.614383,5.540142,635.341055,0.000000,0.094691
0.713000000,40.242868425,140.010422607,8.689800,31.997346,-0.010110,0.354905,32.853385,8.630332,74.988844,0.051244,279.053045,-0.000000,-0.003124,0.003742,58.117642,-0.143748,2.418539,4.571216,5.430303,660.552205,0.000000,0.096554
0.724000000,40.242868570,140.010421489,9.032109,32.637459,-0.011761,0.381446,33.490823,8.822889,74.986784,0.060401,279.062525,-0.000000,-0.003437,0.004089,58.148153,-0.157559,2.405985,4.528951,5.323764,686.411069,0.000000,0.098427
0.735000000,40.242868718,140.010420347,9.381132,33.274951,-0.013567,0.407845,34.125783,9.014786,74.984524,0.070377,279.072853,-0.000000,-0.003760,0.004443,57.624401,-0.171969,2.392742,4.488380,5.221337,712.661542,0.000000,0.100294
0.746000000,40.242868869,140.010419181,9.736810,33.905508,-0.015534,0.434094,34.753971,9.204908,74.982057,0.081186,279.084043,-0.000000,-0.004092,0.004802,57.207929,-0.186960,2.378768,4.449942,5.123397,739.115159,0.000000,0.102141
0.757000000,40.242869024,140.010417990,10.099099,34.535251,-0.017670,0.460187,35.381458,9.394841,74.979376,0.092841,279.096110,-0.000000,-0.004435,0.005168,57.393369,-0.202571,2.364047,4.412700,5.028875,766.019051,0.000000,0.103985
0.768000000,40.242869181,140.010416775,10.468016,35.168549,-0.019981,0.486113,36.012581,9.585721,74.976475,0.105355,279.109066,-0.000000,-0.004788,0.005540,57.758674,-0.218840,2.348534,4.375985,4.937267,793.562703,0.000000,0.105841
0.779000000,40.242869342,140.010415535,10.843612,35.809073,-0.022474,0.511864,36.650979,9.778502,74.973347,0.118742,279.122926,-0.000000,-0.005152,0.005918,58.834917,-0.235805,2.332176,4.339405,4.847581,821.917535,0.000000,0.107717
0.790000000,40.242869506,140.010414271,11.225962,36.449078,-0.025157,0.537431,37.288956,9.971180,74.969986,0.133014,279.137703,-0.000000,-0.005527,0.006301,57.247650,-0.253432,2.314987,4.303855,4.760742,850.749253,0.000000,0.109593
0.801000000,40.242869673,140.010412982,11.614955,37.078237,-0.028037,0.562804,37.916240,10.161078,74.966383,0.148185,279.153410,-0.000000,-0.005913,0.006691,57.273613,-0.271648,2.297017,4.270434,4.677862,879.580183,0.000000,0.111437
0.812000000,40.242869844,140.010411668,12.010580,37.714420,-0.031122,0.587976,38.550587,10.352835,74.962533,0.164267,279.170062,-0.000000,-0.006309,0.007087,58.116017,-0.290591,2.278127,4.237026,4.596546,909.222960,0.000000,0.113302
0.823000000,40.242870017,140.010410330,12.412898,38.350281,-0.034418,0.612935,39.184692,10.544547,74.958428,0.181273,279.187670,-0.000000,-0.006717,0.007489,57.481323,-0.310217,2.258336,4.204422,4.517593,939.343678,0.000000,0.115166
0.834000000,40.242870194,140.010408968,12.821855,38.980101,-0.037933,0.637672,39.812867,10.734734,74.954060,0.199214,279.206247,-0.000000,-0.007136,0.007897,57.482908,-0.330485,2.237669,4.173170,4.441513,969.664460,0.000000,0.117013
0.845000000,40.242870374,140.010407581,13.237455,39.616851,-0.041675,0.662177,40.448002,10.926765,74.949423,0.218103,279.225805,-0.000000,-0.007566,0.008310,57.781770,-0.351513,2.215997,4.141847,4.366732,1000.809420,0.000000,0.118880
0.856000000,40.242870557,140.010406170,13.659723,40.248985,-0.045652,0.686438,41.078613,11.117645,74.944508,0.237950,279.246357,-0.000000,-0.008008,0.008729,57.287088,-0.373209,2.193388,4.111613,4.294420,1032.217415,0.000000,0.120734
0.867000000,40.242870743,140.010404734,14.088610,40.879619,-0.049872,0.710446,41.707797,11.308188,74.939308,0.258768,279.267914,-0.000000,-0.008462,0.009154,57.579781,-0.395604,2.169795,4.082089,4.224117,1064.035810,0.000000,0.122584
0.878000000,40.242870933,140.010403274,14.524135,41.511778,-0.054341,0.734188,42.338558,11.499181,74.933816,0.280566,279.290487,-0.000000,-0.008927,0.009585,57.030155,-0.418737,2.145164,4.052935,4.155417,1096.416875,0.000000,0.124438
0.889000000,40.242871126,140.010401790,14.966257,42.138757,-0.059068,0.757655,42.964222,11.688886,74.928024,0.303357,279.314088,-0.000000,-0.009404,0.010021,57.184176,-0.442541,2.119539,4.024752,4.088886,1129.013296,0.000000,0.126278
0.900000000,40.242871322,140.010400281,15.414991,42.773596,-0.064061,0.780834,43.597763,11.880696,74.921923,0.327149,279.338727,-0.000000,-0.009893,0.010462,58.313489,-0.467165,2.092758,3.996273,4.023194,1162.505044,0.000000,0.128140
0.911000000,40.242871521,140.010398747,15.870420,43.410455,-0.069330,0.803713,44.233367,12.073098,74.915506,0.351952,279.364415,-0.000000,-0.010394,0.010910,57.377676,-0.492561,2.064848,3.968036,3.958850,1196.595703,0.000000,0.130009
0.922000000,40.242871723,140.010397189,16.332459,44.032240,-0.074880,0.826279,44.854020,12.261645,74.908766,0.377778,279.391161,-0.000000,-0.010908,0.011362,56.157878,-0.518527,2.035984,3.941523,3.897276,1230.356299,0.000000,0.131834
0.933000000,40.242871929,140.010395607,16.801010,44.656952,-0.080720,0.848523,45.477632,12.451027,74.901693,0.404633,279.418976,-0.000000,-0.011433,0.011820,57.323579,-0.545273,2.005947,3.915069,3.836775,1264.748857,0.000000,0.133668
0.944000000,40.242872138,140.010394001,17.276173,45.291191,-0.086859,0.870429,46.110772,12.642966,74.894279,0.432528,279.447867,-0.000000,-0.011971,0.012282,57.730351,-0.572896,1.974616,3.888103,3.776764,1300.150375,0.000000,0.135529
0.955000000,40.242872350,140.010392370,17.757994,45.924559,-0.093306,0.891985,46.743091,12.834760,74.886518,0.461470,279.477845,-0.000000,-0.012522,0.012750,57.410564,-0.601278,1.942086,3.861504,3.718072,1335.991073,0.000000,0.137389
0.966000000,40.242872565,140.010390714,18.246441,46.554116,-0.100068,0.913176,47.371656,13.025645,74.878399,0.491468,279.508917,-0.000000,-0.013085,0.013223,57.054179,-0.630381,1.908375,3.835479,3.660861,1372.099058,0.000000,0.139237
0.977000000,40.242872784,140.010389035,18.741471,47.179460,-0.107155,0.933991,47.996067,13.215519,74.869914,0.522529,279.541092,-0.000000,-0.013661,0.013701,56.612878,-0.660196,1.873473,3.810016,3.605081,1408.442036,0.000000,0.141073
0.988000000,40.242873006,140.010387331,19.243038,47.801788,-0.114573,0.954416,48.617512,13.404699,74.861056,0.554660,279.574377,-0.000000,-0.014249,0.014184,56.702367,-0.690737,1.837346,3.784976,3.550563,1445.081077,0.000000,0.142900
0.999000000,40.242873231,140.010385602,19.751150,48.428047,-0.122331,0.974436,49.242906,13.595001,74.851815,0.587868,279.608778,-0.000000,-0.014850,0.014672,57.199379,-0.722112,1.799863,3.759793,3.496750,1482.425649,0.000000,0.144739
1.010000000,40.242873460,140.010383850,20.265856,49.058412,-0.130438,0.994037,49.872427,13.786480,74.842183,0.622159,279.644303,-0.000000,-0.015464,0.015164,57.376417,-0.754335,1.760984,3.734445,3.443605,1520.495371,0.000000,0.146591
1.021000000,40.242873691,140.010382073,20.787148,49.680719,-0.138904,1.013204,50.493953,13.975956,74.832152,0.657538,279.680957,-0.000000,-0.016091,0.015661,55.961094,-0.787214,1.720886,3.709823,3.391920,1558.551296,0.000000,0.148418
1.032000000,40.242873927,140.010380271,21.314926,50.299686,-0.147735,1.031923,51.112184,14.164670,74.821712,0.694011,279.718746,-0.000000,-0.016731,0.016162,56.442725,-0.820817,1.679482,3.685534,3.341303,1596.868711,0.000000,0.150236
1.043000000,40.242874165,140.010378446,21.849206,50.919799,-0.156940,1.050180,51.731585,14.353798,74.810855,0.731582,279.757675,-0.000000,-0.017383,0.016667,56.579906,-0.855219,1.636670,3.661226,3.291410,1635.722485,0.000000,0.152058
1.054000000,40.242874407,140.010376596,22.390019,51.547143,-0.166528,1.067957,52.358220,14.544941,74.799571,0.770254,279.797747,-0.000000,-0.018049,0.017177,57.091995,-0.890535,1.592304,3.636460,3.241835,1675.503107,0.000000,0.153901
1.065000000,40.242874652,140.010374722,22.937408,52.172047,-0.176508,1.085240,52.982453,14.735570,74.787853,0.810032,279.838968,-0.000000,-0.018728,0.017691,56.475791,-0.926600,1.546534,3.611905,3.193156,1715.602907,0.000000,0.155737
1.076000000,40.242874901,140.010372824,23.491309,52.789237,-0.186888,1.102012,53.599024,14.924304,74.775691,0.850919,279.881339,-0.000000,-0.019420,0.018209,55.731887,-0.963309,1.499453,3.587886,3.145637,1755.671724,0.000000,0.157550
1.087000000,40.242875152,140.010370901,24.051646,53.403632,-0.197676,1.118260,54.212836,15.112439,74.763077,0.892917,279.924864,-0.000000,-0.020124,0.018730,56.582904,-1.000743,1.450956,3.564037,3.098929,1796.016916,0.000000,0.159355
1.098000000,40.242875408,140.010368955,24.618483,54.025676,-0.208880,1.133965,54.834295,15.302724,74.750001,0.936027,279.969545,-0.000000,-0.020842,0.019256,55.786654,-1.039108,1.400792,3.539654,3.052408,1837.329536,0.000000,0.161183
1.109000000,40.242875666,140.010366984,25.191784,54.641888,-0.220510,1.149111,55.449964,15.491621,74.736454,0.980250,280.015383,-0.000000,-0.021573,0.019784,56.780316,-1.078138,1.349230,3.515604,3.006808,1878.716088,0.000000,0.162994
1.120000000,40.242875928,140.010364989,25.771590,55.262854,-0.232574,1.163682,56.070396,15.681921,74.722428,1.025588,280.062379,-0.000000,-0.022317,0.020317,55.871214,-1.118048,1.296009,3.491190,2.961517,1920.886326,0.000000,0.164819
1.131000000,40.242876194,140.010362970,26.357874,55.882145,-0.245080,1.177659,56.689178,15.871936,74.707913,1.072039,280.110533,-0.000000,-0.023074,0.020853,56.677235,-1.158703,1.241255,3.466808,2.916857,1963.406776,0.000000,0.166639
1.142000000,40.242876463,140.010360926,26.950679,56.506314,-0.258039,1.191026,57.312846,16.063400,74.692901,1.119604,280.159844,-0.000000,-0.023844,0.021392,56.755807,-1.200245,1.184783,3.442041,2.872468,2006.731105,0.000000,0.168473
1.153000000,40.242876735,140.010358858,27.550021,57.129254,-0.271458,1.203762,57.935309,16.254710,74.677382,1.168281,280.210312,-0.000000,-0.024627,0.021934,56.333697,-1.242542,1.126717,3.417250,2.828639,2050.439162,0.000000,0.170304
1.164000000,40.242877011,140.010356766,28.155848,57.744174,-0.285346,1.215853,58.549796,16.444075,74.661347,1.218067,280.261934,-0.000000,-0.025423,0.022479,55.789806,-1.285430,1.067224,3.392813,2.785667,2094.043605,0.000000,0.172111
1.175000000,40.242877291,140.010354649,28.768108,58.359760,-0.299709,1.227281,59.164966,16.633796,74.644788,1.268961,280.314709,-0.000000,-0.026232,0.023026,56.186403,-1.329093,1.006073,3.368196,2.743097,2138.152349,0.000000,0.173921
1.186000000,40.242877574,140.010352508,29.386835,58.977670,-0.314557,1.238028,59.782472,16.824318,74.627695,1.320959,280.368633,-0.000000,-0.027053,0.023577,55.690250,-1.373571,0.943192,3.343295,2.700835,2182.887377,0.000000,0.175737
1.197000000,40.242877860,140.010350343,30.011982,59.587677,-0.329897,1.248075,60.392114,17.012938,74.610060,1.374057,280.423702,-0.000000,-0.027888,0.024129,55.740508,-1.418606,0.878860,3.318668,2.659318,2227.501378,0.000000,0.177531
1.208000000,40.242878150,140.010348154,30.643538,60.201326,-0.345736,1.257406,61.005407,17.202722,74.591873,1.428249,280.479911,-0.000000,-0.028735,0.024684,55.535270,-1.464473,0.812736,3.293656,2.618008,2272.834544,0.000000,0.179335
1.219000000,40.242878444,140.010345941,31.281492,60.810386,-0.362084,1.266001,61.614140,17.391491,74.573125,1.483531,280.537255,-0.000000,-0.029594,0.025241,55.265942,-1.510955,0.745051,3.268695,2.577240,2318.276996,0.000000,0.181126
1.230000000,40.242878741,140.010343703,31.925815,61.419939,-0.378946,1.273843,62.223380,17.580600,74.553809,1.539896,280.595728,-0.000000,-0.030466,0.025800,55.616553,-1.558172,0.675642,3.243495,2.536777,2364.203531,0.000000,0.182918
1.241000000,40.242879042,140.010341442,32.576515,62.027016,-0.396332,1.280913,62.830167,17.769267,74.533915,1.597336,280.655322,-0.000000,-0.031350,0.026360,54.960431,-1.606037,0.604591,3.218199,2.496721,2410.387950,0.000000,0.184703
1.252000000,40.242879346,140.010339156,33.233571,62.639195,-0.414247,1.287192,63.442060,17.959519,74.513434,1.655845,280.716031,-0.000000,-0.032246,0.026923,55.977118,-1.654745,0.531641,3.192409,2.456755,2457.410200,0.000000,0.186503
1.263000000,40.242879654,140.010336846,33.897045,63.250198,-0.432703,1.292660,64.052797,18.149687,74.492358,1.715413,280.777845,-0.000000,-0.033154,0.027486,55.232030,-1.704122,0.456975,3.166436,2.417116,2504.791691,0.000000,0.188300
1.274000000,40.242879965,140.010334512,34.566877,63.856680,-0.451704,1.297298,64.659039,18.338885,74.470679,1.776031,280.840756,-0.000000,-0.034074,0.028050,55.302290,-1.754057,0.380712,3.140432,2.377908,2552.266096,0.000000,0.190084
1.285000000,40.242880281,140.010332154,35.243074,64.468601,-0.471259,1.301087,65.270723,18.529784,74.448388,1.837690,280.904753,-0.000000,-0.035005,0.028616,55.801782,-1.804823,0.302492,3.113898,2.338749,2600.615201,0.000000,0.191883
1.296000000,40.242880600,140.010329772,35.925686,65.082026,-0.491377,1.304006,65.883923,18.721338,74.425476,1.900379,280.969826,-0.000000,-0.035948,0.029182,55.515332,-1.856303,0.222433,3.087022,2.299777,2649.535058,0.000000,0.193688
1.307000000,40.242880923,140.010327365,36.614681,65.689754,-0.512063,1.306037,66.491455,18.911624,74.401936,1.964086,281.035964,-0.000000,-0.036903,0.029749,55.060928,-1.908267,0.140803,3.060130,2.261227,2698.445779,0.000000,0.195475
1.318000000,40.242881249,140.010324933,37.310018,66.298490,-0.533324,1.307160,67.100011,19.102448,74.377760,2.028798,281.103154,-0.000000,-0.037868,0.030316,55.971900,-1.960899,0.057354,3.032899,2.222852,2747.882654,0.000000,0.197266
1.329000000,40.242881579,140.010322478,38.011757,66.909804,-0.555168,1.307355,67.711154,19.294240,74.352938,2.094504,281.171383,-0.000001,-0.038845,0.030883,54.659860,-2.014237,-0.027989,3.005248,2.184591,2797.977057,0.000000,0.199064
1.340000000,40.242881914,140.010319998,38.719820,67.514445,-0.577600,1.306605,68.315656,19.484516,74.327464,2.161189,281.240637,-0.000001,-0.039832,0.031451,55.555741,-2.067968,-0.114746,2.977583,2.146730,2847.965064,0.000000,0.200843
1.351000000,40.242882252,140.010317494,39.434240,68.123976,-0.600628,1.304891,68.925053,19.676403,74.301331,2.228839,281.310903,-0.000001,-0.040827,0.032017,55.182505,-2.122438,-0.203254,2.949385,2.108891,2898.802194,0.000000,0.202636
1.362000000,40.242882593,140.010314965,40.154988,68.725187,-0.624256,1.302197,69.526166,19.866339,74.274531,2.297439,281.382164,-0.000001,-0.041830,0.032584,54.460883,-2.177201,-0.293023,2.921216,2.071467,2949.380775,0.000000,0.204405
1.373000000,40.242882939,140.010312413,40.882012,69.329929,-0.648490,1.298507,70.130819,20.057538,74.247061,2.366972,281.454404,-0.000001,-0.042840,0.033149,55.561671,-2.232625,-0.384535,2.892562,2.034088,3000.694406,0.000000,0.206184
1.384000000,40.242883289,140.010309835,41.615418,69.946605,-0.673339,1.293800,70.747403,20.252292,74.218913,2.437422,281.527607,-0.000001,-0.043858,0.033713,55.892977,-2.288990,-0.478176,2.863083,1.996515,3053.474844,0.000000,0.207999
1.395000000,40.242883642,140.010307233,42.355231,70.554916,-0.698809,1.288055,71.355657,20.445098,74.190083,2.508771,281.601755,-0.000001,-0.044882,0.034276,55.044885,-2.345591,-0.573043,2.833606,1.959321,3105.984516,0.000000,0.209789
1.406000000,40.242884000,140.010304607,43.101367,71.158980,-0.724903,1.281260,71.959691,20.637080,74.160564,2.581002,281.676830,-0.000001,-0.045913,0.034837,54.672842,-2.402537,-0.669281,2.803948,1.922372,3158.565576,0.000000,0.211566
1.417000000,40.242884361,140.010301956,43.853778,71.758193,-0.751626,1.273400,72.558903,20.828076,74.130353,2.654095,281.752813,-0.000001,-0.046950,0.035397,54.379890,-2.459776,-0.766829,2.774120,1.885669,3211.155470,0.000000,0.213330
1.428000000,40.242884727,140.010299281,44.612430,72.356308,-0.778980,1.264459,73.157038,21.019118,74.099445,2.728032,281.829683,-0.000001,-0.047992,0.035954,54.416868,-2.517414,-0.865835,2.743968,1.849100,3264.077649,0.000000,0.215090
1.439000000,40.242885097,140.010296582,45.377332,72.958019,-0.806971,1.254421,73.758785,21.211499,74.067834,2.802792,281.907422,-0.000001,-0.049040,0.036509,55.096187,-2.575602,-0.966513,2.713312,1.812542,3317.751405,0.000000,0.216862
1.450000000,40.242885470,140.010293858,46.148535,73.562460,-0.835605,1.243266,74.363280,21.404991,74.035518,2.878354,281.986007,-0.000001,-0.050093,0.037061,54.679856,-2.634291,-1.068813,2.682186,1.776014,3372.106070,0.000000,0.218641
1.461000000,40.242885848,140.010291110,46.926035,74.168688,-0.864886,1.230979,74.969583,21.599350,74.002491,2.954696,282.065418,-0.000001,-0.051150,0.037611,55.392843,-2.693427,-1.172673,2.650625,1.739540,3427.061423,0.000000,0.220425
1.472000000,40.242886230,140.010288336,47.709863,74.773183,-0.894820,1.217541,75.574180,21.793613,73.968751,3.031797,282.145630,-0.000001,-0.052211,0.038157,54.721634,-2.752853,-1.277888,2.618751,1.703195,3482.297487,0.000000,0.222205
1.483000000,40.242886616,140.010285539,48.499975,75.377021,-0.925410,1.202939,76.178147,21.988087,73.934293,3.109635,282.226623,-0.000001,-0.053276,0.038700,54.886140,-2.812579,-1.384482,2.586522,1.666948,3537.910237,0.000000,0.223983
1.494000000,40.242887007,140.010282716,49.296373,75.978741,-0.956657,1.187158,76.780025,22.182373,73.899115,3.188185,282.308371,-0.000001,-0.054344,0.039240,54.719538,-2.872521,-1.492344,2.553982,1.630826,3593.761576,0.000000,0.225754
1.505000000,40.242887401,140.010279869,50.099043,76.582063,-0.988566,1.170183,77.383530,22.377511,73.863214,3.267423,282.390851,-0.000001,-0.055415,0.039775,54.828435,-2.932796,-1.601644,2.521004,1.594742,3650.197231,0.000000,0.227531
1.516000000,40.242887800,140.010276997,50.907993,77.184375,-1.021138,1.152000,77.986056,22.572786,73.826587,3.347327,282.474038,-0.000001,-0.056488,0.040306,54.734739,-2.993273,-1.712205,2.487673,1.558750,3706.972837,0.000000,0.229305
1.527000000,40.242888204,140.010274101,51.723212,77.786004,-1.054377,1.132593,78.587929,22.768295,73.789232,3.427869,282.557906,-0.000001,-0.057563,0.040833,54.603876,-3.053933,-1.824009,2.453975,1.522836,3764.117377,0.000000,0.231076
1.538000000,40.242888611,140.010271179,52.544683,78.386004,-1.088284,1.111951,79.188207,22.963784,73.751148,3.509026,282.642430,-0.000001,-0.058639,0.041355,54.521774,-3.114704,-1.936958,2.419937,1.487015,3821.538068,0.000000,0.232844
1.549000000,40.242889023,140.010268233,53.372393,78.984683,-1.122861,1.090060,79.787198,23.159345,73.712333,3.590770,282.727582,-0.000001,-0.059716,0.041872,54.291967,-3.175565,-2.051025,2.385546,1.451277,3879.261505,0.000000,0.234607
1.560000000,40.242889440,140.010265262,54.206317,79.580392,-1.158106,1.066910,80.383257,23.354524,73.672786,3.673076,282.813337,-0.000001,-0.060793,0.042383,54.018763,-3.236410,-2.166061,2.350849,1.415646,3937.123281,0.000000,0.236362
1.571000000,40.242889861,140.010262266,55.046430,80.176227,-1.194021,1.042488,80.979477,23.550196,73.632506,3.755917,282.899666,-0.000001,-0.061870,0.042889,54.288826,-3.297335,-2.282205,2.315752,1.380064,3995.422162,0.000000,0.238117
1.582000000,40.242890286,140.010259246,55.892749,80.773189,-1.230608,1.016783,81.576859,23.746652,73.591493,3.839263,282.986541,-0.000001,-0.062945,0.043388,54.239148,-3.358350,-2.399477,2.280227,1.344511,4054.257949,0.000000,0.239876
1.593000000,40.242890716,140.010256200,56.745270,81.369327,-1.267865,0.989783,82.173457,23.943352,73.549747,3.923089,283.073934,-0.000001,-0.064020,0.043881,54.198375,-3.419336,-2.517707,2.244330,1.309020,4113.437830,0.000000,0.241633
1.604000000,40.242891150,140.010253130,57.603988,81.965676,-1.305793,0.961477,82.770306,24.140597,73.507269,4.007366,283.161815,-0.000001,-0.065092,0.044368,54.034225,-3.480301,-2.636908,2.208033,1.273573,4173.064504,0.000000,0.243390
1.615000000,40.242891589,140.010250035,58.468881,82.558300,-1.344391,0.931857,83.363475,24.337279,73.464059,4.092064,283.250157,-0.000001,-0.066162,0.044848,54.183542,-3.541031,-2.756764,2.171441,1.238228,4232.738941,0.000000,0.245137
1.626000000,40.242892033,140.010246914,59.339964,83.156636,-1.383658,0.900911,83.962394,24.536088,73.420118,4.177155,283.338928,-0.000001,-0.067228,0.045320,53.963172,-3.601914,-2.877852,2.134310,1.202844,4293.417523,0.000000,0.246901
1.637000000,40.242892482,140.010243769,60.217213,83.745488,-1.423591,0.868633,84.551883,24.732705,73.375449,4.262610,283.428098,-0.000001,-0.068291,0.045785,53.400907,-3.662217,-2.999080,2.097028,1.167640,4353.549025,0.000000,0.248636
1.648000000,40.242892935,140.010240599,61.100570,84.336187,-1.464187,0.835017,85.143264,24.930368,73.330054,4.348399,283.517639,-0.000001,-0.069349,0.046242,54.278943,-3.722414,-3.121148,2.059310,1.132453,4414.287242,0.000000,0.250378
1.659000000,40.242893392,140.010237404,61.990109,84.934081,-1.505447,0.800052,85.741883,25.130620,73.283934,4.434491,283.607517,-0.000001,-0.070402,0.046691,54.168348,-3.782721,-3.244387,2.021033,1.097215,4476.193863,0.000000,0.252141
1.670000000,40.242893855,140.010234183,62.885844,85.531628,-1.547368,0.763728,86.340205,25.331314,73.237094,4.520857,283.697704,-0.000001,-0.071449,0.047131,54.556538,-3.842750,-3.368214,1.982386,1.062030,4538.492350,0.000000,0.253903
1.681000000,40.242894323,140.010230937,63.787782,86.127483,-1.589949,0.726039,86.936890,25.532070,73.189537,4.607466,283.788167,-0.000001,-0.072490,0.047563,53.902891,-3.902393,-3.492460,1.943400,1.026915,4601.039861,0.000000,0.255660
1.692000000,40.242894795,140.010227666,64.695890,86.724093,-1.633183,0.686981,87.534383,25.733604,73.141267,4.694288,283.878875,-0.000001,-0.073524,0.047985,54.555736,-3.961722,-3.617232,1.904026,0.991842,4664.093356,0.000000,0.257420
1.703000000,40.242895272,140.010224369,65.610221,87.327031,-1.677070,0.646546,88.138256,25.937540,73.092288,4.781292,283.969796,-0.000001,-0.074550,0.048398,54.893965,-4.020966,-3.742883,1.864149,0.956752,4728.251930,0.000000,0.259198
1.714000000,40.242895755,140.010221047,66.530806,87.928845,-1.721607,0.604726,88.741064,26.141730,73.042605,4.868447,284.060899,-0.000001,-0.075568,0.048801,54.355873,-4.079725,-3.868792,1.823936,0.921730,4792.725240,0.000000,0.260974
1.725000000,40.242896242,140.010217698,67.457587,88.522302,-1.766786,0.561523,89.335582,26.344076,72.992223,4.955722,284.152152,-0.000001,-0.076577,0.049194,53.780214,-4.137589,-3.994313,1.783538,0.886852,4856.724962,0.000000,0.262725
1.736000000,40.242896735,140.010214325,68.390503,89.115087,-1.812598,0.516940,89.929489,26.546819,72.941149,5.043086,284.243522,-0.000001,-0.077576,0.049576,54.259695,-4.194885,-4.119940,1.742800,0.852038,4921.073617,0.000000,0.264474
1.747000000,40.242897233,140.010210925,69.329595,89.713792,-1.859039,0.470970,90.529377,26.751897,72.889390,5.130507,284.334978,-0.000001,-0.078564,0.049948,54.229400,-4.251896,-4.246114,1.701600,0.817229,4986.495863,0.000000,0.266242
1.758000000,40.242897736,140.010207500,70.274866,90.307674,-1.906103,0.423615,91.124511,26.956172,72.836951,5.217955,284.426487,-0.000001,-0.079541,0.050308,53.791076,-4.308038,-4.371906,1.660151,0.782528,5051.813917,0.000000,0.267995
1.769000000,40.242898244,140.010204049,71.226272,90.900729,-1.953781,0.374877,91.718887,27.160824,72.783841,5.305398,284.518017,-0.000001,-0.080506,0.050657,54.186524,-4.363459,-4.497537,1.618384,0.747900,5117.463391,0.000000,0.269746
1.780000000,40.242898757,140.010200572,72.183853,91.501743,-2.002067,0.324754,92.321288,27.368457,72.730067,5.392805,284.609536,-0.000001,-0.081459,0.050994,55.125827,-4.418559,-4.623640,1.576152,0.713279,5184.428788,0.000000,0.271520
1.791000000,40.242899276,140.010197069,73.147651,92.096245,-2.050955,0.273246,92.917252,27.574800,72.675639,5.480145,284.701011,-0.000001,-0.082397,0.051319,53.171021,-4.472550,-4.748945,1.533712,0.678783,5251.092457,0.000000,0.273276
1.802000000,40.242899800,140.010193540,74.117533,92.683067,-2.100429,0.220367,93.505613,27.779507,72.620565,5.567386,284.792410,-0.000001,-0.083322,0.051632,53.454332,-4.525311,-4.873233,1.491089,0.644420,5317.307912,0.000000,0.275009
1.813000000,40.242900329,140.010189986,75.093491,93.270742,-2.150480,0.166122,94.094903,27.985116,72.564855,5.654498,284.883702,-0.000001,-0.084231,0.051932,53.458986,-4.577229,-4.997109,1.448147,0.610131,5384.035159,0.000000,0.276746
1.824000000,40.242900864,140.010186405,76.075528,93.859298,-2.201098,0.110516,94.685150,28.191645,72.508520,5.741449,284.974853,-0.000001,-0.085124,0.052218,53.289902,-4.628253,-5.120480,1.404895,0.575919,5451.279172,0.000000,0.278485
1.835000000,40.242901404,140.010182799,77.063621,94.442897,-2.252271,0.053559,95.270522,28.397352,72.451570,5.828209,285.065832,-0.000002,-0.086001,0.052491,53.324924,-4.678024,-5.242741,1.361430,0.541827,5518.366006,0.000000,0.280209
1.846000000,40.242901950,140.010179166,78.057776,95.033963,-2.303987,-0.004743,95.863441,28.605977,72.394017,5.914747,285.156607,-0.000002,-0.086860,0.052750,53.879780,-4.727142,-5.364863,1.317583,0.507785,5586.732938,0.000000,0.281956
1.857000000,40.242902502,140.010175508,79.058045,95.624162,-2.356240,-0.064384,96.455575,28.815024,72.335873,6.001033,285.247146,-0.000002,-0.087701,0.052995,53.102327,-4.775116,-5.486027,1.273483,0.473849,5655.418930,0.000000,0.283701
1.868000000,40.242903059,140.010171823,80.064356,96.206262,-2.409011,-0.125349,97.039697,29.022308,72.277150,6.087037,285.337419,-0.000002,-0.088523,0.053226,53.092946,-4.821504,-5.605475,1.229236,0.440057,5723.569283,0.000000,0.285423
1.879000000,40.242903621,140.010168112,81.076694,96.792716,-2.462288,-0.187624,97.628259,29.231608,72.217862,6.172728,285.427393,-0.000002,-0.089325,0.053442,53.529585,-4.866912,-5.724195,1.184689,0.406355,5792.644612,0.000000,0.287157
1.890000000,40.242904190,140.010164375,82.095093,97.378689,-2.516058,-0.251200,98.216429,29.441463,72.158022,6.258077,285.517037,-0.000002,-0.090106,0.053643,52.905484,-4.911029,-5.841650,1.139915,0.372772,5862.077211,0.000000,0.288890
1.901000000,40.242904764,140.010160611,83.119513,97.962404,-2.570306,-0.316059,98.802431,29.651337,72.097645,6.343054,285.606322,-0.000002,-0.090865,0.053828,53.279743,-4.953702,-5.957561,1.094949,0.339319,5931.652802,0.000000,0.290617
1.912000000,40.242905344,140.010156821,84.149985,98.552941,-2.625019,-0.382190,99.395344,29.864020,72.036746,6.427631,285.695216,-0.000002,-0.091603,0.053997,53.908282,-4.995365,-6.072645,1.049701,0.305972,6002.463151,0.000000,0.292365
1.923000000,40.242905929,140.010153005,85.186559,99.144178,-2.680183,-0.449580,99.989050,30.077645,71.975339,6.511778,285.783689,-0.000002,-0.092317,0.054151,53.596249,-5.035633,-6.186234,1.004255,0.272761,6073.779225,0.000000,0.294115
1.934000000,40.242906521,140.010149161,86.229210,99.732063,-2.735782,-0.518210,100.579497,30.290972,71.913442,6.595467,285.871711,-0.000002,-0.093007,0.054288,53.258940,-5.074229,-6.297828,0.958664,0.239703,6145.107539,0.000000,0.295855
1.945000000,40.242907119,140.010145291,87.277898,100.316247,-2.791797,-0.588057,101.166341,30.503891,71.851070,6.678671,285.959254,-0.000002,-0.093672,0.054408,53.113841,-5.111073,-6.407265,0.912943,0.206803,6216.398389,0.000000,0.297585
1.956000000,40.242907723,140.010141395,88.332606,100.902524,-2.848209,-0.659098,101.755373,30.718204,71.788242,6.761360,286.046287,-0.000002,-0.094312,0.054512,53.639594,-5.146424,-6.514962,0.867053,0.174056,6288.359987,0.000000,0.299321
1.967000000,40.242908332,140.010137471,89.393388,101.495348,-2.905004,-0.731318,102.351048,30.935307,71.724975,6.843509,286.132782,-0.000002,-0.094926,0.054598,53.966306,-5.180467,-6.621234,0.820972,0.141464,6361.550380,0.000000,0.301077
1.978000000,40.242908949,140.010133520,90.460276,102.087409,-2.962165,-0.804696,102.946058,31.152934,71.661287,6.925090,286.218711,-0.000002,-0.095512,0.054666,53.546669,-5.212747,-6.725273,0.774780,0.109047,6435.069663,0.000000,0.302831
1.989000000,40.242909571,140.010129542,91.533230,102.674755,-3.019671,-0.879205,103.536453,31.369849,71.597197,7.006077,286.304045,-0.000002,-0.096071,0.054717,53.313291,-5.242987,-6.826563,0.728519,0.076817,6508.419674,0.000000,0.304571
2.000000000,40.242910199,140.010125536,92.612231,103.264982,-3.077500,-0.954817,104.129828,31.588440,71.532724,7.086444,286.388757,-0.000002,-0.096600,0.054750,54.093920,-5.271544,-6.925699,0.682152,0.044774,6582.550548,0.000000,0.306320
2.011000000,40.242910834,140.010121504,93.697337,103.860341,-3.135636,-1.031510,104.728434,31.809429,71.467890,7.166164,286.472820,-0.000002,-0.097101,0.054764,54.174351,-5.298484,-7.022776,0.635682,0.012927,6657.754685,0.000000,0.308085
2.022000000,40.242911475,140.010117443,94.788576,104.458027,-3.194060,-1.109259,105.329468,32.031943,71.402714,7.245214,286.556208,-0.000002,-0.097570,0.054759,54.248327,-5.323592,-7.117392,0.589147,-0.018713,6733.684345,0.000000,0.309857
2.033000000,40.242912123,140.010113355,95.885932,105.048074,-3.252748,-1.188032,105.922963,32.252820,71.337218,7.323567,286.638893,-0.000002,-0.098009,0.054736,53.032766,-5.346265,-7.208433,0.542620,-0.050139,6809.063239,0.000000,0.311607
2.044000000,40.242912777,140.010109240,96.989283,105.626289,-3.311671,-1.267784,106.504728,32.470713,71.271423,7.401201,286.720850,-0.000002,-0.098416,0.054693,52.639194,-5.366216,-7.295336,0.496134,-0.081348,6883.333185,0.000000,0.313322
2.055000000,40.242913438,140.010105097,98.098588,106.209388,-3.370804,-1.348479,107.091477,32.690952,71.205352,7.478092,286.802054,-0.000002,-0.098790,0.054631,52.983710,-5.384301,-7.379604,0.449623,-0.112324,6958.641870,0.000000,0.315052
2.066000000,40.242914105,140.010100926,99.213878,106.793295,-3.430125,-1.430085,107.679133,32.912242,71.139029,7.554216,286.882479,-0.000002,-0.099130,0.054549,53.796137,-5.400241,-7.460702,0.403126,-0.143059,7034.466533,0.000000,0.316785
2.077000000,40.242914779,140.010096728,100.335236,107.390733,-3.489614,-1.512574,108.280420,33.138688,71.072475,7.629551,286.962103,-0.000002,-0.099436,0.054447,54.302862,-5.414668,-7.539762,0.356617,-0.173526,7112.480236,0.000000,0.318558
2.088000000,40.242915459,140.010092502,101.462714,107.983119,-3.549250,-1.595914,108.876754,33.364312,71.005716,7.704074,287.040900,-0.000002,-0.099707,0.054325,53.162569,-5.426511,-7.614800,0.310184,-0.203741,7190.257140,0.000000,0.320316
2.099000000,40.242916147,140.010088247,102.596210,108.567373,-3.609001,-1.680055,109.465054,33.588110,70.938776,7.777764,287.118849,-0.000002,-0.099942,0.054183,53.388744,-5.435550,-7.685362,0.263852,-0.233703,7267.377399,0.000000,0.322051
2.110000000,40.242916841,140.010083965,103.735723,109.156871,-3.668841,-1.764956,110.058695,33.814419,70.871681,7.850601,287.195924,-0.000002,-0.100140,0.054020,53.770953,-5.442453,-7.752643,0.217605,-0.263375,7345.609220,0.000000,0.323802
2.121000000,40.242917542,140.010079654,104.881310,109.753332,-3.728746,-1.850582,110.659394,34.043814,70.804455,7.922563,287.272106,-0.000002,-0.100301,0.053836,54.487389,-5.447252,-7.816678,0.171464,-0.292743,7425.193950,0.000000,0.325573
2.132000000,40.242918250,140.010075315,106.033010,110.346110,-3.788691,-1.936891,111.256504,34.272823,70.737125,7.993631,287.347372,-0.000002,-0.100424,0.053631,53.436038,-5.449318,-7.876260,0.125470,-0.321821,7504.709970,0.000000,0.327334
2.143000000,40.242918965,140.010070947,107.190738,110.932498,-3.848645,-2.023828,111.844253,34.500551,70.669719,8.063785,287.421700,-0.000002,-0.100507,0.053405,53.293780,-5.448630,-7.930466,0.074876,-0.348450,7583.366700,0.000000,0.329068
2.154000000,40.242919686,140.010066551,108.354472,111.519796,-3.908579,-2.111337,112.432151,34.729397,70.602264,8.133010,287.495074,-0.000002,-0.100545,0.053160,53.364036,-5.445585,-7.979719,0.023214,-0.374217,7662.440450,0.000000,0.330802
2.165000000,40.242920415,140.010062127,109.524211,112.105568,-3.968466,-2.199361,113.018580,34.958558,70.534792,8.201291,287.567478,-0.000002,-0.100537,0.052895,53.184258,-5.439977,-8.023691,-0.028210,-0.399704,7741.709689,0.000000,0.332532
2.176000000,40.242921152,140.010057674,110.699933,112.689301,-4.028279,-2.287841,113.603023,35.187857,70.467334,8.268617,287.638898,-0.000002,-0.100484,0.052610,52.816761,-5.431735,-8.062176,-0.079370,-0.424904,7821.099710,0.000000,0.334256
2.187000000,40.242921895,140.010053192,111.881597,113.268700,-4.087987,-2.376715,114.183184,35.416529,70.399922,8.334973,287.709320,-0.000002,-0.100383,0.052306,52.718411,-5.420695,-8.094793,-0.130246,-0.449819,7900.288520,0.000000,0.335967
2.198000000,40.242922645,140.010048682,113.069191,113.850433,-4.147561,-2.465921,114.765726,35.646790,70.332588,8.400349,287.778730,-0.000002,-0.100234,0.051981,53.108399,-5.407160,-8.122058,-0.180804,-0.474412,7980.193743,0.000000,0.337686
2.209000000,40.242923403,140.010044144,114.262744,114.433802,-4.206974,-2.555400,115.349949,35.878410,70.265365,8.464733,287.847115,-0.000002,-0.100037,0.051636,52.812926,-5.391047,-8.143752,-0.231019,-0.498677,8060.721928,0.000000,0.339410
2.220000000,40.242924167,140.010039577,115.462231,115.012809,-4.266194,-2.645086,115.929850,36.109373,70.198286,8.528113,287.914463,-0.000002,-0.099791,0.051270,52.473711,-5.372006,-8.159127,-0.280876,-0.522630,8141.033320,0.000000,0.341121
2.231000000,40.242924939,140.010034981,116.667619,115.591042,-4.325191,-2.734909,116.509014,36.340879,70.131384,8.590480,287.980761,-0.000002,-0.099496,0.050885,52.664077,-5.350181,-8.168400,-0.330340,-0.546247,8221.624771,0.000000,0.342829
2.242000000,40.242925719,140.010030356,117.878917,116.171469,-4.383934,-2.824806,117.090405,36.573928,70.064694,8.651824,288.046000,-0.000002,-0.099151,0.050479,52.955060,-5.325681,-8.171722,-0.379376,-0.569504,8302.914743,0.000000,0.344545
2.253000000,40.242926506,140.010025702,119.096161,116.757606,-4.442395,-2.914710,117.677534,36.809715,69.998249,8.712135,288.110167,-0.000002,-0.098755,0.050052,53.359177,-5.298637,-8.169293,-0.427944,-0.592374,8385.407927,0.000000,0.346277
2.264000000,40.242927300,140.010021019,120.319382,117.343225,-4.500544,-3.004555,118.264167,37.046127,69.932084,8.771404,288.173253,-0.000002,-0.098308,0.049605,53.613387,-5.268695,-8.160356,-0.476036,-0.614877,8468.223204,0.000000,0.348008
2.275000000,40.242928102,140.010016307,121.548617,117.937888,-4.558351,-3.094273,118.859863,37.286427,69.866234,8.829624,288.235247,-0.000002,-0.097809,0.049137,53.632301,-5.236282,-8.145703,-0.523586,-0.636953,8552.734755,0.000000,0.349766
2.286000000,40.242928912,140.010011564,122.783857,118.520003,-4.615785,-3.183791,119.443025,37.523227,69.800734,8.886786,288.296140,-0.000002,-0.097258,0.048649,52.578555,-5.200305,-8.123097,-0.570657,-0.658709,8635.838203,0.000000,0.351487
2.297000000,40.242929729,140.010006793,124.024995,119.100188,-4.672806,-3.273024,120.024266,37.760149,69.735619,8.942882,288.355924,-0.000002,-0.096655,0.048140,53.348813,-5.161261,-8.093456,-0.617176,-0.680077,8719.049317,0.000000,0.353203
2.308000000,40.242930554,140.010001992,125.272087,119.687206,-4.729385,-3.361900,120.612341,38.000200,69.670926,8.997907,288.414590,-0.000002,-0.096000,0.047610,52.825567,-5.119533,-8.057493,-0.663070,-0.701000,8803.641916,0.000000,0.354938
2.319000000,40.242931386,140.009997162,126.525103,120.266770,-4.785487,-3.450341,121.192959,38.238451,69.606690,9.051853,288.472130,-0.000003,-0.095291,0.047060,52.783408,-5.074411,-8.013721,-0.708388,-0.721548,8887.533759,0.000000,0.356652
2.330000000,40.242932227,140.009992302,127.784007,120.844285,-4.841078,-3.538263,121.771519,38.476752,69.542947,9.104715,288.528537,-0.000003,-0.094529,0.046489,52.131912,-5.026130,-7.962551,-0.753072,-0.741683,8971.504884,0.000000,0.358359
2.341000000,40.242933075,140.009987412,129.048772,121.424041,-4.896121,-3.625586,122.352304,38.716586,69.479734,9.156487,288.583803,-0.000003,-0.093713,0.045898,53.219074,-4.974864,-7.904278,-0.797067,-0.761369,9056.184666,0.000000,0.360074
2.352000000,40.242933931,140.009982493,130.319471,122.011124,-4.950587,-3.712235,122.940393,38.959723,69.417086,9.207163,288.637922,-0.000003,-0.092844,0.045286,53.344772,-4.920808,-7.839254,-0.840312,-0.780564,9142.332821,0.000000,0.361810
2.363000000,40.242934795,140.009977544,131.596115,122.593608,-5.004442,-3.798129,123.523854,39.201995,69.355041,9.256739,288.690888,-0.000003,-0.091921,0.044654,52.640589,-4.863397,-7.766266,-0.882857,-0.799333,9228.181185,0.000000,0.363532
2.374000000,40.242935667,140.009972564,132.878636,123.171033,-5.057648,-3.883179,124.102222,39.443225,69.293634,9.305211,288.742694,-0.000003,-0.090944,0.044001,52.603848,-4.802602,-7.685198,-0.924677,-0.817672,9313.650362,0.000000,0.365240
2.385000000,40.242936547,140.009967555,134.167028,123.752851,-5.110170,-3.967301,124.684937,39.686718,69.232903,9.352574,288.793337,-0.000003,-0.089913,0.043328,53.093211,-4.738820,-7.596818,-0.965677,-0.835509,9400.152966,0.000000,0.366960
2.396000000,40.242937435,140.009962516,135.461336,124.337812,-5.161976,-4.050412,125.270745,39.932032,69.172883,9.398825,288.842810,-0.000003,-0.088828,0.042635,53.148736,-4.671970,-7.500913,-1.005836,-0.852843,9487.507459,0.000000,0.368689
2.407000000,40.242938331,140.009957446,136.761564,124.921021,-5.213029,-4.132429,125.854743,40.177430,69.113611,9.443961,288.891109,-0.000003,-0.087690,0.041923,52.823714,-4.601827,-7.396969,-1.045164,-0.869698,9574.974173,0.000000,0.370414
2.418000000,40.242939235,140.009952347,138.067669,125.498248,-5.263293,-4.213260,126.432696,40.421396,69.055124,9.487978,288.938230,-0.000003,-0.086497,0.041190,52.020211,-4.528214,-7.284563,-1.083669,-0.886094,9661.901616,0.000000,0.372120
2.429000000,40.242940147,140.009947217,139.379582,126.072834,-5.312730,-4.292812,127.007934,40.665099,68.997458,9.530875,288.984168,-0.000003,-0.085251,0.040438,52.777401,-4.451272,-7.163944,-1.121296,-0.902001,9748.788554,0.000000,0.373819
2.440000000,40.242941067,140.009942057,140.697349,126.654322,-5.361307,-4.371000,127.589993,40.911922,68.940649,9.572648,289.028921,-0.000003,-0.083952,0.039666,52.841655,-4.371374,-7.035855,-1.157935,-0.917341,9837.099396,0.000000,0.375537
2.451000000,40.242941996,140.009936867,142.020973,127.230422,-5.408987,-4.447737,128.166576,41.157471,68.884732,9.613296,289.072484,-0.000003,-0.082599,0.038876,52.051849,-4.288025,-6.899215,-1.193667,-0.932194,9924.943218,0.000000,0.377240
2.462000000,40.242942933,140.009931646,143.350400,127.807114,-5.455733,-4.522929,128.743654,41.403869,68.829745,9.652816,289.114855,-0.000003,-0.081194,0.038066,52.764240,-4.201466,-6.754494,-1.228411,-0.946509,10013.237645,0.000000,0.378944
2.473000000,40.242943878,140.009926395,144.685683,128.390192,-5.501513,-4.596491,129.327010,41.653184,68.775722,9.691209,289.156032,-0.000003,-0.079736,0.037237,53.165020,-4.111907,-6.602105,-1.262084,-0.960234,10102.886789,0.000000,0.380667
2.484000000,40.242944832,140.009921113,146.026861,128.974974,-5.546291,-4.668336,129.911956,41.903726,68.722698,9.728471,289.196011,-0.000003,-0.078226,0.036391,52.960333,-4.019166,-6.441628,-1.294705,-0.973397,10193.167413,0.000000,0.382395
2.495000000,40.242945794,140.009915800,147.373910,129.555197,-5.590032,-4.738372,130.492223,42.153224,68.670709,9.764603,289.234791,-0.000003,-0.076665,0.035525,52.936441,-3.923025,-6.272568,-1.326310,-0.986035,10283.094481,0.000000,0.384109
2.506000000,40.242946764,140.009910456,148.726826,130.139620,-5.632700,-4.806509,131.076560,42.404823,68.619788,9.799603,289.272370,-0.000003,-0.075053,0.034642,52.931910,-3.823808,-6.095589,-1.356785,-0.998077,10374.042940,0.000000,0.385835
2.517000000,40.242947743,140.009905082,150.085605,130.720068,-5.674259,-4.872656,131.656785,42.655551,68.569970,9.833471,289.308745,-0.000003,-0.073391,0.033742,52.830243,-3.721243,-5.910080,-1.386189,-1.009575,10464.720106,0.000000,0.387548
2.528000000,40.242948730,140.009899676,151.450227,131.300423,-5.714674,-4.936722,132.236771,42.906796,68.521289,9.866207,289.343917,-0.000003,-0.071679,0.032824,52.539388,-3.615486,-5.716351,-1.414456,-1.020493,10555.735848,0.000000,0.389262
2.539000000,40.242949726,140.009894240,152.820663,131.877175,-5.753909,-4.998613,132.813002,43.157263,68.473778,9.897810,289.377882,-0.000003,-0.069918,0.031889,52.391482,-3.506447,-5.514188,-1.441600,-1.030851,10646.525366,0.000000,0.390964
2.550000000,40.242950730,140.009888773,154.196890,132.453394,-5.791929,-5.058239,133.388538,43.408051,68.427469,9.928281,289.410641,-0.000003,-0.068109,0.030938,52.383354,-3.394254,-5.303852,-1.467564,-1.040619,10737.573692,0.000000,0.392664
2.561000000,40.242951743,140.009883275,155.578881,133.023330,-5.828698,-5.115509,133.957626,43.657037,68.382394,9.957620,289.442193,-0.000003,-0.066253,0.029971,51.331531,-3.278770,-5.085022,-1.492388,-1.049834,10827.948800,0.000000,0.394346
2.572000000,40.242952765,140.009877747,156.966549,133.587683,-5.864180,-5.170329,134.520955,43.904453,68.338584,9.985827,289.472536,-0.000003,-0.064352,0.028988,51.394388,-3.160068,-4.857847,-1.516043,-1.058485,10917.749772,0.000000,0.396010
2.583000000,40.242953795,140.009872188,158.359891,134.156603,-5.898341,-5.222611,135.088665,44.154000,68.296071,10.012903,289.501672,-0.000003,-0.062405,0.027990,52.018357,-3.038478,-4.623049,-1.538393,-1.066486,11008.617271,0.000000,0.397688
2.594000000,40.242954833,140.009866598,159.758963,134.730510,-5.931151,-5.272272,135.661168,44.405821,68.254884,10.038848,289.529599,-0.000003,-0.060414,0.026977,51.920718,-2.914030,-4.380693,-1.559411,-1.073827,11100.627125,0.000000,0.399380
2.605000000,40.242955880,140.009860978,161.163745,135.295232,-5.962575,-5.319225,136.224291,44.654681,68.215052,10.063663,289.556317,-0.000003,-0.058380,0.025950,50.784411,-2.786391,-4.129742,-1.579241,-1.080616,11191.459975,0.000000,0.401044
2.616000000,40.242956935,140.009855327,162.574124,135.854131,-5.992580,-5.363373,136.781389,44.901796,68.176605,10.087351,289.581828,-0.000003,-0.056301,0.024909,51.835903,-2.655722,-3.870246,-1.597819,-1.086819,11281.650316,0.000000,0.402690
2.627000000,40.242957999,140.009849645,163.990197,136.433399,-6.021135,-5.404631,137.358630,45.156822,68.139572,10.109912,289.606132,-0.000003,-0.054177,0.023854,52.776729,-2.522693,-3.603743,-1.614822,-1.092225,11375.520097,0.000000,0.404396
2.638000000,40.242959072,140.009843932,165.412058,137.008785,-6.048213,-5.442917,137.931772,45.410785,68.103983,10.131350,289.629232,-0.000003,-0.052010,0.022787,51.523476,-2.386741,-3.328955,-1.630513,-1.097023,11469.077606,0.000000,0.406090
2.649000000,40.242960153,140.009838188,166.839598,137.574209,-6.073779,-5.478137,138.494731,45.661405,68.069867,10.151666,289.651128,-0.000003,-0.049801,0.021707,51.622314,-2.247813,-3.045760,-1.644943,-1.101254,11561.298662,0.000000,0.407754
2.660000000,40.242961244,140.009832413,168.272799,138.143498,-6.097804,-5.510203,139.061321,45.913788,68.037250,10.170863,289.671823,-0.000003,-0.047552,0.020616,51.861211,-2.106281,-2.754987,-1.657929,-1.104806,11654.478337,0.000000,0.409429
2.671000000,40.242962342,140.009826607,169.711690,138.715900,-6.120260,-5.539032,139.630784,46.167639,68.006159,10.188944,289.691318,-0.000003,-0.045263,0.019514,52.237187,-1.962175,-2.456708,-1.669463,-1.107681,11748.495989,0.000000,0.411112
2.682000000,40.242963450,140.009820770,171.156310,139.293502,-6.141117,-5.564543,140.205200,46.423718,67.976620,10.205911,289.709617,-0.000003,-0.042937,0.018401,52.448413,-1.815586,-2.151125,-1.679504,-1.109860,11843.708228,0.000000,0.412810
2.693000000,40.242964566,140.009814902,172.606655,139.862987,-6.160348,-5.586654,140.771256,46.677043,67.948658,10.221767,289.726721,-0.000003,-0.040574,0.017278,51.659524,-1.666341,-1.837857,-1.688194,-1.111444,11937.866687,0.000000,0.414484
2.704000000,40.242965691,140.009809002,174.062672,140.437323,-6.177926,-5.605284,141.341907,46.932428,67.922294,10.236514,289.742632,-0.000003,-0.038178,0.016146,52.599560,-1.514749,-1.517628,-1.695363,-1.112329,12033.160363,0.000000,0.416171
2.715000000,40.242966825,140.009803071,175.524440,141.017602,-6.193824,-5.620356,141.918240,47.190266,67.897553,10.250157,289.757353,-0.000003,-0.035748,0.015005,52.665794,-1.360879,-1.190611,-1.700986,-1.112504,12129.783914,0.000000,0.417875
2.726000000,40.242967968,140.009797108,176.991964,141.594838,-6.208018,-5.631796,142.491271,47.447177,67.874454,10.262696,289.770886,-0.000003,-0.033287,0.013855,52.350756,-1.204669,-0.856688,-1.705156,-1.112039,12226.206394,0.000000,0.419569
2.737000000,40.242969120,140.009791114,178.465210,142.170559,-6.220482,-5.639529,143.062525,47.703711,67.853018,10.274137,289.783235,-0.000003,-0.030798,0.012699,52.436743,-1.046236,-0.516163,-1.707844,-1.110919,12322.683730,0.000000,0.421258
2.748000000,40.242970281,140.009785088,179.944184,142.749638,-6.231192,-5.643485,143.636869,47.961673,67.833263,10.284480,289.794401,-0.000003,-0.028281,0.011536,52.917556,-0.885727,-0.169415,-1.708982,-1.109105,12420.053877,0.000000,0.422956
2.759000000,40.242971450,140.009779031,181.428906,143.324778,-6.240126,-5.643595,144.207007,48.218305,67.815206,10.293730,289.804388,-0.000003,-0.025739,0.010367,51.220834,-0.723149,0.183505,-1.708646,-1.106654,12517.055962,0.000000,0.424642
2.770000000,40.242972629,140.009772942,182.919258,143.891703,-6.247262,-5.639791,144.768667,48.471978,67.798864,10.301889,289.813197,-0.000003,-0.023175,0.009192,52.173680,-0.558584,0.542341,-1.706879,-1.103597,12612.936943,0.000000,0.426303
2.781000000,40.242973816,140.009766823,184.415290,144.470858,-6.252578,-5.632014,145.342278,48.730350,67.784249,10.308961,289.820833,-0.000003,-0.020590,0.008013,52.967354,-0.392309,0.906382,-1.703431,-1.099777,12711.253264,0.000000,0.428000
