time_sec,lat_deg,lon_deg,alt_agl_m,u_mps,v_mps,w_mps,true_airspeed_mps,ground_speed_mps,pitch_deg,roll_deg,yaw_deg,p_rad_sec,q_rad_sec,r_rad_sec,ax_mps2,ay_mps2,az_mps2,alpha_deg,beta_deg,qbar_pa,thrust_n,mach
0.001000000,40.242865000,140.010450000,0.000000,0.000000,0.000000,0.000000,0.000000,0.000000,75.000000,0.000000,283.000000,0.000000,0.000000,0.000000,-9.443100,0.000000,0.000000,0.000000,0.000000,0.000000,0.622109,0.000000
0.011000000,40.242865000,140.010450000,0.000000,0.000000,0.000000,0.000000,0.000000,0.000000,75.000000,0.000000,283.000000,0.000000,0.000000,0.000000,-9.443100,0.000000,0.000000,0.000000,0.000000,0.000000,0.622109,0.000000
0.021000000,40.242865000,140.010450000,0.000000,0.000000,0.000000,0.000000,0.000000,0.000000,75.000000,0.000000,283.000000,0.000000,0.000000,0.000000,-8.825782,0.000000,0.000000,0.000000,0.000000,0.000000,13.686406,0.000000
0.031000000,40.242865000,140.010450000,0.000000,0.000000,0.000000,0.000000,0.000000,0.000000,75.000000,0.000000,283.000000,0.000000,0.000000,0.000000,-3.710777,0.000000,0.000000,0.000000,0.000000,0.000000,121.933434,0.000000
0.041000000,40.242865000,140.010450000,0.000000,0.000000,0.000000,0.000000,0.000000,0.000000,75.000000,0.000000,283.000000,0.000000,0.000000,0.000000,-2.123146,0.000000,0.000000,0.000000,0.000000,0.000000,155.527344,0.000000
0.051000000,40.242865000,140.010450000,0.000001,0.000726,0.000000,0.000000,0.000726,0.000188,75.000000,0.000000,283.000000,0.000000,0.000000,0.000000,0.493611,0.000000,0.000000,0.000000,0.000000,0.000000,210.895065,0.000000
0.061000000,40.242865000,140.010450000,0.000075,0.018600,0.000000,0.000000,0.018600,0.004814,75.000000,0.000000,283.000000,0.000000,0.000000,0.000000,2.846117,0.000000,0.000000,0.000000,0.000000,0.000000,260.663818,0.000000
0.071000000,40.242865000,140.010449999,0.000450,0.064206,0.000000,0.000000,0.064206,0.016618,75.000000,0.000000,283.000000,0.000000,0.000000,0.000000,5.963491,0.000000,0.000000,0.000000,0.000000,0.000000,326.607422,0.000000
0.081000000,40.242865001,140.010449996,0.001430,0.144871,0.000000,0.000000,0.144871,0.037495,75.000000,0.000000,283.000000,0.000000,0.000000,0.000000,9.787248,0.000000,0.000000,0.000000,0.000000,0.000000,407.481628,0.000000
0.091000000,40.242865002,140.010449990,0.003338,0.253428,0.000000,0.000000,0.253428,0.065592,75.000000,0.000000,283.000000,0.000000,0.000000,0.000000,11.729879,0.000000,0.000000,0.000000,0.000000,0.000000,448.540833,0.000000
0.101000000,40.242865003,140.010449980,0.006393,0.382708,0.000000,0.000000,0.382708,0.099052,75.000000,0.000000,283.000000,0.000000,0.000000,0.000000,13.908365,0.000000,0.000000,0.000000,0.000000,0.000000,494.576935,0.000000
0.111000000,40.242865006,140.010449967,0.010820,0.539276,0.000000,0.000000,0.539276,0.139575,75.000000,0.000000,283.000000,0.000000,0.000000,0.000000,17.087652,0.000000,0.000000,0.000000,0.000000,0.000000,561.764771,0.000000
0.121000000,40.242865009,140.010449948,0.016924,0.730880,0.000000,0.000000,0.730880,0.189166,75.000000,0.000000,283.000000,0.000000,0.000000,0.000000,20.856467,0.000000,0.000000,0.000000,0.000000,0.000000,641.394714,0.000000
0.131000000,40.242865014,140.010449923,0.025027,0.949986,0.000000,0.000000,0.949986,0.245875,75.000000,0.000000,283.000000,0.000000,0.000000,0.000000,22.773182,0.000000,0.000000,0.000000,0.000000,0.000000,681.831848,0.000000
0.141000000,40.242865019,140.010449891,0.035355,1.192957,0.000000,0.000000,1.192957,0.308760,75.000000,0.000000,283.000000,0.000000,0.000000,0.000000,25.544148,0.000000,0.000000,0.000000,0.000000,0.000000,740.310120,0.000000
0.151000000,40.242865026,140.010449852,0.048205,1.476109,0.000000,0.000000,1.476109,0.382045,75.000000,0.000000,283.000000,0.000000,0.000000,0.000000,30.582793,0.000000,0.000000,0.000000,0.000000,0.000000,846.690857,0.000000
0.161000000,40.242865035,140.010449803,0.064023,1.806262,0.000000,0.000000,1.806262,0.467495,75.000000,0.000000,283.000000,0.000000,0.000000,0.000000,35.005973,0.000000,0.000000,0.000000,0.000000,0.000000,940.007263,0.000000
0.171000000,40.242865045,140.010449744,0.083248,2.182281,0.000000,0.000000,2.182281,0.564816,75.000000,0.000000,283.000000,0.000000,0.000000,0.000000,39.726300,0.000000,0.000000,0.000000,0.000000,0.000000,1039.544678,0.000000
0.181000000,40.242865058,140.010449674,0.106260,2.583655,0.000000,0.000000,2.583655,0.668699,75.000000,0.000000,283.000000,0.000000,0.000000,0.000000,40.473697,0.000000,0.000000,0.000000,0.000000,0.000000,1055.097412,0.000000
0.191000000,40.242865072,140.010449591,0.133183,2.991857,0.000000,0.000000,2.991857,0.774350,75.000000,0.000000,283.000000,0.000000,0.000000,0.000000,41.103769,0.000000,0.000000,0.000000,0.000000,0.000000,1068.161743,0.000000
0.201000000,40.242865089,140.010449496,0.164103,3.413654,0.000000,0.000000,3.413654,0.883519,75.000000,0.000000,283.000000,0.000000,0.000000,0.000000,43.060255,0.000000,0.000000,0.000000,0.000000,0.000000,1109.220947,0.000000
0.211000000,40.242865108,140.010449388,0.199170,3.848216,0.000000,0.000000,3.848216,0.995992,75.000000,0.000000,283.000000,0.000000,0.000000,0.000000,43.780261,0.000000,0.000000,0.000000,0.000000,0.000000,1124.151611,0.000000
0.221000000,40.242865129,140.010449267,0.238493,4.297439,0.000000,0.000000,4.297439,1.112259,75.000000,0.000000,283.000000,0.000000,0.000000,0.000000,45.856906,0.000000,0.000000,0.000000,0.000000,0.000000,1167.699219,0.000000
0.231000000,40.242865153,140.010449133,0.282223,4.757545,0.000000,0.000000,4.757545,1.231343,75.000000,0.000000,283.000000,0.000000,0.000000,0.000000,46.136326,0.000000,0.000000,0.000000,0.000000,0.000000,1173.298218,0.000000
0.241000000,40.242865179,140.010448985,0.330436,5.227745,0.000000,0.000000,5.227745,1.353040,75.000000,0.000000,283.000000,0.000000,0.000000,0.000000,47.743276,0.000000,0.000000,0.000000,0.000000,0.000000,1206.892090,0.000000
0.251000000,40.242865208,140.010448822,0.383260,5.711588,0.000000,0.000000,5.711588,1.478268,75.000000,0.000000,283.000000,0.000000,0.000000,0.000000,48.908929,0.000000,0.000000,0.000000,0.000000,0.000000,1231.154419,0.000000
0.261000000,40.242865239,140.010448646,0.440803,6.204009,0.000000,0.000000,6.204009,1.605716,75.000000,0.000000,283.000000,0.000000,0.000000,0.000000,49.514779,0.000000,0.000000,0.000000,0.000000,0.000000,1243.596558,0.000000
0.271000000,40.242865272,140.010448454,0.503142,6.705738,0.000000,0.000000,6.705738,1.735573,75.000000,0.000000,283.000000,0.000000,0.000000,0.000000,50.711521,0.000000,0.000000,0.000000,0.000000,0.000000,1268.480957,0.000000
0.281000000,40.242865309,140.010448247,0.570385,7.218953,0.000000,0.000000,7.218953,1.868403,75.000000,0.000000,283.000000,0.000000,0.000000,0.000000,51.820662,0.000000,0.000000,0.000000,0.000000,0.000000,1291.499023,0.000000
0.291000000,40.242865348,140.010448025,0.642628,7.740341,0.000000,0.000000,7.740341,2.003348,75.000000,0.000000,283.000000,0.000000,0.000000,0.000000,52.399068,0.000000,0.000000,0.000000,0.000000,0.000000,1303.319092,0.000000
0.301000000,40.242865390,140.010447788,0.719932,8.266540,0.000000,0.000000,8.266540,2.139538,75.000000,0.000000,283.000000,0.000000,0.000000,0.000000,52.800690,0.000000,0.000000,0.000000,0.000000,0.000000,1311.406494,0.000000
0.311000000,40.242865434,140.010447535,0.802350,8.800170,0.000000,0.000000,8.800170,2.277652,75.000000,0.000000,283.000000,0.000000,0.000000,0.000000,53.823280,0.000000,0.000000,0.000000,0.000000,0.000000,1332.558228,0.000000
0.321000000,40.242865482,140.010447265,0.889972,9.344194,0.000000,0.000000,9.344194,2.418455,75.000000,0.000000,283.000000,0.000000,0.000000,0.000000,54.876313,0.000000,0.000000,0.000000,0.000000,0.000000,1354.332031,0.000000
0.331000000,40.242865532,140.010446980,0.982878,9.892411,0.000000,0.000000,9.892411,2.560344,75.000000,0.000000,283.000000,0.000000,0.000000,0.000000,54.776999,0.000000,0.000000,0.000000,0.000000,0.000000,1351.843628,0.000000
0.341000000,40.242865585,140.010446678,1.081098,10.446466,0.000000,0.000000,10.446466,2.703744,75.000000,0.000000,283.000000,0.000000,0.000000,0.000000,55.919944,0.000000,0.000000,0.000000,0.000000,0.000000,1375.483765,0.000000
0.351000000,40.242865641,140.010446360,1.184726,11.011957,0.000000,0.000000,11.011957,2.850104,75.000000,0.000000,283.000000,0.000000,0.000000,0.000000,57.063910,0.000000,0.000000,0.000000,0.000000,0.000000,1399.123901,0.000000
0.361000000,40.242865701,140.010446025,1.293832,11.577499,0.000000,0.000000,11.577499,2.996477,75.000000,0.000000,283.000000,0.000000,0.000000,0.000000,56.137059,0.000000,0.000000,0.000000,0.000000,0.000000,1379.216431,0.000000
0.371000000,40.242865763,140.010445673,1.408381,12.141257,0.000000,0.000000,12.141257,3.142389,75.000000,0.000000,283.000000,0.000000,0.000000,0.000000,56.571276,0.000000,0.000000,0.000000,0.000000,0.000000,1387.926025,0.000000
0.381000000,40.242865828,140.010445304,1.528399,12.710012,0.000000,0.000000,12.710012,3.289593,75.000000,0.000000,283.000000,0.000000,0.000000,0.000000,57.124337,0.000000,0.000000,0.000000,0.000000,0.000000,1399.123901,0.000000
0.391000000,40.242865896,140.010444918,1.653925,13.280552,0.000000,0.000000,13.280552,3.437260,75.000000,0.000000,283.000000,0.000000,0.000000,0.000000,56.996534,0.000000,0.000000,0.000000,0.000000,0.000000,1396.013428,0.000000
0.401000000,40.242865966,140.010444516,1.784971,13.854377,0.000000,0.000000,13.854377,3.585777,75.000000,0.000000,283.000000,0.000000,0.000000,0.000000,57.698351,0.000000,0.000000,0.000000,0.000000,0.000000,1410.321899,0.000000
0.411000000,40.242866040,140.010444096,1.921578,14.430496,0.000000,0.000000,14.430496,3.734887,75.000000,0.000000,283.000000,0.000000,0.000000,0.000000,57.541162,0.000000,0.000000,0.000000,0.000000,0.000000,1406.589233,0.000000
0.421000000,40.242866117,140.010443659,2.063767,15.012543,0.000000,0.000000,15.012543,3.885532,75.000000,0.000000,283.000000,0.000000,0.000000,0.000000,58.747825,0.000000,0.000000,0.000000,0.000000,0.000000,1431.473633,0.000000
0.431000000,40.242866198,140.010443205,2.211607,15.598018,0.000000,0.000000,15.598018,4.037064,75.000000,0.000000,283.000000,0.000000,0.000000,0.000000,58.383546,0.000000,0.000000,0.000000,0.000000,0.000000,1423.386230,0.000000
0.441000000,40.242866281,140.010442733,2.365097,16.183275,0.000000,0.000000,16.183275,4.188540,75.000000,0.000000,283.000000,0.000000,0.000000,0.000000,58.642002,0.000000,0.000000,0.000000,0.000000,0.000000,1428.363037,0.000000
0.451000000,40.242866367,140.010442244,2.524244,16.768670,0.000000,0.000000,16.768670,4.340051,75.000000,0.000000,283.000000,0.000000,0.000000,0.000000,58.455498,0.000000,0.000000,0.000000,0.000000,0.000000,1424.008301,0.000000
0.461000000,40.242866456,140.010441738,2.689028,17.349422,0.000000,0.000000,17.349422,4.490361,75.000000,0.000000,283.000000,0.000000,0.000000,0.000000,57.764093,0.000000,0.000000,0.000000,0.000000,0.000000,1409.077637,0.000000
0.471000000,40.242866548,140.010441214,2.859421,17.933383,0.000000,0.000000,17.933383,4.641501,75.000000,0.000000,283.000000,0.000000,0.000000,0.000000,58.913346,0.000000,0.000000,0.000000,0.000000,0.000000,1432.717896,0.000000
0.481000000,40.242866644,140.010440673,3.035474,18.517897,0.000000,0.000000,18.517897,4.792784,75.000000,0.000000,283.000000,0.000000,0.000000,0.000000,58.073243,0.000000,0.000000,0.000000,0.000000,0.000000,1414.676636,0.000000
0.491000000,40.242866742,140.010440115,3.217154,19.100378,0.000000,0.000000,19.100378,4.943542,75.000000,0.000000,283.000000,0.000000,0.000000,0.000000,58.391311,0.000000,0.000000,0.000000,0.000000,0.000000,1420.897705,0.000000
0.501000000,40.242866843,140.010439540,3.404464,19.682609,0.000000,0.000000,19.682609,5.094234,75.000000,0.000000,283.000000,0.000000,0.000000,0.000000,58.085425,0.000000,0.000000,0.000000,0.000000,0.000000,1414.054565,0.000000
0.511000000,40.242866948,140.010438947,3.597387,20.263088,0.000000,0.000000,20.263088,5.244473,75.000000,0.000000,283.000000,0.000000,0.000000,0.000000,58.017127,0.000000,0.000000,0.000000,0.000000,0.000000,1412.188232,0.000000
0.521000000,40.242867055,140.010438337,3.795933,20.848445,0.000000,0.000000,20.848445,5.395975,75.000000,0.000000,283.000000,0.000000,0.000000,0.000000,58.960073,0.000000,0.000000,0.000000,0.000000,0.000000,1431.473633,0.000000
0.531000000,40.242867166,140.010437709,4.000160,21.437509,0.000000,0.000000,21.437509,5.548436,75.000000,0.000000,283.000000,0.000000,0.000000,0.000000,58.862513,0.000000,0.000000,0.000000,0.000000,0.000000,1428.985229,0.000000
0.541000000,40.242867280,140.010437064,4.210053,22.020360,0.000000,0.000000,22.020360,5.699288,75.000000,0.000000,283.000000,0.000000,0.000000,0.000000,57.812430,0.000000,0.000000,0.000000,0.000000,0.000000,1406.589233,0.000000
0.551000000,40.242867396,140.010436402,4.425546,22.598598,0.000000,0.000000,22.598598,5.848948,75.000000,0.000000,283.000000,0.000000,0.000000,0.000000,57.833170,0.000000,0.000000,0.000000,0.000000,0.000000,1406.589233,0.000000
0.561000000,40.242867516,140.010435723,4.646633,23.179173,0.000000,0.000000,23.179173,5.999211,75.000000,0.000000,283.000000,0.000000,0.000000,0.000000,58.241080,0.000000,0.000000,0.000000,0.000000,0.000000,1414.676636,0.000000
0.571000000,40.242867639,140.010435026,4.873317,23.695328,0.000000,0.002540,23.695328,6.135255,75.000000,-0.000000,283.000000,-0.000000,-0.000000,-0.000000,58.467682,0.000011,2.539522,0.006141,0.000000,343.741142,1421.644311,0.069636
0.581000000,40.242867772,140.010434311,5.105285,24.314391,0.000000,0.027934,24.314407,6.320010,75.000000,-0.000000,282.999999,0.000000,-0.000001,-0.000000,58.505034,0.000014,2.539392,0.065826,0.000000,361.929291,1422.141931,0.071455
0.591000000,40.242867909,140.010433575,5.342859,24.898019,0.000000,0.053327,24.898076,6.495592,75.000000,-0.000000,282.999999,0.000000,-0.000004,-0.000000,58.280264,0.000016,2.539198,0.122717,0.000001,379.505489,1417.165076,0.073171
0.601000000,40.242868050,140.010432819,5.586005,25.482381,0.000000,0.078718,25.482502,6.671363,74.999997,-0.000000,282.999999,0.000000,-0.000010,-0.000000,58.618879,0.000019,2.538938,0.176993,0.000001,397.521367,1423.946057,0.074889
0.611000000,40.242868194,140.010432043,5.834749,26.071471,0.000001,0.104106,26.071679,6.848356,74.999990,-0.000000,282.999998,0.000000,-0.000017,0.000000,59.041128,0.000022,2.538604,0.228786,0.000001,416.105988,1432.469056,0.076620
0.621000000,40.242868342,140.010431246,6.089114,26.656877,0.000001,0.129490,26.657192,7.024395,74.999978,-0.000000,282.999997,0.000000,-0.000027,0.000000,58.198065,0.000024,2.538191,0.278321,0.000002,434.994872,1414.614502,0.078341
0.631000000,40.242868493,140.010430429,6.349051,27.241758,0.000001,0.154870,27.242199,7.200297,74.999960,-0.000000,282.999997,0.000000,-0.000039,0.000000,58.620014,0.000027,2.537692,0.325724,0.000002,454.285448,1423.137390,0.080061
0.641000000,40.242868649,140.010429593,6.614568,27.822947,0.000001,0.180244,27.823531,7.375242,74.999935,-0.000000,282.999996,0.000000,-0.000054,0.000000,57.743021,0.000030,2.537100,0.371171,0.000003,473.868597,1404.598511,0.081769
0.651000000,40.242868808,140.010428736,6.885610,28.401634,0.000002,0.205612,28.402379,7.549538,74.999900,-0.000000,282.999996,0.000000,-0.000072,0.000000,58.000372,0.000032,2.536409,0.414782,0.000004,493.777800,1409.699756,0.083471
0.661000000,40.242868971,140.010427859,7.162190,28.983194,0.000002,0.230972,28.984114,7.724576,74.999854,-0.000000,282.999995,0.000000,-0.000092,0.000000,58.287642,0.000035,2.535610,0.456591,0.000004,514.198338,1415.423242,0.085181
0.671000000,40.242869137,140.010426962,7.444331,29.566431,0.000002,0.256324,29.567542,7.900047,74.999796,-0.000000,282.999995,0.000000,-0.000115,0.000000,58.323860,0.000038,2.534697,0.496710,0.000005,535.093014,1415.920862,0.086896
0.681000000,40.242869307,140.010426044,7.732037,30.148235,0.000003,0.281667,30.149551,8.075146,74.999724,-0.000000,282.999994,0.000000,-0.000141,0.000000,58.063916,0.000041,2.533662,0.535283,0.000005,556.350580,1410.259692,0.088606
0.691000000,40.242869481,140.010425107,8.025288,30.728785,0.000003,0.306998,30.730318,8.249920,74.999637,-0.000000,282.999994,0.000000,-0.000171,0.000000,57.974088,0.000043,2.532497,0.572398,0.000006,577.974562,1408.144556,0.090314
0.701000000,40.242869659,140.010424150,8.324066,31.304844,0.000004,0.332317,31.306608,8.423530,74.999531,-0.000000,282.999993,0.000000,-0.000203,0.000000,57.387365,0.000046,2.531195,0.608201,0.000007,599.838294,1395.702368,0.092007
0.711000000,40.242869840,140.010423172,8.628337,31.882515,0.000004,0.357622,31.884521,8.597557,74.999407,-0.000000,282.999992,0.000000,-0.000238,0.000000,58.089964,0.000049,2.529747,0.642653,0.000008,622.170263,1410.073096,0.093706
0.721000000,40.242870025,140.010422175,8.938148,32.464370,0.000005,0.382913,32.466628,8.772665,74.999261,-0.000000,282.999992,0.000000,-0.000277,0.000000,58.236078,0.000051,2.528143,0.675764,0.000008,645.076044,1412.872595,0.095417
0.731000000,40.242870214,140.010421158,9.253513,33.045440,0.000005,0.408186,33.047961,8.947571,74.999092,-0.000000,282.999991,0.000000,-0.000320,0.000000,57.929921,0.000054,2.526376,0.707697,0.000009,668.363498,1406.278223,0.097126
0.741000000,40.242870406,140.010420120,9.574403,33.621050,0.000006,0.433441,33.623844,9.121062,74.998898,0.000000,282.999990,0.000000,-0.000366,0.000000,57.257903,0.000057,2.524438,0.738614,0.000010,691.838501,1392.094129,0.098819
0.751000000,40.242870602,140.010419063,9.900765,34.193232,0.000006,0.458676,34.196308,9.293666,74.998677,0.000000,282.999990,0.000000,-0.000415,0.000000,57.217503,0.000059,2.522318,0.768533,0.000011,715.574496,1391.036536,0.100502
0.761000000,40.242870802,140.010417986,10.232592,34.766958,0.000007,0.483888,34.770325,9.466670,74.998427,0.000000,282.999989,0.000000,-0.000468,0.000000,57.530617,0.000062,2.520000,0.797394,0.000011,739.775704,1397.319824,0.102189
0.771000000,40.242871006,140.010416889,10.569911,35.343965,0.000008,0.509077,35.347631,9.640523,74.998145,0.000000,282.999988,0.000000,-0.000525,0.000000,57.948760,0.000064,2.517475,0.825203,0.000012,764.520469,1405.780554,0.103886
0.781000000,40.242871213,140.010415772,10.912771,35.929053,0.000008,0.534239,35.933024,9.816468,74.997829,0.000000,282.999988,0.000000,-0.000587,0.000000,58.786930,0.000067,2.514729,0.851885,0.000013,790.026645,1422.950683,0.105607
0.791000000,40.242871423,140.010414634,11.261212,36.508425,0.000009,0.559373,36.512710,9.990935,74.997477,0.000000,282.999987,0.000000,-0.000652,0.000000,57.249350,0.000070,2.511760,0.877803,0.000014,815.694998,1390.849866,0.107311
0.801000000,40.242871638,140.010413477,11.615135,37.080517,0.000010,0.584476,37.085123,10.163518,74.997087,0.000000,282.999986,0.000000,-0.000722,0.000000,57.283121,0.000072,2.508560,0.903042,0.000015,841.442332,1391.347546,0.108994
0.811000000,40.242871856,140.010412300,11.974538,37.658650,0.000010,0.609546,37.663582,10.337667,74.996655,0.000000,282.999985,0.000000,-0.000796,0.000000,58.181352,0.000075,2.505107,0.927313,0.000016,867.866989,1409.761963,0.110695
0.821000000,40.242872078,140.010411103,12.339477,38.237660,0.000011,0.634580,38.242925,10.512044,74.996180,0.000000,282.999985,0.000000,-0.000874,0.000000,57.614594,0.000077,2.501393,0.950776,0.000017,894.740103,1397.817480,0.112398
0.831000000,40.242872303,140.010409886,12.709914,38.810699,0.000012,0.659576,38.816303,10.684877,74.995659,0.000000,282.999984,0.000000,-0.000957,0.000000,57.164442,0.000080,2.497414,0.973631,0.000018,921.738222,1388.299279,0.114083
0.841000000,40.242872533,140.010408649,13.085827,39.387798,0.000013,0.684531,39.393745,10.858764,74.995089,0.000000,282.999983,0.000000,-0.001045,0.000000,58.074999,0.000083,2.493148,0.995658,0.000019,949.331995,1406.962500,0.115781
0.851000000,40.242872765,140.010407392,13.467264,39.964988,0.000014,0.709442,39.971284,11.032678,74.994467,0.000000,282.999982,0.000000,-0.001138,0.000000,57.411015,0.000085,2.488586,1.016984,0.000019,977.335917,1393.027221,0.117479
0.861000000,40.242873002,140.010406115,13.854185,40.537940,0.000014,0.734306,40.544590,11.205498,74.993791,0.000000,282.999982,0.000000,-0.001235,0.000000,57.257558,0.000088,2.483723,1.037744,0.000020,1005.535358,1389.667896,0.119165
0.871000000,40.242873242,140.010404819,14.246580,41.113265,0.000015,0.759119,41.120273,11.378936,74.993058,0.000000,282.999981,0.000000,-0.001338,0.000000,57.663245,0.000090,2.478537,1.057794,0.000021,1034.253836,1397.879761,0.120857
0.881000000,40.242873486,140.010403502,14.644463,41.685429,0.000016,0.783879,41.692799,11.551561,74.992265,0.000000,282.999980,0.000000,-0.001446,0.000000,56.895734,0.000093,2.473023,1.077300,0.000022,1063.213940,1381.829297,0.122540
0.891000000,40.242873734,140.010402166,15.047790,42.256233,0.000017,0.808583,42.263969,11.723838,74.991409,0.000001,282.999979,0.000000,-0.001559,0.000000,57.337359,0.000095,2.467167,1.096235,0.000023,1092.502138,1390.787683,0.124220
0.901000000,40.242873985,140.010400809,15.456597,42.835067,0.000018,0.833226,42.843170,11.898200,74.990487,0.000001,282.999978,0.000000,-0.001677,0.000000,58.242728,0.000098,2.460939,1.114375,0.000024,1122.607349,1409.326489,0.125923
0.911000000,40.242874240,140.010399433,15.870943,43.413622,0.000019,0.857806,43.422096,12.072496,74.989495,0.000001,282.999978,0.000000,-0.001801,0.000000,57.383920,0.000100,2.454338,1.131955,0.000025,1153.105308,1391.409778,0.127625
0.921000000,40.242874498,140.010398037,16.290756,43.979369,0.000020,0.882318,43.988218,12.243483,74.988431,0.000001,282.999977,0.000000,-0.001930,0.000000,56.045451,0.000103,2.447377,1.149318,0.000026,1183.321202,1363.601514,0.129289
0.931000000,40.242874760,140.010396621,16.715949,44.545735,0.000021,0.906758,44.554963,12.414637,74.987292,0.000001,282.999976,0.000000,-0.002065,0.000000,57.182736,0.000105,2.440018,1.166132,0.000027,1213.959901,1386.930566,0.130956
0.941000000,40.242875026,140.010395186,17.146594,45.121217,0.000022,0.931123,45.130824,12.588161,74.986073,0.000001,282.999975,0.000000,-0.002206,0.000000,57.814286,0.000108,2.432227,1.182189,0.000028,1245.491374,1399.808264,0.132649
0.951000000,40.242875296,140.010393730,17.582746,45.698042,0.000023,0.955407,45.708029,12.762041,74.984773,0.000001,282.999974,0.000000,-0.002353,0.000000,57.544627,0.000110,2.424004,1.197706,0.000029,1277.500244,1394.084851,0.134346
0.961000000,40.242875569,140.010392255,18.024389,46.271867,0.000024,0.979608,46.282236,12.935155,74.983387,0.000001,282.999974,0.000000,-0.002506,0.000000,57.220350,0.000112,2.415345,1.212811,0.000030,1309.743497,1387.241699,0.136034
0.971000000,40.242875846,140.010390760,18.471493,46.842448,0.000026,1.003720,46.853200,13.107439,74.981911,0.000001,282.999973,0.000000,-0.002665,0.000000,56.883633,0.000115,2.406239,1.227522,0.000031,1342.200704,1380.149597,0.137713
0.981000000,40.242876126,140.010389245,18.924024,47.409056,0.000027,1.027739,47.420194,13.278705,74.980343,0.000002,282.999972,0.000000,-0.002830,0.000000,56.510346,0.000117,2.396675,1.241870,0.000032,1374.822791,1372.310999,0.139381
0.991000000,40.242876410,140.010387710,19.381956,47.975551,0.000028,1.051660,47.987076,13.449954,74.978679,0.000002,282.999971,0.000000,-0.003001,0.000000,56.809846,0.000119,2.386629,1.255765,0.000033,1407.827825,1378.345471,0.141048
1.001000000,40.242876698,140.010386156,19.845310,48.546098,0.000029,1.075478,48.558010,13.622267,74.976915,0.000002,282.999970,0.000000,-0.003179,0.000000,57.263404,0.000122,2.376071,1.269109,0.000034,1441.462648,1387.552673,0.142726
1.011000000,40.242876989,140.010384581,20.314126,49.119370,0.000030,1.099188,49.131667,13.795300,74.975047,0.000002,282.999969,0.000000,-0.003364,0.000000,57.230793,0.000124,2.364986,1.281945,0.000035,1475.655840,1386.743908,0.144413
1.021000000,40.242877284,140.010382987,20.788384,49.684308,0.000032,1.122785,49.696993,13.966189,74.973072,0.000002,282.999969,0.000000,-0.003555,0.000000,55.962271,0.000126,2.353402,1.294572,0.000036,1509.741273,1360.490967,0.146076
1.031000000,40.242877583,140.010381374,21.268005,50.246832,0.000033,1.146264,50.259905,14.136468,74.970986,0.000003,282.999968,0.000000,-0.003752,0.000000,56.463885,0.000128,2.341284,1.306843,0.000037,1544.065131,1370.693554,0.147731
1.041000000,40.242877885,140.010379741,21.753004,50.810443,0.000034,1.169619,50.823903,14.307047,74.968785,0.000003,282.999967,0.000000,-0.003957,0.000000,56.379193,0.000131,2.328605,1.318674,0.000039,1578.839861,1368.827246,0.149390
1.051000000,40.242878191,140.010378088,22.243396,51.379253,0.000036,1.192845,51.393098,14.478993,74.966465,0.000003,282.999966,0.000000,-0.004168,0.000000,57.234823,0.000133,2.315329,1.329967,0.000040,1614.325860,1386.308459,0.151064
1.061000000,40.242878501,140.010376416,22.739233,51.949211,0.000037,1.215935,51.963440,14.651257,74.964022,0.000003,282.999966,0.000000,-0.004387,0.000000,56.738634,0.000135,2.301453,1.340833,0.000041,1650.276459,1375.981458,0.152741
1.071000000,40.242878814,140.010374723,23.240481,52.513298,0.000038,1.238884,52.527910,14.822018,74.961453,0.000004,282.999965,0.000000,-0.004612,0.000000,56.075557,0.000137,2.286998,1.351460,0.000042,1686.243337,1362.232849,0.154401
1.081000000,40.242879131,140.010373012,23.747077,53.070599,0.000040,1.261685,53.085595,14.991042,74.958752,0.000004,282.999964,0.000000,-0.004845,0.000000,55.614773,0.000139,2.271957,1.361877,0.000043,1722.155060,1352.652405,0.156041
1.091000000,40.242879451,140.010371280,24.259005,53.634796,0.000041,1.284333,53.650171,15.161878,74.955916,0.000004,282.999963,0.000000,-0.005085,0.000000,56.903637,0.000141,2.256245,1.371736,0.000044,1758.894290,1379.029846,0.157702
1.101000000,40.242879775,140.010369530,24.776326,54.195833,0.000042,1.306821,54.211586,15.331919,74.952940,0.000005,282.999963,0.000000,-0.005332,0.000000,55.609666,0.000143,2.239896,1.381302,0.000045,1795.809126,1352.341346,0.159353
1.111000000,40.242880102,140.010367759,25.298984,54.759224,0.000044,1.329142,54.775353,15.502599,74.949822,0.000005,282.999962,0.000000,-0.005587,0.000000,56.817263,0.000145,2.222867,1.390438,0.000046,1833.261875,1377.039051,0.161011
1.121000000,40.242880434,140.010365969,25.827036,55.322119,0.000045,1.351290,55.338620,15.673177,74.946555,0.000006,282.999961,0.000000,-0.005849,0.000000,55.946505,0.000147,2.205153,1.399220,0.000047,1871.064499,1359.060107,0.162668
1.131000000,40.242880768,140.010364160,26.360444,55.885548,0.000047,1.373258,55.902418,15.843923,74.943136,0.000006,282.999960,0.000000,-0.006118,0.000000,56.672697,0.000149,2.186735,1.407627,0.000048,1909.286249,1373.866272,0.164326
1.141000000,40.242881107,140.010362330,26.899251,56.452906,0.000048,1.395037,56.470140,16.015721,74.939561,0.000007,282.999960,0.000000,-0.006396,0.000000,56.768459,0.000150,2.167569,1.415578,0.000049,1948.162160,1375.732581,0.165996
1.151000000,40.242881449,140.010360481,27.443469,57.019704,0.000050,1.416622,57.037299,16.187407,74.935824,0.000007,282.999959,0.000000,-0.006681,0.000000,56.515305,0.000152,2.147669,1.423189,0.000050,1987.387573,1370.444751,0.167664
1.161000000,40.242881795,140.010358613,27.993070,57.580176,0.000051,1.438005,57.598130,16.357483,74.931923,0.000008,282.999958,0.000000,-0.006974,0.000000,55.700534,0.000154,2.127061,1.430605,0.000051,2026.555531,1353.647779,0.169314
1.171000000,40.242882144,140.010356725,28.547996,58.138568,0.000053,1.459178,58.156876,16.527053,74.927851,0.000008,282.999958,0.000000,-0.007275,0.000000,55.996042,0.000156,2.105704,1.437724,0.000052,2065.954428,1359.619934,0.170957
1.181000000,40.242882497,140.010354817,29.108265,58.700826,0.000054,1.480134,58.719483,16.697667,74.923605,0.000009,282.999957,0.000000,-0.007584,0.000000,56.288554,0.000157,2.083535,1.444400,0.000053,2106.006313,1365.530005,0.172612
1.191000000,40.242882853,140.010352890,29.673883,59.257658,0.000056,1.500865,59.276661,16.866909,74.919180,0.000010,282.999957,0.000000,-0.007901,0.000000,55.275218,0.000159,2.060611,1.450864,0.000054,2146.046307,1344.689416,0.174251
1.201000000,40.242883213,140.010350944,30.244794,59.814225,0.000058,1.521363,59.833570,17.036123,74.914571,0.000010,282.999956,0.000000,-0.008226,0.000000,55.907712,0.000160,2.036880,1.456992,0.000055,2186.440322,1357.566980,0.175889
1.211000000,40.242883577,140.010348978,30.821020,60.370586,0.000059,1.541619,60.390266,17.205326,74.909774,0.000011,282.999956,0.000000,-0.008559,0.000000,55.400900,0.000162,2.012323,1.462783,0.000056,2227.191924,1347.115625,0.177527
1.221000000,40.242883944,140.010346992,31.402533,60.923700,0.000061,1.561627,60.943711,17.373729,74.904784,0.000012,282.999955,0.000000,-0.008900,0.000000,55.276693,0.000163,1.986956,1.468312,0.000057,2268.074353,1344.502759,0.179155
1.231000000,40.242884315,140.010344987,31.989322,61.478308,0.000062,1.581376,61.498643,17.542567,74.899597,0.000013,282.999955,0.000000,-0.009250,0.000000,55.529330,0.000164,1.960718,1.473466,0.000058,2309.436774,1349.604065,0.180788
1.241000000,40.242884689,140.010342963,32.581392,62.029663,0.000064,1.600860,62.050317,17.710607,74.894207,0.000014,282.999954,0.000000,-0.009607,0.000000,54.951674,0.000166,1.933642,1.478360,0.000059,2350.922562,1337.721704,0.182411
1.251000000,40.242885067,140.010340920,33.178723,62.585736,0.000066,1.620069,62.606701,17.879926,74.888610,0.000014,282.999954,0.000000,-0.009973,0.000000,56.049974,0.000167,1.905633,1.482804,0.000060,2393.134020,1360.117663,0.184047
1.261000000,40.242885449,140.010338857,33.781374,63.142143,0.000067,1.638993,63.163411,18.049386,74.882801,0.000015,282.999954,0.000000,-0.010348,0.000000,55.283171,0.000168,1.876714,1.486904,0.000061,2435.742616,1344.378259,0.185685
1.271000000,40.242885834,140.010336775,34.389300,63.693467,0.000069,1.657624,63.715033,18.217576,74.876775,0.000016,282.999953,0.000000,-0.010731,0.000000,55.082087,0.000169,1.846933,1.490787,0.000062,2478.327522,1340.210156,0.187308
1.281000000,40.242886222,140.010334673,35.002487,64.247803,0.000071,1.675953,64.269658,18.386609,74.870528,0.000017,282.999953,0.000000,-0.011122,0.000001,55.730404,0.000170,1.816187,1.494265,0.000063,2521.513353,1353.398938,0.188940
1.291000000,40.242886615,140.010332552,35.620980,64.805882,0.000073,1.693970,64.828018,18.556678,74.864055,0.000018,282.999953,0.000000,-0.011522,0.000001,55.809325,0.000171,1.784446,1.497321,0.000064,2565.363823,1354.954150,0.190583
1.301000000,40.242887010,140.010330411,36.244784,65.360941,0.000074,1.711665,65.383350,18.726022,74.857350,0.000020,282.999952,0.000000,-0.011930,0.000001,55.233061,0.000172,1.751777,1.500112,0.000065,2609.346725,1343.134119,0.192217
1.311000000,40.242887410,140.010328251,36.873855,65.911760,0.000076,1.729029,65.934435,18.894322,74.850410,0.000021,282.999952,0.000000,-0.012346,0.000001,55.086161,0.000173,1.718184,1.502666,0.000066,2653.357541,1340.085803,0.193838
1.321000000,40.242887813,140.010326072,37.508192,66.468883,0.000078,1.746053,66.491812,19.064337,74.843228,0.000022,282.999952,0.000000,-0.012772,0.000001,56.039684,0.000173,1.683521,1.504741,0.000067,2698.243079,1359.495606,0.195478
1.331000000,40.242888219,140.010323873,38.147836,67.020600,0.000079,1.762725,67.043777,19.233007,74.835801,0.000023,282.999952,0.000000,-0.013205,0.000001,54.584298,0.000174,1.647923,1.506603,0.000068,2743.057965,1329.758801,0.197102
1.341000000,40.242888630,140.010321655,38.792711,67.571791,0.000081,1.779037,67.595206,19.401613,74.828123,0.000025,282.999952,0.000000,-0.013648,0.000001,55.519772,0.000174,1.611318,1.508141,0.000069,2788.193591,1348.795325,0.198725
1.351000000,40.242889043,140.010319417,39.442861,68.125625,0.000083,1.794978,68.149268,19.570984,74.820189,0.000026,282.999952,0.000000,-0.014099,0.000001,55.173983,0.000175,1.573666,1.509283,0.000070,2833.912242,1341.703260,0.200355
1.361000000,40.242889461,140.010317160,40.098260,68.672339,0.000085,1.810539,68.696202,19.738569,74.811995,0.000028,282.999952,0.000000,-0.014557,0.000001,54.361052,0.000175,1.535192,1.510247,0.000071,2879.400699,1325.092896,0.201965
1.371000000,40.242889881,140.010314884,40.758857,69.220538,0.000086,1.825710,69.244611,19.906623,74.803536,0.000029,282.999952,0.000000,-0.015023,0.000001,55.309460,0.000176,1.495722,1.510841,0.000072,2925.371587,1344.378333,0.203579
1.381000000,40.242890306,140.010312588,41.424726,69.779751,0.000088,1.840482,69.804018,20.077648,74.794809,0.000031,282.999953,0.000000,-0.015497,0.000001,56.279628,0.000176,1.455091,1.510859,0.000072,2972.638797,1364.099219,0.205225
1.391000000,40.242890734,140.010310273,42.095928,70.335988,0.000090,1.854842,70.360441,20.247980,74.785807,0.000033,282.999953,0.000000,-0.015978,0.000001,55.087048,0.000176,1.413503,1.510606,0.000073,3020.023975,1339.774720,0.206862
1.401000000,40.242891165,140.010307938,42.772389,70.886255,0.000092,1.868783,70.910885,20.416835,74.776529,0.000034,282.999953,0.000000,-0.016467,0.000001,54.926731,0.000176,1.371007,1.510146,0.000074,3067.261898,1336.477563,0.208482
1.411000000,40.242891601,140.010305584,43.454077,71.432932,0.000094,1.882294,71.457727,20.584840,74.766968,0.000036,282.999953,0.000000,-0.016963,0.000001,54.448285,0.000176,1.327568,1.509423,0.000075,3114.547783,1326.710389,0.210092
1.421000000,40.242892039,140.010303211,44.140952,71.976809,0.000095,1.895366,72.001760,20.752203,74.757122,0.000038,282.999954,0.000000,-0.017466,0.000001,54.348697,0.000176,1.283171,1.508422,0.000076,3161.943921,1324.657458,0.211693
1.431000000,40.242892482,140.010300818,44.833004,72.520761,0.000097,1.907990,72.545855,20.919683,74.746986,0.000040,282.999954,0.000000,-0.017976,0.000001,54.505926,0.000175,1.237762,1.507080,0.000077,3209.698695,1327.830224,0.213294
1.441000000,40.242892927,140.010298406,45.530252,73.069497,0.000099,1.920155,73.094722,21.088523,74.736555,0.000042,282.999955,0.000000,-0.018493,0.000001,55.119043,0.000175,1.191247,1.505299,0.000077,3258.231882,1340.272436,0.214909
1.451000000,40.242893377,140.010295975,46.232733,73.618244,0.000101,1.931850,73.643587,21.257470,74.725827,0.000044,282.999956,0.000000,-0.019017,0.000001,54.759062,0.000175,1.143704,1.503180,0.000078,3307.124185,1332.931458,0.216525
1.461000000,40.242893830,140.010293524,46.940440,74.169820,0.000102,1.943064,74.195267,21.427271,74.714796,0.000046,282.999956,0.000000,-0.019548,0.000001,55.393834,0.000174,1.095073,1.500663,0.000079,3356.630212,1345.809192,0.218149
1.471000000,40.242894286,140.010291054,47.653401,74.719628,0.000104,1.953788,74.745168,21.596717,74.703459,0.000049,282.999957,0.000000,-0.020086,0.000001,54.687406,0.000173,1.045440,1.497843,0.000080,3406.336772,1331.438428,0.219767
1.481000000,40.242894747,140.010288564,48.371580,75.268344,0.000106,1.964010,75.293963,21.765988,74.691812,0.000051,282.999958,0.000000,-0.020631,0.000001,54.976158,0.000172,0.994791,1.494705,0.000080,3456.301979,1337.286268,0.221383
1.491000000,40.242895210,140.010286055,49.094982,75.815964,0.000107,1.973721,75.841650,21.935088,74.679852,0.000053,282.999959,0.000000,-0.021182,0.000001,54.624491,0.000171,0.943128,1.491248,0.000081,3506.523211,1330.131958,0.222995
1.501000000,40.242895678,140.010283527,49.823589,76.363897,0.000109,1.982911,76.389637,22.104392,74.667574,0.000056,282.999960,0.000000,-0.021740,0.000001,54.910140,0.000170,0.890419,1.487443,0.000082,3557.129303,1335.917627,0.224608
1.511000000,40.242896148,140.010280979,50.557414,76.912080,0.000111,1.991569,76.937861,22.273886,74.654975,0.000059,282.999961,0.000000,-0.022304,0.000001,54.745083,0.000169,0.836664,1.483291,0.000083,3608.114780,1332.558228,0.226222
1.521000000,40.242896623,140.010278411,51.296449,77.459533,0.000113,1.999685,77.485340,22.443315,74.642051,0.000061,282.999962,0.000000,-0.022874,0.000001,54.727063,0.000168,0.781886,1.478812,0.000083,3659.387231,1332.184961,0.227833
1.531000000,40.242897101,140.010275824,52.040687,78.005884,0.000114,2.007248,78.031705,22.612583,74.628798,0.000064,282.999963,0.000000,-0.023451,0.000001,54.558591,0.000167,0.726097,1.474010,0.000084,3710.909856,1328.763355,0.229442
1.541000000,40.242897583,140.010273218,52.790115,78.551317,0.000116,2.014248,78.577137,22.781743,74.615214,0.000067,282.999965,0.000000,-0.024034,0.000001,54.506552,0.000165,0.669297,1.468882,0.000084,3762.697783,1327.705798,0.231048
1.551000000,40.242898068,140.010270592,53.544724,79.095154,0.000118,2.020676,79.120961,22.950616,74.601294,0.000070,282.999966,0.000000,-0.024622,0.000002,54.260968,0.000164,0.611506,1.463441,0.000085,3814.683741,1322.728882,0.232649
1.561000000,40.242898557,140.010267947,54.304491,79.636534,0.000119,2.026522,79.662314,23.118979,74.587036,0.000073,282.999968,0.000000,-0.025216,0.000002,54.067380,0.000162,0.552755,1.457699,0.000086,3866.780806,1318.809656,0.234242
1.571000000,40.242899049,140.010265283,55.069403,80.178588,0.000121,2.031776,80.204327,23.287665,74.572436,0.000076,282.999969,0.000000,-0.025816,0.000002,54.312851,0.000160,0.492970,1.451600,0.000086,3919.289865,1323.786536,0.235838
1.581000000,40.242899545,140.010262599,55.839474,80.721561,0.000122,2.036426,80.747244,23.456745,74.557491,0.000080,282.999971,0.000000,-0.026421,0.000002,54.275639,0.000158,0.432148,1.445139,0.000087,3972.236095,1323.039930,0.237437
1.591000000,40.242900044,140.010259896,56.614703,81.263853,0.000124,2.040464,81.289467,23.625795,74.542198,0.000083,282.999973,0.000000,-0.027031,0.000002,54.204499,0.000156,0.370337,1.438345,0.000087,4025.462830,1321.609082,0.239033
1.601000000,40.242900548,140.010257173,57.395085,81.806510,0.000125,2.043879,81.832038,23.795099,74.526554,0.000087,282.999974,0.000000,-0.027646,0.000002,54.253110,0.000154,0.307516,1.431198,0.000088,4079.072594,1322.604529,0.240631
1.611000000,40.242901054,140.010254431,58.180613,82.345962,0.000127,2.046662,82.371392,23.963707,74.510557,0.000090,282.999976,0.000000,-0.028266,0.000002,53.803437,0.000151,0.243794,1.423761,0.000088,4132.707930,1313.521667,0.242219
1.621000000,40.242901564,140.010251670,58.971270,82.889221,0.000129,2.048803,82.914538,24.133495,74.494203,0.000094,282.999979,0.000000,-0.028891,0.000002,54.620864,0.000149,0.178982,1.415912,0.000089,4187.070359,1330.069788,0.243818
1.631000000,40.242902078,140.010248889,59.767091,83.429270,0.000130,2.050291,83.454460,24.302593,74.477490,0.000098,282.999981,0.000000,-0.029520,0.000002,53.502965,0.000146,0.113290,1.407772,0.000089,4241.454076,1307.487195,0.245408
1.641000000,40.242902596,140.010246088,60.568005,83.963832,0.000131,2.051119,83.988881,24.470393,74.460416,0.000102,282.999983,0.000000,-0.030153,0.000002,53.532629,0.000143,0.046809,1.399377,0.000090,4295.619690,1308.109302,0.246982
1.651000000,40.242903116,140.010243269,61.374015,84.504848,0.000133,2.051276,84.529741,24.640097,74.442977,0.000106,282.999985,0.000000,-0.030791,0.000002,54.519768,0.000140,-0.020813,1.390529,0.000090,4350.785282,1328.079029,0.248575
1.661000000,40.242903641,140.010240429,62.185185,85.048191,0.000134,2.050753,85.072912,24.810604,74.425172,0.000110,282.999988,0.000000,-0.031432,0.000002,54.229053,0.000137,-0.089449,1.381296,0.000090,4406.535873,1322.231188,0.250174
1.671000000,40.242904169,140.010237571,63.001513,85.592631,0.000136,2.049539,85.617166,24.981590,74.407000,0.000114,282.999991,0.000000,-0.032077,0.000002,54.545010,0.000134,-0.159048,1.371701,0.000091,4462.747551,1328.638965,0.251777
1.681000000,40.242904701,140.010234692,63.823005,86.134529,0.000137,2.047625,86.158864,25.152081,74.388456,0.000119,282.999993,0.000000,-0.032725,0.000002,53.967268,0.000131,-0.229478,1.361802,0.000091,4519.040746,1317.005456,0.253372
1.691000000,40.242905236,140.010231794,64.649634,86.677276,0.000138,2.045002,86.701396,25.322993,74.369541,0.000123,282.999996,0.000000,-0.033376,0.000002,54.572940,0.000127,-0.300832,1.351545,0.000091,4575.768010,1329.261072,0.254970
1.701000000,40.242905775,140.010228876,65.481441,87.225617,0.000139,2.041661,87.249508,25.495609,74.350251,0.000128,282.999999,0.000000,-0.034031,0.000002,55.018394,0.000123,-0.373261,1.340858,0.000092,4633.434796,1338.281616,0.256584
1.711000000,40.242906318,140.010225939,66.318461,87.774558,0.000141,2.037591,87.798205,25.668589,74.330586,0.000133,283.000002,0.000000,-0.034688,0.000002,54.705083,0.000120,-0.446585,1.329820,0.000092,4691.518209,1331.998364,0.258201
1.721000000,40.242906864,140.010222981,67.160663,88.317125,0.000142,2.032785,88.340516,25.840054,74.310543,0.000138,283.000005,0.000000,-0.035348,0.000003,53.891642,0.000116,-0.520534,1.318537,0.000092,4749.269623,1315.636816,0.259798
1.731000000,40.242907414,140.010220004,68.007986,88.855721,0.000143,2.027236,88.878844,26.010653,74.290123,0.000143,283.000009,0.000000,-0.036009,0.000003,53.920350,0.000112,-0.595159,1.306972,0.000092,4806.936381,1316.258997,0.261383
1.741000000,40.242907968,140.010217008,68.860432,89.399235,0.000144,2.020937,89.422074,26.182797,74.269322,0.000148,283.000012,0.000000,-0.036673,0.000003,54.643578,0.000107,-0.670761,1.294994,0.000092,4865.477471,1330.878564,0.262984
1.751000000,40.242908525,140.010213991,69.718045,89.943033,0.000145,2.013878,89.965576,26.355236,74.248141,0.000153,283.000016,0.000000,-0.037338,0.000003,54.134741,0.000103,-0.747156,1.282672,0.000092,4924.395299,1320.675915,0.264585
1.761000000,40.242909086,140.010210955,70.580792,90.482668,0.000146,2.006052,90.504903,26.526766,74.226578,0.000159,283.000019,0.000000,-0.038005,0.000003,53.878888,0.000099,-0.824147,1.270072,0.000093,4983.200531,1315.574671,0.266173
1.771000000,40.242909650,140.010207899,71.448655,91.024069,0.000147,1.997453,91.045983,26.699002,74.204633,0.000164,283.000023,0.000000,-0.038672,0.000003,54.438605,0.000094,-0.901933,1.257110,0.000093,5042.541562,1326.897022,0.267767
1.781000000,40.242910218,140.010204823,72.321682,91.572923,0.000148,1.988071,91.594501,26.873498,74.182306,0.000170,283.000027,0.000000,-0.039341,0.000003,55.044738,0.000089,-0.980719,1.243710,0.000093,5103.055058,1339.152649,0.269383
1.791000000,40.242910790,140.010201727,73.199894,92.113461,0.000149,1.977898,92.134694,27.045963,74.159595,0.000176,283.000031,0.000000,-0.040010,0.000003,53.294882,0.000084,-1.059857,1.230090,0.000093,5162.988645,1304.003418,0.270974
1.801000000,40.242911365,140.010198612,74.083179,92.648095,0.000150,1.966934,92.668971,27.217054,74.136501,0.000182,283.000035,0.000000,-0.040679,0.000003,53.591673,0.000079,-1.139393,1.216216,0.000093,5222.597674,1310.037928,0.272549
1.811000000,40.242911944,140.010195477,74.971536,93.183685,0.000151,1.955170,93.204194,27.388647,74.113024,0.000188,283.000040,0.000000,-0.041347,0.000003,53.554311,0.000074,-1.219573,1.201998,0.000093,5282.648283,1309.353565,0.274125
1.821000000,40.242912527,140.010192322,75.864966,93.720293,0.000151,1.942602,93.740424,27.560765,74.089164,0.000194,283.000044,0.000000,-0.042016,0.000003,53.668410,0.000068,-1.300370,1.187437,0.000092,5343.149140,1311.717554,0.275705
1.831000000,40.242913113,140.010189147,76.763467,94.253089,0.000152,1.929224,94.272831,27.732086,74.064921,0.000201,283.000049,0.000000,-0.042683,0.000003,53.070438,0.000063,-1.381546,1.172598,0.000092,5403.548403,1299.773059,0.277274
1.841000000,40.242913703,140.010185953,77.667011,94.788883,0.000152,1.915032,94.808226,27.904485,74.040296,0.000207,283.000053,0.000000,-0.043349,0.000003,53.995596,0.000057,-1.463357,1.157397,0.000092,5464.623544,1318.436389,0.278852
1.851000000,40.242914296,140.010182739,78.575654,95.329284,0.000153,1.900018,95.348217,28.078410,74.015290,0.000214,283.000058,0.000000,-0.044014,0.000004,53.960712,0.000051,-1.545848,1.141817,0.000092,5526.566587,1317.814282,0.280443
1.861000000,40.242914894,140.010179504,79.489391,95.863138,0.000154,1.884178,95.881653,28.250796,73.989904,0.000221,283.000063,0.000000,-0.044676,0.000004,52.968260,0.000045,-1.628488,1.125996,0.000092,5588.086483,1297.968969,0.282015
1.871000000,40.242915494,140.010176251,80.408155,96.394968,0.000154,1.867511,96.413057,28.422889,73.964138,0.000228,283.000068,0.000000,-0.045337,0.000004,53.394771,0.000039,-1.711432,1.109883,0.000091,5649.700450,1306.616235,0.283581
1.881000000,40.242916099,140.010172977,81.331969,96.930908,0.000154,1.850011,96.948561,28.596389,73.937995,0.000235,283.000074,0.000000,-0.045995,0.000004,53.687963,0.000033,-1.794922,1.093407,0.000091,5712.127199,1312.588476,0.285159
1.891000000,40.242916707,140.010169683,82.260848,97.464509,0.000155,1.831675,97.481719,28.769517,73.911476,0.000242,283.000079,0.000000,-0.046650,0.000004,53.128299,0.000026,-1.878623,1.076647,0.000091,5774.610390,1301.452795,0.286730
1.901000000,40.242917319,140.010166370,83.194761,97.997318,0.000155,1.812501,98.014078,28.942706,73.884582,0.000249,283.000084,0.000000,-0.047301,0.000004,53.480294,0.000020,-1.962563,1.059589,0.000091,5837.329975,1308.607031,0.288299
1.911000000,40.242917934,140.010163036,84.133735,98.535975,0.000155,1.792486,98.552278,29.117803,73.857316,0.000257,283.000090,0.000000,-0.047949,0.000004,54.145659,0.000013,-2.047020,1.042163,0.000090,5901.079022,1322.044592,0.289885
1.921000000,40.242918553,140.010159682,85.077815,99.076010,0.000155,1.771624,99.091848,29.293573,73.829679,0.000265,283.000096,0.000000,-0.048593,0.000004,53.864398,0.000006,-2.131745,1.024423,0.000090,5965.330610,1316.507812,0.291475
1.931000000,40.242919176,140.010156309,86.026986,99.613385,0.000155,1.749914,99.628754,29.468897,73.801675,0.000272,283.000102,0.000000,-0.049232,0.000004,53.598378,-0.000001,-2.216494,1.006415,0.000089,6029.598787,1311.282154,0.293058
1.941000000,40.242919803,140.010152915,86.981219,100.147478,0.000155,1.727357,100.162374,29.643604,73.773306,0.000280,283.000108,0.000000,-0.049866,0.000004,53.276186,-0.000008,-2.301182,0.988148,0.000089,6093.802412,1304.936621,0.294630
1.951000000,40.242920433,140.010149501,87.940490,100.681144,0.000155,1.703954,100.695562,29.818492,73.744575,0.000288,283.000114,0.000000,-0.050496,0.000004,53.512938,-0.000015,-2.385900,0.969596,0.000088,6158.284298,1309.789075,0.296202
1.961000000,40.242921067,140.010146066,88.904821,101.219973,0.000155,1.679702,101.233909,29.995133,73.715485,0.000297,283.000121,0.000000,-0.051119,0.000005,54.184677,-0.000023,-2.470888,0.950711,0.000088,6223.730883,1323.350989,0.297789
1.971000000,40.242921705,140.010142612,89.874262,101.762101,0.000155,1.654598,101.775552,30.173011,73.686039,0.000305,283.000127,0.000000,-0.051737,0.000005,54.181916,-0.000030,-2.556010,0.931517,0.000087,6289.921433,1323.413232,0.299385
1.981000000,40.242922346,140.010139137,90.848812,102.301247,0.000154,1.628645,102.314210,30.350369,73.656241,0.000314,283.000134,0.000000,-0.052348,0.000005,53.687659,-0.000038,-2.640897,0.912077,0.000086,6356.081907,1313.646057,0.300973
1.991000000,40.242922991,140.010135642,91.828433,102.837469,0.000154,1.601843,102.849944,30.527224,73.626095,0.000322,283.000141,0.000000,-0.052952,0.000005,53.650312,-0.000046,-2.725500,0.892393,0.000086,6422.213944,1313.023987,0.302552
2.001000000,40.242923640,140.010132126,92.813128,103.377985,0.000153,1.574196,103.389970,30.705614,73.595604,0.000331,283.000147,0.000000,-0.053549,0.000005,54.378181,-0.000054,-2.810147,0.872408,0.000085,6489.217413,1327.705835,0.304144
2.011000000,40.242924293,140.010128590,93.802946,103.922045,0.000153,1.545702,103.933539,30.885335,73.564773,0.000340,283.000155,0.000000,-0.054138,0.000005,54.461885,-0.000062,-2.894750,0.852136,0.000084,6557.006080,1329.509888,0.305747
2.021000000,40.242924949,140.010125033,94.797905,104.468342,0.000152,1.516363,104.479346,31.066026,73.533606,0.000349,283.000162,0.000000,-0.054720,0.000005,54.654372,-0.000070,-2.979188,0.831592,0.000083,6625.420950,1333.491430,0.307356
2.031000000,40.242925610,140.010121455,95.798004,105.009401,0.000151,1.486181,105.019917,31.245571,73.502109,0.000359,283.000169,0.000000,-0.055293,0.000005,53.557409,-0.000078,-3.062990,0.810844,0.000083,6693.513420,1311.717517,0.308950
2.041000000,40.242926274,140.010117857,96.803152,105.539487,0.000151,1.455166,105.549518,31.422338,73.470285,0.000368,283.000177,0.000000,-0.055857,0.000005,52.665515,-0.000087,-3.145760,0.789937,0.000082,6760.538806,1294.049634,0.310511
2.051000000,40.242926942,140.010114239,97.813287,106.070935,0.000150,1.423326,106.080484,31.599835,73.438141,0.000378,283.000184,0.000000,-0.056412,0.000005,53.483839,-0.000095,-3.228115,0.768784,0.000081,6828.063851,1310.535547,0.312077
2.061000000,40.242927613,140.010110600,98.828446,106.603553,0.000149,1.390664,106.612624,31.778010,73.405681,0.000387,283.000192,0.000000,-0.056957,0.000005,53.258125,-0.000104,-3.309989,0.747392,0.000080,6896.066360,1306.180834,0.313646
2.071000000,40.242928288,140.010106941,99.848646,107.144826,0.000148,1.357184,107.153421,31.959008,73.372911,0.000397,283.000200,0.000000,-0.057492,0.000006,54.796900,-0.000112,-3.391754,0.725716,0.000079,6965.521266,1337.037463,0.315241
2.081000000,40.242928968,140.010103260,100.873989,107.691508,0.000146,1.322887,107.699633,32.141914,73.339838,0.000407,283.000208,0.000000,-0.058016,0.000006,54.433455,-0.000121,-3.473176,0.703788,0.000078,7036.021186,1329.945374,0.316851
2.091000000,40.242929651,140.010099559,101.904447,108.229250,0.000145,1.287780,108.236911,32.322617,73.306468,0.000417,283.000216,0.000000,-0.058528,0.000006,53.302232,-0.000130,-3.553350,0.681709,0.000077,7105.692574,1307.549475,0.318436
2.101000000,40.242930337,140.010095837,102.939945,108.765039,0.000144,1.251877,108.772244,32.503124,73.272807,0.000428,283.000225,0.000000,-0.059030,0.000006,53.833819,-0.000139,-3.632609,0.659441,0.000076,7175.439948,1318.311889,0.320014
2.111000000,40.242931028,140.010092094,103.980509,109.305052,0.000142,1.215184,109.311807,32.685212,73.238862,0.000438,283.000233,0.000000,-0.059519,0.000006,54.218716,-0.000148,-3.711252,0.636952,0.000075,7246.078246,1326.150525,0.321605
2.121000000,40.242931722,140.010088331,105.026182,109.851411,0.000141,1.177707,109.857724,32.869505,73.204639,0.000449,283.000242,0.000000,-0.059996,0.000006,54.859584,-0.000157,-3.789347,0.614239,0.000073,7317.898360,1339.090429,0.323215
2.131000000,40.242932421,140.010084546,106.076998,110.394497,0.000139,1.139453,110.400377,33.053229,73.170147,0.000459,283.000250,0.000000,-0.060459,0.000006,53.841817,-0.000167,-3.866250,0.591366,0.000072,7389.624566,1318.996215,0.324816
2.141000000,40.242933123,140.010080740,107.132889,110.931620,0.000138,1.100437,110.937078,33.235605,73.135392,0.000470,283.000259,0.000000,-0.060910,0.000006,53.632803,-0.000176,-3.941719,0.568353,0.000071,7460.888943,1315.014771,0.326399
2.151000000,40.242933829,140.010076913,108.193831,111.469152,0.000136,1.060671,111.474198,33.418480,73.100383,0.000481,283.000268,0.000000,-0.061346,0.000006,53.826714,-0.000185,-4.016065,0.545175,0.000070,7532.540986,1319.058422,0.327983
2.161000000,40.242934539,140.010073065,109.259829,112.006277,0.000134,1.020168,112.010923,33.601620,73.065128,0.000493,283.000277,0.000000,-0.061768,0.000006,53.614069,-0.000195,-4.089167,0.521843,0.000068,7604.470706,1315.014734,0.329566
2.171000000,40.242935253,140.010069196,110.330869,112.542057,0.000132,0.978939,112.546315,33.784755,73.029635,0.000504,283.000287,0.000000,-0.062176,0.000007,53.494976,-0.000204,-4.160891,0.498371,0.000067,7676.549070,1312.837317,0.331145
2.181000000,40.242935970,140.010065306,111.406932,113.074299,0.000130,0.937000,113.078181,33.967244,72.993912,0.000515,283.000296,0.000000,-0.062568,0.000007,53.025303,-0.000214,-4.231025,0.474776,0.000066,7748.472998,1303.692359,0.332714
2.191000000,40.242936692,140.010061395,112.487985,113.605441,0.000128,0.894367,113.608961,34.149801,72.957968,0.000527,283.000306,0.000000,-0.062944,0.000007,53.228110,-0.000223,-4.299643,0.451056,0.000064,7820.571429,1307.922705,0.334280
2.201000000,40.242937417,140.010057463,113.574041,114.139862,0.000125,0.851054,114.143035,34.333712,72.921813,0.000538,283.000315,0.000000,-0.063304,0.000007,53.571649,-0.000233,-4.366948,0.427203,0.000063,7893.447870,1314.952490,0.335856
2.211000000,40.242938146,140.010053510,114.665119,114.673492,0.000123,0.807074,114.676332,34.517786,72.885456,0.000550,283.000325,0.000000,-0.063648,0.000007,53.166773,-0.000242,-4.432609,0.403242,0.000061,7966.542757,1307.113928,0.337429
2.221000000,40.242938879,140.010049536,115.761191,115.203697,0.000120,0.762446,115.206220,34.701250,72.848907,0.000562,283.000335,0.000000,-0.063974,0.000007,52.921343,-0.000252,-4.496380,0.379192,0.000060,8039.487182,1302.448096,0.338992
2.231000000,40.242939616,140.010045541,116.862235,115.733797,0.000118,0.717189,115.736019,34.885082,72.812175,0.000574,283.000345,0.000000,-0.064283,0.000007,53.098635,-0.000262,-4.558394,0.355051,0.000058,8112.739785,1306.180762,0.340556
2.241000000,40.242940357,140.010041524,117.968262,116.265669,0.000115,0.671319,116.267608,35.069839,72.775271,0.000586,283.000355,0.000000,-0.064574,0.000007,53.325983,-0.000271,-4.618697,0.330822,0.000057,8186.564750,1310.908801,0.342124
2.251000000,40.242941102,140.010037486,119.079299,116.802323,0.000112,0.624853,116.803994,35.256418,72.738204,0.000599,283.000365,0.000000,-0.064847,0.000007,53.891795,-0.000281,-4.677409,0.306510,0.000055,8261.390876,1322.355616,0.343707
2.261000000,40.242941850,140.010033427,120.195380,117.338990,0.000110,0.577808,117.340412,35.443410,72.700986,0.000611,283.000376,0.000000,-0.065101,0.000007,53.629803,-0.000291,-4.734147,0.282137,0.000054,8336.549746,1317.378796,0.345290
2.271000000,40.242942603,140.010029346,121.316512,117.882446,0.000107,0.530204,117.883639,35.632836,72.663628,0.000624,283.000386,0.000000,-0.065336,0.000008,54.750856,-0.000300,-4.789277,0.257699,0.000052,8413.008332,1339.836975,0.346893
2.281000000,40.242943359,140.010025244,122.442747,118.421582,0.000104,0.482057,118.422563,35.821389,72.626140,0.000637,283.000397,0.000000,-0.065551,0.000008,53.208099,-0.000310,-4.841995,0.233232,0.000050,8489.186700,1309.478028,0.348483
2.291000000,40.242944120,140.010021120,123.573983,118.951879,0.000100,0.433397,118.952668,36.007717,72.588534,0.000649,283.000408,0.000000,-0.065746,0.000008,53.017564,-0.000319,-4.891922,0.208754,0.000048,8564.425792,1305.931946,0.350047
2.301000000,40.242944884,140.010016974,124.710207,119.488589,0.000097,0.384247,119.489207,36.196380,72.550822,0.000662,283.000418,0.000000,-0.065920,0.000008,54.079519,-0.000329,-4.939981,0.184249,0.000047,8640.914843,1327.208045,0.351631
2.311000000,40.242945653,140.010012807,125.851472,120.023671,0.000094,0.334626,120.024138,36.384972,72.513015,0.000675,283.000429,0.000000,-0.066074,0.000008,53.071983,-0.000338,-4.985566,0.159740,0.000045,8717.497705,1307.487232,0.353209
2.321000000,40.242946425,140.010008618,126.997723,120.555430,0.000090,0.284562,120.555766,36.572984,72.475125,0.000688,283.000440,0.000000,-0.066207,0.000008,53.191813,-0.000348,-5.028486,0.135242,0.000043,8793.923851,1310.100061,0.354779
2.331000000,40.242947201,140.010004408,128.148946,121.083987,0.000087,0.234080,121.084214,36.760447,72.437165,0.000702,283.000451,0.000000,-0.066318,0.000008,52.692507,-0.000357,-5.068670,0.110764,0.000041,8870.204723,1300.457336,0.356338
2.341000000,40.242947982,140.010000176,129.305121,121.616195,0.000083,0.183208,121.616333,36.949431,72.399148,0.000715,283.000463,0.000000,-0.066406,0.000008,53.673514,-0.000366,-5.106497,0.086313,0.000039,8947.342351,1320.116015,0.357909
2.351000000,40.242948766,140.009995922,130.466313,122.154440,0.000080,0.131967,122.154511,37.140663,72.361085,0.000729,283.000474,0.000000,-0.066473,0.000008,53.871696,-0.000376,-5.142048,0.061898,0.000037,9025.696243,1324.284229,0.359498
2.361000000,40.242949554,140.009991646,131.632536,122.689477,0.000076,0.080384,122.689503,37.331345,72.322989,0.000742,283.000486,0.000000,-0.066517,0.000008,53.170213,-0.000385,-5.174635,0.037539,0.000035,9103.905489,1310.659961,0.361077
2.371000000,40.242950347,140.009987349,132.803738,123.219227,0.000072,0.028489,123.219231,37.520844,72.284875,0.000756,283.000497,0.000000,-0.066538,0.000009,52.877464,-0.000394,-5.204043,0.013247,0.000033,9181.654275,1305.123169,0.362641
2.381000000,40.242951143,140.009983029,133.979897,123.750928,0.000068,-0.023687,123.750930,37.711357,72.246755,0.000770,283.000509,0.000000,-0.066535,0.000009,53.431153,-0.000403,-5.230678,-0.010967,0.000031,9260.015407,1316.321130,0.364210
2.391000000,40.242951943,140.009978688,135.161049,124.286591,0.000064,-0.076117,124.286615,37.903501,72.208642,0.000784,283.000520,0.000000,-0.066509,0.000009,53.660622,-0.000411,-5.254601,-0.035090,0.000029,9339.294910,1321.111389,0.365792
2.401000000,40.242952748,140.009974324,136.347214,124.822503,0.000060,-0.128773,124.822569,38.096146,72.170551,0.000798,283.000532,0.000000,-0.066458,0.000009,53.496391,-0.000420,-5.275491,-0.059109,0.000027,9418.939325,1318.125293,0.367374
2.411000000,40.242953556,140.009969939,137.538378,125.355511,0.000056,-0.181624,125.355642,38.288324,72.132494,0.000812,283.000544,0.000000,-0.066384,0.000009,53.057924,-0.000428,-5.293067,-0.083014,0.000025,9498.471463,1309.726807,0.368948
2.421000000,40.242954368,140.009965531,138.734495,125.881770,0.000051,-0.234633,125.881988,38.478852,72.094487,0.000826,283.000556,0.000000,-0.066285,0.000009,52.382964,-0.000437,-5.307006,-0.106795,0.000023,9577.300479,1296.662573,0.370502
2.431000000,40.242955185,140.009961102,139.935526,126.410734,0.000047,-0.287768,126.411061,38.670631,72.056543,0.000840,283.000568,0.000000,-0.066161,0.000009,53.302669,-0.000445,-5.317864,-0.130431,0.000021,9656.858079,1315.076953,0.372064
2.441000000,40.242956005,140.009956650,141.141523,126.943536,0.000042,-0.340998,126.943994,38.864012,72.018676,0.000854,283.000580,0.000000,-0.066012,0.000009,53.175722,-0.000453,-5.325648,-0.153908,0.000019,9737.322826,1312.837390,0.373638
2.451000000,40.242956830,140.009952177,142.352477,127.470968,0.000038,-0.394289,127.471577,39.056153,71.980902,0.000869,283.000592,0.000000,-0.065837,0.000009,52.465212,-0.000461,-5.329684,-0.177225,0.000017,9817.283320,1299.088733,0.375196
2.461000000,40.242957658,140.009947681,143.568346,127.999023,0.000033,-0.447604,127.999805,39.248904,71.943234,0.000883,283.000605,0.000000,-0.065637,0.000009,53.123702,-0.000468,-5.330305,-0.200359,0.000015,9897.656232,1312.339660,0.376756
2.471000000,40.242958491,140.009943163,144.789170,128.532559,0.000028,-0.500911,128.533535,39.443771,71.905687,0.000898,283.000617,0.000000,-0.065411,0.000009,53.545623,-0.000476,-5.327762,-0.223289,0.000013,9979.196741,1320.924792,0.378332
2.481000000,40.242959328,140.009938622,146.014987,129.068420,0.000024,-0.554178,129.069610,39.639777,71.868276,0.000912,283.000629,0.000000,-0.065160,0.000009,53.550873,-0.000483,-5.321783,-0.246008,0.000010,10061.422869,1321.298059,0.379915
2.491000000,40.242960169,140.009934059,147.245793,129.600544,0.000019,-0.607368,129.601967,39.835037,71.831016,0.000927,283.000642,0.000000,-0.064882,0.000009,53.016120,-0.000490,-5.311915,-0.268513,0.000008,10143.389735,1311.033227,0.381488
2.501000000,40.242961013,140.009929474,148.481558,130.134427,0.000014,-0.660442,130.136103,40.031259,71.793922,0.000942,283.000654,0.000000,-0.064578,0.000010,53.621481,-0.000497,-5.298457,-0.290778,0.000006,10225.953782,1323.226611,0.383065
2.511000000,40.242961863,140.009924866,149.722309,130.667413,0.000009,-0.713366,130.669360,40.227613,71.757009,0.000957,283.000667,0.000000,-0.064247,0.000010,53.061031,-0.000503,-5.281182,-0.312797,0.000004,10308.698937,1312.464161,0.384640
2.521000000,40.242962716,140.009920235,150.968016,131.199060,0.000004,-0.766098,131.201297,40.423957,71.720293,0.000972,283.000680,0.000000,-0.063890,0.000010,53.202064,-0.000509,-5.260008,-0.334558,0.000002,10391.553330,1315.512464,0.386212
2.531000000,40.242963573,140.009915582,152.218674,131.728798,-0.000001,-0.818601,131.731342,40.620108,71.683788,0.000987,283.000692,0.000000,-0.063507,0.000010,52.783494,-0.000515,-5.234852,-0.356048,-0.000001,10474.423366,1307.549414,0.387777
2.541000000,40.242964434,140.009910907,153.474253,132.256248,-0.000007,-0.870834,132.259115,40.815942,71.647509,0.001002,283.000705,0.000000,-0.063096,0.000010,52.712700,-0.000521,-5.205644,-0.377255,-0.000003,10557.244631,1306.429688,0.389336
