time_sec,lat_deg,lon_deg,alt_agl_m,u_mps,v_mps,w_mps,true_airspeed_mps,ground_speed_mps,pitch_deg,roll_deg,yaw_deg,p_rad_sec,q_rad_sec,r_rad_sec,ax_mps2,ay_mps2,az_mps2,alpha_deg,beta_deg,qbar_pa,thrust_n,mach
0.001000000,40.242865000,140.010450000,0.000000,0.000000,0.000000,0.000000,0.603372,0.000000,75.000000,0.000000,279.000000,0.000000,0.000000,0.000000,-9.443100,0.000000,0.000000,0.000000,0.000000,0.000000,0.622109,0.000000
0.011000000,40.242865000,140.010450000,0.000000,0.000000,0.000000,0.000000,0.603372,0.000000,75.000000,0.000000,279.000000,0.000000,0.000000,0.000000,-9.443100,0.000000,0.000000,0.000000,0.000000,0.000000,0.622109,0.000000
0.021000000,40.242865000,140.010450000,0.000000,0.000000,0.000000,0.000000,0.603372,0.000000,75.000000,0.000000,279.000000,0.000000,0.000000,0.000000,-8.825782,0.000000,0.000000,0.000000,0.000000,0.000000,13.686406,0.000000
0.031000000,40.242865000,140.010450000,0.000000,0.000000,0.000000,0.000000,0.603372,0.000000,75.000000,0.000000,279.000000,0.000000,0.000000,0.000000,-3.710777,0.000000,0.000000,0.000000,0.000000,0.000000,121.933434,0.000000
0.041000000,40.242865000,140.010450000,0.000000,0.000000,0.000000,0.000000,0.603372,0.000000,75.000000,0.000000,279.000000,0.000000,0.000000,0.000000,-2.123146,0.000000,0.000000,0.000000,0.000000,0.000000,155.527344,0.000000
0.051000000,40.242865000,140.010450000,0.000001,0.000726,0.000000,0.000000,0.602647,0.000188,75.000000,0.000000,279.000000,0.000000,0.000000,0.000000,0.493611,0.000000,0.000000,0.000000,0.000000,0.000000,210.895065,0.000000
0.061000000,40.242865000,140.010450000,0.000075,0.018600,0.000000,0.000000,0.584772,0.004814,75.000000,0.000000,279.000000,0.000000,0.000000,0.000000,2.846117,0.000000,0.000000,0.000000,0.000000,0.000000,260.663818,0.000000
0.071000000,40.242865000,140.010449999,0.000450,0.064206,0.000000,0.000000,0.539166,0.016618,75.000000,0.000000,279.000000,0.000000,0.000000,0.000000,5.963491,0.000000,0.000000,0.000000,0.000000,0.000000,326.607422,0.000000
0.081000000,40.242865001,140.010449996,0.001430,0.144871,0.000000,0.000000,0.458501,0.037495,75.000000,0.000000,279.000000,0.000000,0.000000,0.000000,9.787248,0.000000,0.000000,0.000000,0.000000,0.000000,407.481628,0.000000
0.091000000,40.242865001,140.010449990,0.003338,0.253428,0.000000,0.000000,0.349945,0.065592,75.000000,0.000000,279.000000,0.000000,0.000000,0.000000,11.729879,0.000000,0.000000,0.000000,0.000000,0.000000,448.540833,0.000000
0.101000000,40.242865002,140.010449980,0.006393,0.382708,0.000000,0.000000,0.220665,0.099052,75.000000,0.000000,279.000000,0.000000,0.000000,0.000000,13.908365,0.000000,0.000000,0.000000,0.000000,0.000000,494.576935,0.000000
0.111000000,40.242865004,140.010449966,0.010820,0.539276,0.000000,0.000000,0.064096,0.139575,75.000000,0.000000,279.000000,0.000000,0.000000,0.000000,17.087652,0.000000,0.000000,0.000000,0.000000,0.000000,561.764771,0.000000
0.121000000,40.242865006,140.010449947,0.016924,0.730880,0.000000,0.000000,0.127508,0.189166,75.000000,0.000000,279.000000,0.000000,0.000000,0.000000,20.856467,0.000000,0.000000,0.000000,0.000000,0.000000,641.394714,0.000000
0.131000000,40.242865009,140.010449922,0.025027,0.949986,0.000000,0.000000,0.346614,0.245875,75.000000,0.000000,279.000000,0.000000,0.000000,0.000000,22.773182,0.000000,0.000000,0.000000,0.000000,0.000000,681.831848,0.000000
0.141000000,40.242865013,140.010449890,0.035355,1.192957,0.000000,0.000000,0.589585,0.308760,75.000000,0.000000,279.000000,0.000000,0.000000,0.000000,25.544148,0.000000,0.000000,0.000000,0.000000,0.000000,740.310120,0.000000
0.151000000,40.242865018,140.010449850,0.048205,1.476109,0.000000,0.000000,0.872737,0.382045,75.000000,0.000000,279.000000,0.000000,0.000000,0.000000,30.582793,0.000000,0.000000,0.000000,0.000000,0.000000,846.690857,0.000000
0.161000000,40.242865024,140.010449801,0.064023,1.806262,0.000000,0.000000,1.202890,0.467495,75.000000,0.000000,279.000000,0.000000,0.000000,0.000000,35.005973,0.000000,0.000000,0.000000,0.000000,0.000000,940.007263,0.000000
0.171000000,40.242865031,140.010449741,0.083248,2.182281,0.000000,0.000000,1.578909,0.564816,75.000000,0.000000,279.000000,0.000000,0.000000,0.000000,39.726300,0.000000,0.000000,0.000000,0.000000,0.000000,1039.544678,0.000000
0.181000000,40.242865040,140.010449669,0.106260,2.583655,0.000000,0.000000,1.980283,0.668699,75.000000,0.000000,279.000000,0.000000,0.000000,0.000000,40.473697,0.000000,0.000000,0.000000,0.000000,0.000000,1055.097412,0.000000
0.191000000,40.242865050,140.010449585,0.133183,2.991857,0.000000,0.000000,2.388485,0.774350,75.000000,0.000000,279.000000,0.000000,0.000000,0.000000,41.103769,0.000000,0.000000,0.000000,0.000000,0.000000,1068.161743,0.000000
0.201000000,40.242865062,140.010449489,0.164103,3.413654,0.000000,0.000000,2.810282,0.883519,75.000000,0.000000,279.000000,0.000000,0.000000,0.000000,43.060255,0.000000,0.000000,0.000000,0.000000,0.000000,1109.220947,0.000000
0.211000000,40.242865075,140.010449380,0.199170,3.848216,0.000000,0.000000,3.244844,0.995992,75.000000,0.000000,279.000000,0.000000,0.000000,0.000000,43.780261,0.000000,0.000000,0.000000,0.000000,0.000000,1124.151611,0.000000
0.221000000,40.242865090,140.010449257,0.238493,4.297439,0.000000,0.000000,3.694067,1.112259,75.000000,0.000000,279.000000,0.000000,0.000000,0.000000,45.856906,0.000000,0.000000,0.000000,0.000000,0.000000,1167.699219,0.000000
0.231000000,40.242865106,140.010449121,0.282223,4.757545,0.000000,0.000000,4.154173,1.231343,75.000000,0.000000,279.000000,0.000000,0.000000,0.000000,46.136326,0.000000,0.000000,0.000000,0.000000,0.000000,1173.298218,0.000000
0.241000000,40.242865124,140.010448971,0.330436,5.227745,0.000000,0.000000,4.624373,1.353040,75.000000,0.000000,279.000000,0.000000,0.000000,0.000000,47.743276,0.000000,0.000000,0.000000,0.000000,0.000000,1206.892090,0.000000
0.251000000,40.242865144,140.010448806,0.383260,5.711588,0.000000,0.000000,5.108216,1.478268,75.000000,0.000000,279.000000,0.000000,0.000000,0.000000,48.908929,0.000000,0.000000,0.000000,0.000000,0.000000,1231.154419,0.000000
0.261000000,40.242865166,140.010448627,0.440803,6.204009,0.000000,0.000000,5.600637,1.605716,75.000000,0.000000,279.000000,0.000000,0.000000,0.000000,49.514779,0.000000,0.000000,0.000000,0.000000,0.000000,1243.596558,0.000000
0.271000000,40.242865189,140.010448433,0.503142,6.705738,0.000000,0.000000,6.102366,1.735573,75.000000,0.000000,279.000000,0.000000,0.000000,0.000000,50.711521,0.000000,0.000000,0.000000,0.000000,0.000000,1268.480957,0.000000
0.281000000,40.242865215,140.010448223,0.570385,7.218953,0.000000,0.000000,6.615581,1.868403,75.000000,0.000000,279.000000,0.000000,0.000000,0.000000,51.820662,0.000000,0.000000,0.000000,0.000000,0.000000,1291.499023,0.000000
0.291000000,40.242865242,140.010447998,0.642628,7.740341,0.000000,0.000000,7.136968,2.003348,75.000000,0.000000,279.000000,0.000000,0.000000,0.000000,52.399068,0.000000,0.000000,0.000000,0.000000,0.000000,1303.319092,0.000000
0.301000000,40.242865271,140.010447758,0.719932,8.266540,0.000000,0.000000,7.663168,2.139538,75.000000,0.000000,279.000000,0.000000,0.000000,0.000000,52.800690,0.000000,0.000000,0.000000,0.000000,0.000000,1311.406494,0.000000
0.311000000,40.242865302,140.010447501,0.802350,8.800170,0.000000,0.000000,8.196798,2.277652,75.000000,0.000000,279.000000,0.000000,0.000000,0.000000,53.823280,0.000000,0.000000,0.000000,0.000000,0.000000,1332.558228,0.000000
0.321000000,40.242865335,140.010447228,0.889972,9.344194,0.000000,0.000000,8.740822,2.418455,75.000000,0.000000,279.000000,0.000000,0.000000,0.000000,54.876313,0.000000,0.000000,0.000000,0.000000,0.000000,1354.332031,0.000000
0.331000000,40.242865370,140.010446939,0.982878,9.892411,0.000000,0.000000,9.289039,2.560344,75.000000,0.000000,279.000000,0.000000,0.000000,0.000000,54.776999,0.000000,0.000000,0.000000,0.000000,0.000000,1351.843628,0.000000
0.341000000,40.242865407,140.010446633,1.081098,10.446466,0.000000,0.000000,9.843094,2.703744,75.000000,0.000000,279.000000,0.000000,0.000000,0.000000,55.919944,0.000000,0.000000,0.000000,0.000000,0.000000,1375.483765,0.000000
0.351000000,40.242865446,140.010446310,1.184726,11.011957,0.000000,0.000000,10.408585,2.850104,75.000000,0.000000,279.000000,0.000000,0.000000,0.000000,57.063910,0.000000,0.000000,0.000000,0.000000,0.000000,1399.123901,0.000000
0.361000000,40.242865487,140.010445970,1.293832,11.577499,0.000000,0.000000,10.974127,2.996477,75.000000,0.000000,279.000000,0.000000,0.000000,0.000000,56.137059,0.000000,0.000000,0.000000,0.000000,0.000000,1379.216431,0.000000
0.371000000,40.242865530,140.010445613,1.408381,12.141257,0.000000,0.000000,11.537885,3.142389,75.000000,0.000000,279.000000,0.000000,0.000000,0.000000,56.571276,0.000000,0.000000,0.000000,0.000000,0.000000,1387.926025,0.000000
0.381000000,40.242865576,140.010445240,1.528399,12.710012,0.000000,0.000000,12.106639,3.289593,75.000000,0.000000,279.000000,0.000000,0.000000,0.000000,57.124337,0.000000,0.000000,0.000000,0.000000,0.000000,1399.123901,0.000000
0.391000000,40.242865623,140.010444849,1.653925,13.280552,0.000000,0.000000,12.677180,3.437260,75.000000,0.000000,279.000000,0.000000,0.000000,0.000000,56.996534,0.000000,0.000000,0.000000,0.000000,0.000000,1396.013428,0.000000
0.401000000,40.242865672,140.010444441,1.784971,13.854377,0.000000,0.000000,13.251005,3.585777,75.000000,0.000000,279.000000,0.000000,0.000000,0.000000,57.698351,0.000000,0.000000,0.000000,0.000000,0.000000,1410.321899,0.000000
0.411000000,40.242865724,140.010444015,1.921578,14.430496,0.000000,0.000000,13.827124,3.734887,75.000000,0.000000,279.000000,0.000000,0.000000,0.000000,57.541162,0.000000,0.000000,0.000000,0.000000,0.000000,1406.589233,0.000000
0.421000000,40.242865777,140.010443572,2.063767,15.012543,0.000000,0.000000,14.409171,3.885532,75.000000,0.000000,279.000000,0.000000,0.000000,0.000000,58.747825,0.000000,0.000000,0.000000,0.000000,0.000000,1431.473633,0.000000
0.431000000,40.242865833,140.010443112,2.211607,15.598018,0.000000,0.000000,14.994646,4.037064,75.000000,0.000000,279.000000,0.000000,0.000000,0.000000,58.383546,0.000000,0.000000,0.000000,0.000000,0.000000,1423.386230,0.000000
0.441000000,40.242865891,140.010442634,2.365097,16.183275,0.000000,0.000000,15.579903,4.188540,75.000000,0.000000,279.000000,0.000000,0.000000,0.000000,58.642002,0.000000,0.000000,0.000000,0.000000,0.000000,1428.363037,0.000000
0.451000000,40.242865950,140.010442138,2.524244,16.768670,0.000000,0.000000,16.165297,4.340051,75.000000,0.000000,279.000000,0.000000,0.000000,0.000000,58.455498,0.000000,0.000000,0.000000,0.000000,0.000000,1424.008301,0.000000
0.461000000,40.242866013,140.010441625,2.689028,17.349422,0.000000,0.000000,16.746050,4.490361,75.000000,0.000000,279.000000,0.000000,0.000000,0.000000,57.764093,0.000000,0.000000,0.000000,0.000000,0.000000,1409.077637,0.000000
0.471000000,40.242866077,140.010441094,2.859421,17.933383,0.000000,0.000000,17.330011,4.641501,75.000000,0.000000,279.000000,0.000000,0.000000,0.000000,58.913346,0.000000,0.000000,0.000000,0.000000,0.000000,1432.717896,0.000000
0.481000000,40.242866143,140.010440546,3.035474,18.517897,0.000000,0.000000,17.914525,4.792784,75.000000,0.000000,279.000000,0.000000,0.000000,0.000000,58.073243,0.000000,0.000000,0.000000,0.000000,0.000000,1414.676636,0.000000
0.491000000,40.242866211,140.010439980,3.217154,19.100378,0.000000,0.000000,18.497006,4.943542,75.000000,0.000000,279.000000,0.000000,0.000000,0.000000,58.391311,0.000000,0.000000,0.000000,0.000000,0.000000,1420.897705,0.000000
0.501000000,40.242866282,140.010439397,3.404464,19.682609,0.000000,0.000000,19.079237,5.094234,75.000000,0.000000,279.000000,0.000000,0.000000,0.000000,58.085425,0.000000,0.000000,0.000000,0.000000,0.000000,1414.054565,0.000000
0.511000000,40.242866355,140.010438796,3.597387,20.263088,0.000000,0.000000,19.659716,5.244473,75.000000,0.000000,279.000000,0.000000,0.000000,0.000000,58.017127,0.000000,0.000000,0.000000,0.000000,0.000000,1412.188232,0.000000
0.521000000,40.242866429,140.010438177,3.795933,20.848445,0.000000,0.000000,20.245073,5.395975,75.000000,0.000000,279.000000,0.000000,0.000000,0.000000,58.960073,0.000000,0.000000,0.000000,0.000000,0.000000,1431.473633,0.000000
0.531000000,40.242866506,140.010437541,4.000160,21.437509,0.000000,0.000000,20.834137,5.548436,75.000000,0.000000,279.000000,0.000000,0.000000,0.000000,58.862513,0.000000,0.000000,0.000000,0.000000,0.000000,1428.985229,0.000000
0.541000000,40.242866585,140.010436887,4.210053,22.020360,0.000000,0.000000,21.416987,5.699288,75.000000,0.000000,279.000000,0.000000,0.000000,0.000000,57.812430,0.000000,0.000000,0.000000,0.000000,0.000000,1406.589233,0.000000
0.551000000,40.242866666,140.010436216,4.425546,22.598598,0.000000,0.000000,21.995226,5.848948,75.000000,0.000000,279.000000,0.000000,0.000000,0.000000,57.833170,0.000000,0.000000,0.000000,0.000000,0.000000,1406.589233,0.000000
0.561000000,40.242866750,140.010435528,4.646633,23.179173,0.000000,0.000000,22.575801,5.999211,75.000000,0.000000,279.000000,0.000000,0.000000,0.000000,58.241080,0.000000,0.000000,0.000000,0.000000,0.000000,1414.676636,0.000000
0.571000000,40.242866836,140.010434822,4.873317,23.695328,0.000000,0.002540,23.695328,6.135255,75.000000,-0.000000,279.000000,-0.000000,-0.000000,-0.000000,58.467682,0.000185,2.539557,0.006141,0.000000,343.741142,0.000000,0.069636
0.581000000,40.242866930,140.010434096,5.105285,24.314358,-0.000071,0.027879,25.215472,6.319949,74.999997,0.000015,279.000016,-0.000000,-0.000056,0.000073,58.495534,-0.022042,2.522502,5.227373,7.105927,389.251770,0.000000,0.074103
0.591000000,40.242867028,140.010433350,5.342859,24.897890,-0.000321,0.053080,25.794488,6.495355,74.999917,0.000406,279.000419,-0.000000,-0.000246,0.000318,58.270589,-0.028635,2.517256,5.164562,6.945061,407.324270,0.000000,0.075805
0.601000000,40.242867127,140.010432584,5.586003,25.482154,-0.000639,0.078228,26.374449,6.670947,74.999726,0.001326,279.001371,-0.000000,-0.000443,0.000569,58.609044,-0.035630,2.511629,5.104285,6.790914,425.836727,0.000000,0.077510
0.611000000,40.242867230,140.010431797,5.834746,26.071146,-0.001029,0.103317,26.959296,6.847760,74.999421,0.002787,279.002883,-0.000000,-0.000646,0.000825,59.031146,-0.043042,2.505602,5.045620,6.642080,444.921159,0.000000,0.079229
0.621000000,40.242867335,140.010430990,6.089109,26.656451,-0.001494,0.128344,27.540694,7.023618,74.998997,0.004801,279.004968,-0.000000,-0.000856,0.001086,58.187953,-0.050869,2.499170,4.990016,6.500264,464.306878,0.000000,0.080938
0.631000000,40.242867443,140.010430162,6.349044,27.241231,-0.002040,0.153304,28.121756,7.199340,74.998451,0.007380,279.007637,-0.000000,-0.001073,0.001353,58.609787,-0.059121,2.492317,4.936694,6.364258,484.093654,0.000000,0.082646
0.641000000,40.242867553,140.010429314,6.614557,27.822316,-0.002671,0.178195,28.699332,7.374108,74.997779,0.010534,279.010902,-0.000000,-0.001297,0.001626,57.732698,-0.067800,2.485035,4.886043,6.234379,504.170036,0.000000,0.084343
0.651000000,40.242867666,140.010428445,6.885595,28.400900,-0.003390,0.203010,29.274590,7.548231,74.996977,0.014275,279.014775,-0.000000,-0.001528,0.001903,57.989968,-0.076912,2.477311,4.837678,6.109963,524.570392,0.000000,0.086034
0.661000000,40.242867782,140.010427557,7.162170,28.982355,-0.004203,0.227746,29.852843,7.723101,74.996041,0.018614,279.019267,-0.000000,-0.001767,0.002186,58.277172,-0.086480,2.469120,4.790579,5.989583,545.483979,0.000000,0.087734
0.671000000,40.242867900,140.010426647,7.444307,29.565487,-0.005113,0.252398,30.432901,7.898412,74.994966,0.023563,279.024389,-0.000000,-0.002012,0.002475,58.313341,-0.096512,2.460447,4.744863,5.873265,566.872724,0.000000,0.089439
0.681000000,40.242868021,140.010425718,7.732006,30.147186,-0.006126,0.276961,31.011675,8.073358,74.993749,0.029131,279.030153,-0.000000,-0.002265,0.002768,58.053366,-0.107004,2.451286,4.700923,5.761367,588.623090,0.000000,0.091140
0.691000000,40.242868144,140.010424768,8.025251,30.727630,-0.007246,0.301429,31.589331,8.247988,74.992384,0.035331,279.036571,-0.000000,-0.002525,0.003067,57.963523,-0.117966,2.441623,4.658621,5.653592,610.738745,0.000000,0.092838
0.701000000,40.242868270,140.010423798,8.324021,31.303584,-0.008478,0.325799,32.162653,8.421466,74.990868,0.042172,279.043654,-0.000000,-0.002792,0.003371,57.376805,-0.129389,2.431454,4.618318,5.550254,633.090646,0.000000,0.094523
0.711000000,40.242868399,140.010422807,8.628284,31.881149,-0.009826,0.350065,32.737687,8.595372,74.989197,0.049666,279.051412,-0.000000,-0.003068,0.003680,58.079426,-0.141303,2.420749,4.579026,5.450059,655.911792,0.000000,0.096214
0.721000000,40.242868530,140.010421796,8.938085,32.462899,-0.011295,0.374221,33.316980,8.770376,74.987365,0.057823,279.059856,-0.000000,-0.003350,0.003994,58.225578,-0.153732,2.409477,4.540338,5.352440,679.309668,0.000000,0.097916
0.731000000,40.242868664,140.010420765,9.253440,33.043864,-0.012892,0.398262,33.895597,8.945192,74.985369,0.066654,279.068999,-0.000000,-0.003641,0.004314,57.919477,-0.166661,2.397641,4.502888,5.258058,703.088476,0.000000,0.099617
0.741000000,40.242868800,140.010419714,9.574318,33.619370,-0.014620,0.422182,34.468892,9.118610,74.983204,0.076169,279.078849,-0.000000,-0.003940,0.004638,57.247536,-0.180072,2.385209,4.467209,5.167436,727.050652,0.000000,0.101303
0.751000000,40.242868939,140.010418642,9.900668,34.191449,-0.016484,0.445975,35.038875,9.291159,74.980865,0.086378,279.089419,-0.000000,-0.004247,0.004968,57.207235,-0.193976,2.372172,4.432929,5.080045,751.271153,0.000000,0.102978
0.761000000,40.242869081,140.010417551,10.232481,34.765072,-0.018490,0.469634,35.610480,9.464127,74.978347,0.097291,279.100717,-0.000000,-0.004562,0.005302,57.520465,-0.208410,2.358499,4.399288,4.995286,775.958018,0.000000,0.104658
0.771000000,40.242869225,140.010416439,10.569786,35.341978,-0.020642,0.493153,36.185429,9.637968,74.975645,0.108919,279.112756,-0.000000,-0.004887,0.005642,57.938741,-0.223394,2.344161,4.366061,4.912693,801.190817,0.000000,0.106349
0.781000000,40.242869372,140.010415307,10.912629,35.926967,-0.022947,0.516526,36.768488,9.813928,74.972754,0.121270,279.125544,-0.000000,-0.005220,0.005987,58.777061,-0.238971,2.329104,4.332691,4.831390,827.190877,0.000000,0.108063
0.791000000,40.242869521,140.010414154,11.261052,36.506241,-0.025411,0.539745,37.345945,9.988433,74.969668,0.134356,279.139092,-0.000000,-0.005562,0.006337,57.239651,-0.255060,2.313389,4.300787,4.753109,853.348778,0.000000,0.109760
0.801000000,40.242869673,140.010412982,11.614955,37.078237,-0.028037,0.562804,37.916240,10.161078,74.966383,0.148185,279.153410,-0.000000,-0.005913,0.006691,57.273613,-0.271648,2.297017,4.270434,4.677862,879.580183,0.000000,0.111437
0.811000000,40.242869828,140.010411789,11.974337,37.656275,-0.030833,0.585696,38.492608,10.335321,74.962894,0.162767,279.168509,-0.000000,-0.006273,0.007051,58.172051,-0.288838,2.279883,4.240065,4.603877,906.493298,0.000000,0.113131
0.821000000,40.242869985,140.010410575,12.339254,38.235194,-0.033802,0.608413,39.069916,10.509823,74.959194,0.178112,279.184396,-0.000000,-0.006642,0.007416,57.605518,-0.306602,2.261999,4.210239,4.531720,933.855453,0.000000,0.114828
0.831000000,40.242870145,140.010409342,12.709667,38.808143,-0.036952,0.630948,39.641352,10.682812,74.955278,0.194228,279.201083,-0.000000,-0.007020,0.007785,57.155612,-0.324887,2.243399,4.181648,4.462075,961.338141,0.000000,0.116508
0.841000000,40.242870308,140.010408088,13.085553,39.385155,-0.040288,0.653293,40.216885,10.856891,74.951141,0.211124,279.218579,-0.000000,-0.007408,0.008159,58.066431,-0.343783,2.223991,4.153178,4.393706,989.419454,0.000000,0.118200
0.851000000,40.242870473,140.010406814,13.466961,39.962260,-0.043815,0.675441,40.792569,11.031034,74.946777,0.228809,279.236891,-0.000000,-0.007806,0.008538,57.402727,-0.363265,2.203781,4.125221,4.326989,1017.910964,0.000000,0.119893
0.861000000,40.242870641,140.010405520,13.853852,40.535131,-0.047540,0.697383,41.364095,11.204118,74.942180,0.247292,279.256030,-0.000000,-0.008213,0.008922,57.249569,-0.383295,2.182793,4.098177,4.262293,1046.594849,0.000000,0.121573
0.871000000,40.242870812,140.010404206,14.246214,41.110378,-0.051467,0.719111,41.938036,11.377863,74.937345,0.266580,279.276004,-0.000000,-0.008629,0.009310,57.655572,-0.403941,2.160949,4.071343,4.198848,1075.799545,0.000000,0.123261
0.881000000,40.242870985,140.010402872,14.644061,41.682467,-0.055604,0.740616,42.508884,11.550833,74.932266,0.286683,279.296822,-0.000000,-0.009056,0.009703,56.888394,-0.425154,2.138283,4.045233,4.137142,1105.243552,0.000000,0.124939
0.891000000,40.242871161,140.010401517,15.047350,42.253199,-0.059956,0.761891,43.078429,11.723500,74.926938,0.307608,279.318490,-0.000000,-0.009492,0.010101,57.330370,-0.446952,2.114761,4.019633,4.076917,1135.014695,0.000000,0.126613
0.901000000,40.242871339,140.010400142,15.456117,42.831964,-0.064529,0.782927,43.656013,11.898307,74.921353,0.329362,279.341019,-0.000000,-0.009938,0.010503,58.236103,-0.469448,2.090262,3.993646,4.017238,1165.608885,0.000000,0.128312
0.911000000,40.242871521,140.010398747,15.870420,43.410455,-0.069330,0.803713,44.233367,12.073098,74.915506,0.351952,279.364415,-0.000000,-0.010394,0.010910,57.377676,-0.492561,2.064848,3.968036,3.958850,1196.595703,0.000000,0.130009
0.921000000,40.242871705,140.010397332,16.290187,43.976141,-0.074364,0.824241,44.798020,12.244613,74.909392,0.375387,279.388686,-0.000000,-0.010860,0.011321,56.039606,-0.516141,2.038649,3.943882,3.902781,1227.291031,0.000000,0.131669
0.931000000,40.242871891,140.010395897,16.715330,44.542451,-0.079637,0.844503,45.363332,12.416349,74.903004,0.399673,279.413839,-0.000000,-0.011337,0.011736,57.177305,-0.540343,2.011506,3.919936,3.847756,1258.409754,0.000000,0.133332
0.941000000,40.242872080,140.010394441,17.145922,45.117881,-0.085155,0.864489,45.937759,12.590524,74.896336,0.424817,279.439880,-0.000000,-0.011823,0.012156,57.809281,-0.565282,1.983284,3.895455,3.793031,1290.428194,0.000000,0.135021
0.951000000,40.242872272,140.010392966,17.582017,45.694658,-0.090925,0.884188,46.513565,12.765115,74.889381,0.450824,279.466818,-0.000000,-0.012320,0.012580,57.540059,-0.590874,1.954051,3.871110,3.739241,1322.925201,0.000000,0.136714
0.961000000,40.242872467,140.010391470,18.023601,46.268440,-0.096955,0.903590,47.086424,12.938995,74.882134,0.477701,279.494657,-0.000000,-0.012827,0.013008,57.216235,-0.617064,1.923845,3.847239,3.686687,1355.654542,0.000000,0.138398
0.971000000,40.242872664,140.010389954,18.470641,46.838981,-0.103249,0.922685,47.656090,13.112101,74.874588,0.505455,279.523405,-0.000000,-0.013345,0.013440,56.879983,-0.643847,1.892658,3.823830,3.635327,1388.595625,0.000000,0.140073
0.981000000,40.242872864,140.010388418,18.923104,47.405555,-0.109813,0.941464,48.221837,13.284247,74.866737,0.534089,279.553067,-0.000000,-0.013873,0.013876,56.507173,-0.671210,1.860487,3.800907,3.585155,1421.698849,0.000000,0.141737
0.991000000,40.242873067,140.010386862,19.380963,47.972021,-0.116654,0.959916,48.787507,13.456442,74.858574,0.563610,279.583648,-0.000000,-0.014412,0.014317,56.807160,-0.699208,1.827262,3.778136,3.535831,1455.185193,0.000000,0.143400
1.001000000,40.242873272,140.010385286,19.844241,48.542543,-0.123779,0.978031,49.357247,13.629778,74.850093,0.594022,279.615153,-0.000000,-0.014961,0.014761,57.261213,-0.727910,1.792896,3.755182,3.487025,1489.304646,0.000000,0.145076
1.011000000,40.242873480,140.010383689,20.312976,49.115795,-0.131193,0.995797,49.929734,13.803912,74.841288,0.625330,279.647588,-0.000000,-0.015521,0.015209,57.229105,-0.757304,1.757382,3.732142,3.438815,1523.984819,0.000000,0.146759
1.021000000,40.242873691,140.010382073,20.787148,49.680719,-0.138904,1.013204,50.493953,13.975956,74.832152,0.657538,279.680957,-0.000000,-0.016091,0.015661,55.961094,-0.787214,1.720886,3.709823,3.391920,1558.551296,0.000000,0.148418
1.031000000,40.242873905,140.010380436,21.266678,50.243233,-0.146917,1.030240,51.055797,14.147462,74.822678,0.690650,279.715264,-0.000000,-0.016672,0.016116,56.463227,-0.817727,1.683306,3.687753,3.345883,1593.354734,0.000000,0.150071
1.041000000,40.242874121,140.010378780,21.751581,50.806840,-0.155238,1.046895,51.618754,14.319347,74.812860,0.724669,279.750512,-0.000000,-0.017264,0.016575,56.379058,-0.848903,1.644562,3.665657,3.300437,1628.610239,0.000000,0.151726
1.051000000,40.242874341,140.010377103,22.241871,51.375652,-0.163874,1.063157,52.186921,14.492695,74.802691,0.759598,279.786705,-0.000000,-0.017866,0.017037,57.235212,-0.880818,1.604554,3.643237,3.255304,1664.581341,0.000000,0.153397
1.061000000,40.242874562,140.010375406,22.737600,51.945616,-0.172833,1.079014,52.756260,14.666447,74.792165,0.795439,279.823845,-0.000000,-0.018480,0.017503,56.739550,-0.913408,1.563331,3.620775,3.210725,1701.018340,0.000000,0.155071
1.071000000,40.242874787,140.010373690,23.238734,52.509714,-0.182120,1.094452,53.319776,14.838767,74.781275,0.832197,279.861936,-0.000000,-0.019104,0.017973,56.077001,-0.946545,1.521015,3.598736,3.167093,1737.467629,0.000000,0.156729
1.081000000,40.242875015,140.010371953,23.745211,53.067033,-0.191741,1.109463,53.876557,15.009416,74.770014,0.869871,279.900980,-0.000000,-0.019738,0.018445,55.616746,-0.980200,1.477623,3.577147,3.124413,1773.857101,0.000000,0.158366
1.091000000,40.242875245,140.010370196,24.257012,53.631251,-0.201701,1.124034,54.440235,15.181991,74.758376,0.908464,279.940978,-0.000000,-0.020384,0.018921,56.906135,-1.014630,1.432860,3.555081,3.081860,1811.079821,0.000000,0.160024
1.101000000,40.242875478,140.010368420,24.774199,54.192316,-0.212010,1.138152,55.000790,15.353854,74.746353,0.947977,279.981932,-0.000000,-0.021040,0.019399,55.612686,-1.049647,1.386912,3.533192,3.039993,1848.476275,0.000000,0.161673
1.111000000,40.242875714,140.010366623,25.296718,54.755740,-0.222671,1.151804,55.563715,15.526460,74.733940,0.988410,280.023842,-0.000000,-0.021707,0.019881,56.820797,-1.085356,1.339648,3.511110,2.998481,1886.413002,0.000000,0.163328
1.121000000,40.242875952,140.010364807,25.824621,55.318673,-0.233692,1.164977,56.126169,15.699061,74.721129,1.029764,280.066709,-0.000000,-0.022385,0.020365,55.950547,-1.121702,1.291108,3.489007,2.957460,1924.699810,0.000000,0.164983
1.131000000,40.242876194,140.010362970,26.357874,55.882145,-0.245080,1.177659,56.689178,15.871936,74.707913,1.072039,280.110533,-0.000000,-0.023074,0.020853,56.677235,-1.158703,1.241255,3.466808,2.916857,1963.406776,0.000000,0.166639
1.141000000,40.242876438,140.010361113,26.896517,56.449550,-0.256842,1.189836,57.256126,16.045982,74.694286,1.115234,280.155313,-0.000000,-0.023773,0.021342,56.773481,-1.196436,1.189984,3.444297,2.876483,2002.771557,0.000000,0.168306
1.151000000,40.242876686,140.010359236,27.440564,57.016400,-0.268983,1.201494,57.822539,16.220021,74.680242,1.159348,280.201050,-0.000000,-0.024484,0.021835,56.520798,-1.234803,1.137385,3.421741,2.836552,2042.486092,0.000000,0.169972
1.161000000,40.242876936,140.010357339,27.989985,57.576930,-0.281511,1.212621,58.382666,16.392534,74.665772,1.204379,280.247741,-0.000000,-0.025205,0.022330,55.706484,-1.273668,1.083599,3.399464,2.797321,2082.139014,0.000000,0.171620
1.171000000,40.242877189,140.010355422,28.544722,58.135383,-0.294430,1.223204,58.940739,16.564646,74.650871,1.250327,280.295385,-0.000000,-0.025936,0.022827,56.002430,-1.313115,1.028515,3.377195,2.758552,2122.022007,0.000000,0.173261
1.181000000,40.242877445,140.010353484,29.104792,58.697706,-0.307747,1.233229,59.502687,16.737933,74.635531,1.297187,280.343980,-0.000000,-0.026678,0.023326,56.295360,-1.353281,0.971957,3.354582,2.719953,2162.561732,0.000000,0.174914
1.191000000,40.242877703,140.010351527,29.670202,59.254608,-0.321468,1.242683,60.059243,16.909941,74.619747,1.344959,280.393522,-0.000000,-0.027431,0.023828,55.282420,-1.393942,0.914167,3.332142,2.681933,2203.086158,0.000000,0.176552
1.201000000,40.242877965,140.010349550,30.240895,59.811250,-0.335598,1.251552,60.615554,17.082041,74.603510,1.393637,280.444010,-0.000000,-0.028194,0.024331,55.915286,-1.435210,0.854999,3.309571,2.644236,2243.965219,0.000000,0.178188
1.211000000,40.242878230,140.010347553,30.816893,60.367688,-0.350144,1.259824,61.171677,17.254251,74.586816,1.443218,280.495438,-0.000000,-0.028968,0.024836,55.408817,-1.477084,0.794437,3.286855,2.606845,2285.202552,0.000000,0.179824
1.221000000,40.242878497,140.010345536,31.398167,60.920882,-0.365111,1.267484,61.724579,17.425770,74.569656,1.493699,280.547802,-0.000000,-0.029752,0.025343,55.284924,-1.519478,0.732569,3.264147,2.569873,2326.569060,0.000000,0.181451
1.231000000,40.242878768,140.010343499,31.984706,61.475574,-0.380505,1.274518,62.278987,17.597862,74.552024,1.545073,280.601099,-0.000000,-0.030546,0.025851,55.537842,-1.562506,0.669240,3.241182,2.533105,2368.417628,0.000000,0.183082
1.241000000,40.242879042,140.010341442,32.576515,62.027016,-0.396332,1.280913,62.830167,17.769267,74.533915,1.597336,280.655322,-0.000000,-0.031350,0.026360,54.960431,-1.606037,0.604591,3.218199,2.496721,2410.387950,0.000000,0.184703
1.251000000,40.242879318,140.010339365,33.173573,62.583177,-0.412596,1.286655,63.386069,17.942116,74.515320,1.650482,280.710466,-0.000000,-0.032164,0.026871,56.058937,-1.650278,0.538357,3.194782,2.460391,2453.088606,0.000000,0.186339
1.261000000,40.242879598,140.010337268,33.775939,63.139674,-0.429307,1.291727,63.942319,18.115245,74.496235,1.704504,280.766524,-0.000000,-0.032988,0.027383,55.292298,-1.695109,0.470662,3.171149,2.424281,2496.187656,0.000000,0.187975
1.271000000,40.242879880,140.010335151,34.383567,63.691090,-0.446468,1.296116,64.493513,18.287212,74.476652,1.759395,280.823490,-0.000000,-0.033822,0.027896,55.091336,-1.740366,0.401692,3.147559,2.388583,2539.260036,0.000000,0.189597
1.281000000,40.242880166,140.010333015,34.996444,64.245519,-0.464084,1.299809,65.047726,18.460185,74.456565,1.815149,280.881356,-0.000000,-0.034665,0.028410,55.739725,-1.786268,0.331162,3.123604,2.352981,2582.936775,0.000000,0.191227
1.291000000,40.242880454,140.010330858,35.614612,64.803691,-0.482162,1.302789,65.605687,18.634369,74.435968,1.871757,280.940115,-0.000000,-0.035518,0.028925,55.818668,-1.832835,0.259027,3.099249,2.317445,2627.282201,0.000000,0.192869
1.301000000,40.242880746,140.010328680,36.238078,65.358844,-0.500709,1.305040,66.160649,18.807954,74.414855,1.929211,280.999758,-0.000000,-0.036381,0.029440,55.242372,-1.879861,0.185527,3.074808,2.282208,2671.758780,0.000000,0.194502
1.311000000,40.242881041,140.010326483,36.866796,65.909755,-0.519727,1.306551,66.711392,18.980618,74.393219,1.987502,281.060276,-0.000000,-0.037253,0.029955,55.095385,-1.927291,0.110717,3.050325,2.247294,2716.261038,0.000000,0.196122
1.321000000,40.242881339,140.010324266,37.500766,66.466969,-0.539223,1.307307,67.268438,19.155200,74.371054,2.046620,281.121659,-0.000000,-0.038133,0.030471,56.048758,-1.975439,0.034188,3.025309,2.212340,2761.644228,0.000000,0.197761
1.331000000,40.242881640,140.010322029,38.140027,67.018776,-0.559203,1.307290,67.820102,19.328555,74.348355,2.106556,281.183899,-0.000001,-0.039023,0.030987,54.593161,-2.023933,-0.043611,3.000285,2.177725,2806.953635,0.000000,0.199385
1.341000000,40.242881944,140.010319771,38.784504,67.570055,-0.579669,1.306490,68.371252,19.502001,74.325116,2.167300,281.246984,-0.000001,-0.039922,0.031502,55.528481,-2.072902,-0.122733,2.975025,2.143277,2852.584627,0.000000,0.201006
1.351000000,40.242882252,140.010317494,39.434240,68.123976,-0.600628,1.304891,68.925053,19.676403,74.301331,2.228839,281.310903,-0.000001,-0.040827,0.032017,55.182505,-2.122438,-0.203254,2.949385,2.108891,2898.802194,0.000000,0.202636
1.361000000,40.242882562,140.010315196,40.089206,68.670772,-0.622083,1.302483,69.471759,19.849125,74.276995,2.291164,281.375645,-0.000001,-0.041738,0.032532,54.369151,-2.172208,-0.284807,2.923781,2.074856,2944.785164,0.000000,0.204245
1.371000000,40.242882876,140.010312878,40.749355,69.219050,-0.644038,1.299253,70.019957,20.022500,74.252106,2.354261,281.441197,-0.000001,-0.042656,0.033046,55.317059,-2.222476,-0.367737,2.897836,2.040900,2991.253090,0.000000,0.205858
1.381000000,40.242883193,140.010310541,41.414758,69.778336,-0.666500,1.295186,70.579157,20.199122,74.226657,2.418118,281.507548,-0.000001,-0.043579,0.033559,56.286641,-2.273561,-0.452473,2.871159,2.006749,3039.027642,0.000000,0.207504
1.391000000,40.242883513,140.010308182,42.085475,70.334640,-0.689475,1.290265,71.135398,20.375201,74.200646,2.482723,281.574684,-0.000001,-0.044509,0.034071,55.093391,-2.324982,-0.538405,2.844327,1.972804,3086.919128,0.000000,0.209141
1.401000000,40.242883837,140.010305804,42.761433,70.884967,-0.712965,1.284480,71.685688,20.549927,74.174067,2.548062,281.642591,-0.000001,-0.045444,0.034582,54.932318,-2.376613,-0.625370,2.817450,1.939137,3134.659894,0.000000,0.210760
1.411000000,40.242884164,140.010303405,43.442597,71.431695,-0.736972,1.277820,72.232402,20.723948,74.146918,2.614120,281.711256,-0.000001,-0.046383,0.035092,54.453025,-2.428511,-0.713449,2.790421,1.905666,3182.447109,0.000000,0.212369
1.421000000,40.242884494,140.010300986,44.128930,71.975615,-0.761499,1.270274,72.776330,20.897485,74.119195,2.680885,281.780664,-0.000001,-0.047328,0.035600,54.352496,-2.480683,-0.802654,2.763201,1.872361,3230.343723,0.000000,0.213970
1.431000000,40.242884827,140.010298547,44.820419,72.519600,-0.786550,1.261831,73.320338,21.071328,74.090894,2.748340,281.850800,-0.000001,-0.048277,0.036106,54.508685,-2.533213,-0.893105,2.735674,1.839140,3278.600505,0.000000,0.215571
1.441000000,40.242885164,140.010296089,45.517082,73.068358,-0.812129,1.252476,73.869131,21.246773,74.062011,2.816471,281.921648,-0.000001,-0.049231,0.036610,55.120660,-2.586260,-0.985025,2.707664,1.805883,3327.641164,0.000000,0.217186
1.451000000,40.242885505,140.010293609,46.218957,73.617115,-0.838240,1.242196,74.417942,21.422519,74.032545,2.885262,281.993193,-0.000001,-0.050188,0.037112,54.759430,-2.639635,-1.078171,2.679349,1.772706,3377.042473,0.000000,0.218802
1.461000000,40.242885848,140.010291110,46.926035,74.168688,-0.864886,1.230979,74.969583,21.599350,74.002491,2.954696,282.065418,-0.000001,-0.051150,0.037611,55.392843,-2.693427,-1.172673,2.650625,1.739540,3427.061423,0.000000,0.220425
1.471000000,40.242886195,140.010288590,47.638346,74.718480,-0.892072,1.218810,75.519466,21.776006,73.971848,3.024757,282.138306,-0.000001,-0.052114,0.038108,54.684945,-2.747446,-1.268278,2.621656,1.706490,3477.281008,0.000000,0.222044
1.481000000,40.242886546,140.010286049,48.355850,75.267163,-0.919799,1.205681,76.068263,21.952679,73.940611,3.095429,282.211840,-0.000001,-0.053082,0.038602,54.972112,-2.801694,-1.364994,2.592412,1.673534,3527.759925,0.000000,0.223659
1.491000000,40.242886900,140.010283488,49.078552,75.814734,-0.948070,1.191580,76.615972,22.129373,73.908780,3.166692,282.286002,-0.000001,-0.054052,0.039093,54.618741,-2.856149,-1.462798,2.562891,1.640668,3578.495563,0.000000,0.225271
1.501000000,40.242887257,140.010280907,49.806436,76.362601,-0.976886,1.176495,77.163998,22.306484,73.876352,3.238531,282.360775,-0.000001,-0.055025,0.039581,54.902565,-2.910845,-1.561740,2.533043,1.607857,3629.617965,0.000000,0.226885
1.511000000,40.242887618,140.010278306,50.539511,76.910699,-1.006250,1.160416,77.712279,22.484001,73.843325,3.310926,282.436140,-0.000001,-0.056000,0.040065,54.735556,-2.965760,-1.661795,2.502868,1.575100,3681.121622,0.000000,0.228499
1.521000000,40.242887983,140.010275684,51.277771,77.458046,-1.036164,1.143331,78.259834,22.661657,73.809698,3.383859,282.512077,-0.000001,-0.056976,0.040546,54.715456,-3.020829,-1.762881,2.472398,1.542413,3732.913308,0.000000,0.230111
1.531000000,40.242888351,140.010273041,52.021206,78.004271,-1.066630,1.125230,78.806293,22.839355,73.775468,3.457311,282.588567,-0.000001,-0.057954,0.041023,54.544774,-3.076016,-1.864945,2.441640,1.509802,3784.955921,0.000000,0.231719
1.541000000,40.242888723,140.010270378,52.769804,78.549554,-1.097648,1.106105,79.351839,23.017151,73.740635,3.531263,282.665592,-0.000001,-0.058933,0.041496,54.490390,-3.131301,-1.967967,2.410588,1.477258,3837.264757,0.000000,0.233325
1.551000000,40.242889099,140.010267695,53.523555,79.093218,-1.129219,1.085945,79.895793,23.194862,73.705197,3.605694,282.743130,-0.000001,-0.059912,0.041965,54.242325,-3.186630,-2.071870,2.379261,1.444791,3889.771973,0.000000,0.234927
1.561000000,40.242889478,140.010264991,54.282435,79.634399,-1.161344,1.064742,80.437297,23.372249,73.669154,3.680586,282.821162,-0.000001,-0.060891,0.042429,54.046117,-3.241939,-2.176565,2.347679,1.412412,3942.389909,0.000000,0.236521
1.571000000,40.242889861,140.010262266,55.046430,80.176227,-1.194021,1.042488,80.979477,23.550196,73.632506,3.755917,282.899666,-0.000001,-0.061870,0.042889,54.288826,-3.297335,-2.282205,2.315752,1.380064,3995.422162,0.000000,0.238117
1.581000000,40.242890247,140.010259521,55.815555,80.718945,-1.227254,1.019174,81.522576,23.728780,73.595252,3.831666,282.978621,-0.000001,-0.062848,0.043343,54.248707,-3.352803,-2.388775,2.283472,1.347741,4048.894134,0.000000,0.239716
1.591000000,40.242890637,140.010256756,56.589806,81.260954,-1.261041,0.994789,82.064997,23.907557,73.557392,3.907814,283.058007,-0.000001,-0.063825,0.043792,54.174513,-3.408249,-2.496139,2.250885,1.315469,4102.647785,0.000000,0.241314
1.601000000,40.242891031,140.010253970,57.369178,81.803295,-1.295383,0.969327,82.607784,24.086828,73.518926,3.984338,283.137801,-0.000001,-0.064800,0.044236,54.219922,-3.463691,-2.604324,2.217964,1.283232,4156.786560,0.000000,0.242912
1.611000000,40.242891429,140.010251163,58.153663,82.342399,-1.330278,0.942781,83.147371,24.265587,73.479856,4.061218,283.217981,-0.000001,-0.065773,0.044674,53.766896,-3.518940,-2.713054,2.184804,1.251082,4210.949877,0.000000,0.244501
1.621000000,40.242891831,140.010248336,58.943245,82.885276,-1.365726,0.915143,83.690763,24.445831,73.440181,4.138431,283.298526,-0.000001,-0.066744,0.045106,54.580816,-3.574282,-2.822751,2.151220,1.218913,4265.845427,0.000000,0.246101
1.631000000,40.242892236,140.010245488,59.737956,83.424907,-1.401727,0.886405,84.230948,24.625570,73.399904,4.215955,283.379412,-0.000001,-0.067712,0.045533,53.459256,-3.629373,-2.932906,2.117397,1.186829,4320.761226,0.000000,0.247691
1.641000000,40.242892646,140.010242619,60.537726,83.959013,-1.438277,0.856564,84.765652,24.804158,73.359026,4.293769,283.460617,-0.000001,-0.068676,0.045952,53.485105,-3.684072,-3.043300,2.083389,1.154857,4375.455859,0.000000,0.249266
1.651000000,40.242893059,140.010239730,61.342556,84.499534,-1.475374,0.825616,85.306804,24.985011,73.317547,4.371850,283.542119,-0.000001,-0.069637,0.046365,54.468271,-3.738898,-3.154714,2.048902,1.122834,4431.157997,0.000000,0.250860
1.661000000,40.242893476,140.010236820,62.152509,85.042343,-1.513020,0.793549,85.850282,25.166959,73.275472,4.450174,283.623893,-0.000001,-0.070593,0.046772,54.173422,-3.793638,-3.266830,2.014043,1.090819,4487.449012,0.000000,0.252460
1.671000000,40.242893897,140.010233889,62.967582,85.586205,-1.551212,0.760358,86.394856,25.349660,73.232801,4.528721,283.705917,-0.000001,-0.071544,0.047171,54.485086,-3.848205,-3.379517,1.978848,1.058831,4544.203912,0.000000,0.254064
1.681000000,40.242894323,140.010230937,63.787782,86.127483,-1.589949,0.726039,86.936890,25.532070,73.189537,4.607466,283.788167,-0.000001,-0.072490,0.047563,53.902891,-3.902393,-3.492460,1.943400,1.026915,4601.039861,0.000000,0.255660
1.691000000,40.242894752,140.010227964,64.613079,86.669563,-1.629226,0.690589,87.479771,25.715175,73.145684,4.686387,283.870619,-0.000001,-0.073431,0.047947,54.503950,-3.956330,-3.605850,1.907627,0.995032,4658.312454,0.000000,0.257259
1.701000000,40.242895185,140.010224971,65.443513,87.217192,-1.669042,0.654001,88.028243,25.900356,73.101246,4.765461,283.953250,-0.000001,-0.074364,0.048323,54.944628,-4.010215,-3.719993,1.871431,0.963130,4716.531433,0.000000,0.258874
1.711000000,40.242895623,140.010221955,66.279119,87.765371,-1.709397,0.616269,88.577313,26.086175,73.056224,4.844664,284.036036,-0.000001,-0.075292,0.048692,54.626380,-4.063777,-3.834474,1.834925,0.931269,4775.169398,0.000000,0.260492
1.721000000,40.242896064,140.010218919,67.119865,88.307126,-1.750284,0.577393,89.120013,26.270610,73.010624,4.923974,284.118954,-0.000001,-0.076211,0.049052,53.807843,-4.116638,-3.948695,1.798257,0.899522,4833.471381,0.000000,0.262090
1.731000000,40.242896510,140.010215861,67.965689,88.844859,-1.791696,0.537376,89.658744,26.454361,72.964450,5.003366,284.201978,-0.000001,-0.077123,0.049404,53.831297,-4.168872,-4.062762,1.761376,0.867863,4891.686878,0.000000,0.263677
1.741000000,40.242896960,140.010212783,68.816593,89.387456,-1.833629,0.496217,90.202388,26.640028,72.917707,5.082818,284.285084,-0.000001,-0.078027,0.049746,54.549111,-4.220885,-4.177304,1.724110,0.836206,4950.782978,0.000000,0.265278
1.751000000,40.242897415,140.010209683,69.672619,89.930283,-1.876082,0.453910,90.746316,26.826265,72.870399,5.162305,284.368250,-0.000001,-0.078921,0.050080,54.034703,-4.272414,-4.291905,1.686557,0.804598,5010.257848,0.000000,0.266881
1.761000000,40.242897874,140.010206561,70.533732,90.468890,-1.919046,0.410460,91.286081,27.011770,72.822533,5.241805,284.451449,-0.000001,-0.079806,0.050405,53.773124,-4.323196,-4.406140,1.648802,0.773082,5069.618052,0.000000,0.268471
1.771000000,40.242898337,140.010203419,71.399916,91.009205,-1.962515,0.365867,91.827611,27.198292,72.774113,5.321294,284.534659,-0.000001,-0.080681,0.050719,54.326961,-4.373491,-4.520415,1.610743,0.741606,5129.517426,0.000000,0.270066
1.781000000,40.242898804,140.010200255,72.271216,91.556913,-2.006487,0.320129,92.376588,27.387522,72.725146,5.400748,284.617854,-0.000001,-0.081545,0.051024,54.927058,-4.423558,-4.635136,1.572287,0.710131,5190.597895,0.000000,0.271683
1.791000000,40.242899276,140.010197069,73.147651,92.096245,-2.050955,0.273246,92.917252,27.574800,72.675639,5.480145,284.701011,-0.000001,-0.082397,0.051319,53.171021,-4.472550,-4.748945,1.533712,0.678783,5251.092457,0.000000,0.273276
1.801000000,40.242899752,140.010193862,74.029111,92.629609,-2.095908,0.225231,93.452012,27.760837,72.625598,5.559460,284.784105,-0.000001,-0.083238,0.051604,53.461487,-4.520545,-4.861943,1.494979,0.647542,5311.258662,0.000000,0.274851
1.811000000,40.242900233,140.010190634,74.915592,93.163866,-2.141338,0.176086,93.987727,27.947676,72.575031,5.638670,284.867113,-0.000001,-0.084067,0.051878,53.417657,-4.567857,-4.974624,1.455977,0.616359,5371.868997,0.000000,0.276430
1.821000000,40.242900718,140.010187384,75.807096,93.699075,-2.187237,0.125816,94.524458,28.135341,72.523946,5.717753,284.950009,-0.000001,-0.084882,0.052141,53.525148,-4.614449,-5.086922,1.416715,0.585239,5432.932176,0.000000,0.278011
1.831000000,40.242901207,140.010184113,76.703618,94.230406,-2.233599,0.074426,95.057377,28.322391,72.472350,5.796684,285.032771,-0.000001,-0.085684,0.052393,52.920436,-4.660030,-5.198346,1.377272,0.554215,5493.891800,0.000000,0.279581
1.841000000,40.242901701,140.010180821,77.605130,94.764667,-2.280413,0.021925,95.593292,28.510874,72.420252,5.875441,285.115373,-0.000002,-0.086472,0.052634,53.838721,-4.704915,-5.309401,1.337556,0.523250,5555.531718,0.000000,0.281160
1.851000000,40.242902200,140.010177507,78.511687,95.303465,-2.327673,-0.031687,96.133811,28.701284,72.367661,5.954001,285.197792,-0.000002,-0.087245,0.052864,53.796838,-4.749153,-5.420162,1.297553,0.492341,5618.045454,0.000000,0.282753
1.861000000,40.242902704,140.010174171,79.423282,95.835646,-2.375370,-0.086401,96.667784,28.890263,72.314585,6.032341,285.280005,-0.000002,-0.088002,0.053081,52.797268,-4.792111,-5.529569,1.257425,0.461550,5680.131406,0.000000,0.284327
1.871000000,40.242903212,140.010170813,80.339848,96.365731,-2.423491,-0.142203,97.199733,29.079177,72.261036,6.110439,285.361988,-0.000002,-0.088743,0.053286,53.216546,-4.833985,-5.637925,1.217116,0.430857,5742.311027,0.000000,0.285894
1.881000000,40.242903724,140.010167435,81.261407,96.899853,-2.472028,-0.199087,97.735789,29.269893,72.207023,6.188272,285.443717,-0.000002,-0.089468,0.053479,53.502396,-4.875061,-5.745698,1.176558,0.400238,5805.308815,0.000000,0.287474
1.891000000,40.242904242,140.010164034,82.187973,97.431561,-2.520970,-0.257043,98.269505,29.460454,72.152555,6.265818,285.525170,-0.000002,-0.090176,0.053660,52.935288,-4.914954,-5.852227,1.135839,0.369726,5868.362276,0.000000,0.289047
1.901000000,40.242904764,140.010160611,83.119513,97.962404,-2.570306,-0.316059,98.802431,29.651337,72.097645,6.343054,285.606322,-0.000002,-0.090865,0.053828,53.279743,-4.953702,-5.957561,1.094949,0.339319,5931.652802,0.000000,0.290617
1.911000000,40.242905291,140.010157167,84.056054,98.499018,-2.620026,-0.376126,99.341201,29.844582,72.042303,6.419959,285.687151,-0.000002,-0.091536,0.053982,53.937477,-4.991623,-6.062223,1.053825,0.308999,5995.979771,0.000000,0.292205
1.921000000,40.242905823,140.010153701,84.997638,99.036933,-2.670120,-0.437235,99.881349,30.038828,71.986541,6.496512,285.767636,-0.000002,-0.092189,0.054124,53.648503,-5.028435,-6.165726,1.012529,0.278788,6060.811968,0.000000,0.293797
1.931000000,40.242906359,140.010150212,85.944250,99.572112,-2.720577,-0.499371,100.418838,30.232837,71.930371,6.572690,285.847752,-0.000002,-0.092821,0.054252,53.374697,-5.063875,-6.267603,0.971111,0.248703,6125.659536,0.000000,0.295381
1.941000000,40.242906901,140.010146702,86.895861,100.103930,-2.771381,-0.562519,100.953046,30.426416,71.873805,6.648473,285.927478,-0.000002,-0.093433,0.054366,53.044655,-5.097864,-6.367699,0.929586,0.218749,6190.440689,0.000000,0.296956
1.951000000,40.242907447,140.010143169,87.852445,100.635241,-2.822519,-0.626660,101.486826,30.620450,71.816856,6.723840,286.006791,-0.000002,-0.094025,0.054467,53.273502,-5.130515,-6.466182,0.887937,0.188923,6255.500942,0.000000,0.298529
1.961000000,40.242907999,140.010139614,88.814022,101.171637,-2.873978,-0.691780,102.025770,30.816683,71.759537,6.798769,286.085671,-0.000002,-0.094594,0.054553,53.937287,-5.162089,-6.563493,0.846126,0.159221,6321.532090,0.000000,0.300118
1.971000000,40.242908556,140.010136037,89.780641,101.711252,-2.925748,-0.757868,102.568013,31.014546,71.701863,6.873242,286.164096,-0.000002,-0.095142,0.054625,53.926531,-5.192441,-6.659382,0.804183,0.129655,6388.311572,0.000000,0.301716
1.981000000,40.242909118,140.010132438,90.752300,102.247805,-2.977815,-0.824906,103.107276,31.212083,71.643846,6.947238,286.242044,-0.000002,-0.095667,0.054682,53.424254,-5.221185,-6.753152,0.762171,0.100239,6455.059236,0.000000,0.303306
1.991000000,40.242909685,140.010128816,91.728961,102.781354,-3.030162,-0.892871,103.643617,31.409310,71.585502,7.020736,286.319494,-0.000002,-0.096169,0.054724,53.378869,-5.248278,-6.844703,0.720100,0.070977,6521.776730,0.000000,0.304887
2.001000000,40.242910257,140.010125171,92.710624,103.319116,-3.082773,-0.961745,104.184253,31.608501,71.526845,7.093718,286.396427,-0.000002,-0.096647,0.054752,54.098691,-5.274073,-6.934633,0.677930,0.041870,6589.370878,0.000000,0.306481
2.011000000,40.242910834,140.010121504,93.697337,103.860341,-3.135636,-1.031510,104.728434,31.809429,71.467890,7.166164,286.472820,-0.000002,-0.097101,0.054764,54.174351,-5.298484,-7.022776,0.635682,0.012927,6657.754685,0.000000,0.308085
2.021000000,40.242911417,140.010117814,94.689118,104.403724,-3.188737,-1.102148,105.274856,32.011691,71.408653,7.238056,286.548656,-0.000002,-0.097529,0.054761,54.358809,-5.321394,-7.108908,0.593379,-0.015845,6726.767850,0.000000,0.309696
2.031000000,40.242912005,140.010114100,95.685963,104.941787,-3.242059,-1.173635,105.816042,32.212918,71.349149,7.309374,286.623912,-0.000002,-0.097932,0.054742,53.253844,-5.342350,-7.192195,0.551076,-0.044441,6795.454449,0.000000,0.311291
2.041000000,40.242912598,140.010110365,96.687782,105.468799,-3.295579,-1.245939,106.346260,32.411275,71.289395,7.380101,286.698571,-0.000002,-0.098308,0.054707,52.353992,-5.360995,-7.271959,0.508812,-0.072859,6863.064149,0.000000,0.312855
2.051000000,40.242913197,140.010106606,97.694510,105.997092,-3.349278,-1.319028,106.877842,32.610691,71.229409,7.450219,286.772614,-0.000002,-0.098658,0.054656,53.164411,-5.377961,-7.349304,0.466536,-0.101087,6931.175664,0.000000,0.314422
2.061000000,40.242913801,140.010102825,98.706186,106.526478,-3.403139,-1.392881,107.410599,32.811106,71.169206,7.519711,286.846020,-0.000002,-0.098980,0.054589,52.930858,-5.393194,-7.424112,0.424263,-0.129120,6999.766570,0.000000,0.315993
2.071000000,40.242914410,140.010099022,99.722825,107.064439,-3.457145,-1.467472,107.952014,33.014937,71.108804,7.588558,286.918773,-0.000002,-0.099274,0.054505,54.461870,-5.407059,-7.497024,0.381981,-0.156940,7069.819070,0.000000,0.317590
2.081000000,40.242915025,140.010095195,100.744523,107.607733,-3.511284,-1.542783,108.498844,33.221153,71.048222,7.656745,286.990853,-0.000002,-0.099539,0.054405,54.090750,-5.419331,-7.567621,0.339720,-0.184541,7140.922576,0.000000,0.319202
2.091000000,40.242915646,140.010091344,101.771256,108.142010,-3.565535,-1.618784,109.036739,33.425122,70.987477,7.724255,287.062244,-0.000002,-0.099775,0.054288,52.951961,-5.429189,-7.634368,0.297541,-0.211941,7211.189464,0.000000,0.320788
2.101000000,40.242916272,140.010087471,102.802945,108.674260,-3.619875,-1.695436,109.572686,33.629101,70.926588,7.791072,287.132928,-0.000002,-0.099981,0.054155,53.476103,-5.436971,-7.697852,0.255436,-0.239119,7281.531030,0.000000,0.322369
2.111000000,40.242916904,140.010083574,103.839616,109.210659,-3.674284,-1.772711,110.112863,33.835097,70.865574,7.857179,287.202887,-0.000002,-0.100157,0.054004,53.853687,-5.442969,-7.758585,0.213406,-0.266058,7352.768217,0.000000,0.323962
2.121000000,40.242917542,140.010079654,104.881310,109.753332,-3.728746,-1.850582,110.659394,34.043814,70.804455,7.922563,287.272106,-0.000002,-0.100301,0.053836,54.487389,-5.447252,-7.816678,0.171464,-0.292743,7425.193950,0.000000,0.325573
2.131000000,40.242918185,140.010075711,105.928059,110.292660,-3.783241,-1.929018,111.202656,34.252114,70.743250,7.987208,287.340568,-0.000002,-0.100415,0.053650,53.462621,-5.449260,-7.871060,0.129644,-0.319189,7497.523041,0.000000,0.327176
2.141000000,40.242918834,140.010071743,106.979796,110.825958,-3.837745,-2.007977,111.737609,34.459110,70.681979,8.051098,287.408256,-0.000002,-0.100495,0.053448,53.246910,-5.448934,-7.920996,0.084293,-0.343735,7569.065749,0.000000,0.328754
2.151000000,40.242919489,140.010067753,108.036494,111.359598,-3.892236,-2.087417,112.271784,34.666895,70.620664,8.114223,287.475158,-0.000002,-0.100539,0.053229,53.434386,-5.446658,-7.966785,0.037281,-0.367217,7640.831291,0.000000,0.330329
2.161000000,40.242920150,140.010063739,109.098158,111.892769,-3.946696,-2.167296,112.805536,34.875201,70.559327,8.176572,287.541263,-0.000002,-0.100546,0.052994,53.215524,-5.442317,-8.008325,-0.009539,-0.390469,7712.866571,0.000000,0.331904
2.171000000,40.242920816,140.010059701,110.164773,112.424533,-4.001103,-2.247570,113.337926,35.083717,70.497993,8.238134,287.606558,-0.000002,-0.100514,0.052742,53.090448,-5.435827,-8.045404,-0.056149,-0.413484,7785.041554,0.000000,0.333474
2.181000000,40.242921488,140.010055640,111.236319,112.952700,-4.055434,-2.328194,113.866762,35.291711,70.436684,8.298900,287.671033,-0.000002,-0.100444,0.052474,52.615046,-5.427040,-8.077688,-0.102533,-0.436267,7857.050979,0.000000,0.335034
2.191000000,40.242922167,140.010051556,112.312762,113.479711,-4.109667,-2.409118,114.394484,35.499990,70.375426,8.358860,287.734678,-0.000002,-0.100334,0.052190,52.812390,-5.416051,-8.105309,-0.148669,-0.458800,7929.226071,0.000000,0.336591
2.201000000,40.242922851,140.010047447,113.394114,114.009949,-4.163782,-2.490300,114.925470,35.710018,70.314242,8.418007,287.797482,-0.000002,-0.100185,0.051889,53.150751,-5.403053,-8.128591,-0.194534,-0.481060,8002.174402,0.000000,0.338157
2.211000000,40.242923541,140.010043316,114.480392,114.539344,-4.217756,-2.571693,115.455650,35.920433,70.253157,8.476331,287.859437,-0.000002,-0.099996,0.051571,52.740998,-5.387801,-8.147016,-0.240112,-0.503056,8075.332409,0.000000,0.339722
2.221000000,40.242924237,140.010039160,115.571568,115.065268,-4.271567,-2.653247,115.982392,36.130349,70.192196,8.533825,287.920533,-0.000002,-0.099767,0.051236,52.491009,-5.370130,-8.160211,-0.285389,-0.524792,8148.328632,0.000000,0.341276
2.231000000,40.242924939,140.010034981,116.667619,115.591042,-4.325191,-2.734909,116.509014,36.340879,70.131384,8.590480,287.980761,-0.000002,-0.099496,0.050885,52.664077,-5.350181,-8.168400,-0.330340,-0.546247,8221.624771,0.000000,0.342829
2.241000000,40.242925648,140.010030778,117.768554,116.118548,-4.378605,-2.816632,117.037395,36.552656,70.070747,8.646290,288.040113,-0.000002,-0.099184,0.050517,52.887553,-5.328017,-8.171663,-0.374937,-0.567405,8295.486655,0.000000,0.344389
2.251000000,40.242926362,140.010026550,118.874398,116.650798,-4.431788,-2.898366,117.570543,36.766704,70.010310,8.701246,288.098580,-0.000002,-0.098831,0.050131,53.449857,-5.303755,-8.170187,-0.419149,-0.588244,8370.345724,0.000000,0.345962
2.261000000,40.242927083,140.010022299,119.985185,117.183028,-4.484718,-2.980061,118.103692,36.981407,69.950099,8.755344,288.156155,-0.000002,-0.098435,0.049729,53.184740,-5.277124,-8.163394,-0.462971,-0.608779,8445.529006,0.000000,0.347535
2.271000000,40.242927809,140.010018024,121.100919,117.722018,-4.537372,-3.061667,118.643616,37.199079,69.890140,8.808575,288.212830,-0.000002,-0.097996,0.049310,54.303065,-5.248427,-8.151841,-0.506354,-0.628968,8522.009549,0.000000,0.349128
2.281000000,40.242928543,140.010013724,122.221651,118.256663,-4.589728,-3.143132,119.179207,37.415924,69.830461,8.860935,288.268599,-0.000002,-0.097515,0.048874,52.757996,-5.217086,-8.134336,-0.549323,-0.648862,8598.197138,0.000000,0.350709
2.291000000,40.242929282,140.010009399,123.347280,118.782446,-4.641756,-3.224391,119.705948,37.630383,69.771086,8.912417,288.323453,-0.000002,-0.096991,0.048420,52.565582,-5.182867,-8.110357,-0.591880,-0.668479,8673.428667,0.000000,0.352263
2.301000000,40.242930028,140.010005051,124.477790,119.314627,-4.693433,-3.305387,120.239089,37.847687,69.712044,8.963016,288.377387,-0.000002,-0.096423,0.047950,53.626099,-5.146485,-8.081287,-0.633929,-0.687727,8749.907068,0.000000,0.353836
2.311000000,40.242930780,140.010000678,125.613234,119.845168,-4.744734,-3.386067,120.770590,38.065067,69.653360,9.012727,288.430395,-0.000002,-0.095812,0.047462,52.617585,-5.107524,-8.046254,-0.675493,-0.706646,8826.468846,0.000000,0.355405
2.321000000,40.242931539,140.009996280,126.753557,120.372378,-4.795634,-3.466367,121.298757,38.281932,69.595063,9.061545,288.482470,-0.000003,-0.095156,0.046958,52.736910,-5.065889,-8.005014,-0.716557,-0.725237,8902.861943,0.000000,0.356964
2.331000000,40.242932303,140.009991858,127.898743,120.896383,-4.846105,-3.546228,121.823711,38.498313,69.537178,9.109467,288.533608,-0.000003,-0.094457,0.046436,52.237587,-5.021569,-7.957500,-0.757104,-0.743495,8979.097895,0.000000,0.358514
2.341000000,40.242933075,140.009987412,129.048772,121.424041,-4.896121,-3.625586,122.352304,38.716586,69.479734,9.156487,288.583803,-0.000003,-0.093713,0.045898,53.219074,-4.974864,-7.904278,-0.797067,-0.761369,9056.184666,0.000000,0.360074
2.351000000,40.242933853,140.009982941,130.203706,121.957743,-4.945661,-3.704387,122.886922,38.937585,69.422757,9.202601,288.633049,-0.000003,-0.092926,0.045342,53.418246,-4.925852,-7.845474,-0.836410,-0.778837,9134.483659,0.000000,0.361652
2.361000000,40.242934637,140.009978446,131.363559,122.488249,-4.994698,-3.782572,123.418320,39.158083,69.366275,9.247807,288.681343,-0.000003,-0.092093,0.044770,52.718275,-4.874095,-7.780151,-0.875173,-0.795951,9212.625872,0.000000,0.363221
2.371000000,40.242935428,140.009973925,132.528277,123.013487,-5.043204,-3.860072,123.944422,39.377340,69.310316,9.292101,288.728681,-0.000003,-0.091216,0.044181,52.427573,-4.819494,-7.708062,-0.913349,-0.812718,9290.293738,0.000000,0.364774
2.381000000,40.242936226,140.009969380,133.697839,123.540698,-5.091153,-3.936823,124.472463,39.597887,69.254906,9.335480,288.775056,-0.000003,-0.090294,0.043575,52.983850,-4.762357,-7.629802,-0.950866,-0.829082,9368.566195,0.000000,0.366333
2.391000000,40.242937030,140.009964810,134.872279,124.071900,-5.138519,-4.012765,125.004455,39.820430,69.200074,9.377940,288.820467,-0.000003,-0.089328,0.042953,53.216456,-4.702753,-7.545478,-0.987685,-0.845024,9447.750835,0.000000,0.367903
2.401000000,40.242937841,140.009960215,136.051616,124.603384,-5.185277,-4.087834,125.536684,40.043659,69.145846,9.419480,288.864910,-0.000003,-0.088318,0.042314,53.055923,-4.640506,-7.454689,-1.023815,-0.860562,9527.290983,0.000000,0.369474
2.411000000,40.242938658,140.009955596,137.235835,125.132005,-5.231400,-4.161964,126.065998,40.266450,69.092250,9.460097,288.908380,-0.000003,-0.087262,0.041658,52.621722,-4.575476,-7.357109,-1.059259,-0.875711,9606.706810,0.000000,0.371037
2.421000000,40.242939483,140.009950951,138.424889,125.653921,-5.276860,-4.235087,126.588555,40.487428,69.039314,9.499789,288.950876,-0.000003,-0.086163,0.040987,51.951602,-4.507508,-7.252373,-1.094031,-0.890490,9685.404364,0.000000,0.372580
2.431000000,40.242940314,140.009946281,139.618739,126.178594,-5.321627,-4.307132,127.113805,40.709939,68.987064,9.538554,288.992393,-0.000003,-0.085019,0.040299,52.876724,-4.436988,-7.141260,-1.128027,-0.904828,9764.823073,0.000000,0.374131
2.441000000,40.242941151,140.009941586,140.817438,126.707162,-5.365679,-4.378038,127.642880,40.934385,68.935528,9.576390,289.032930,-0.000003,-0.083831,0.039595,52.755775,-4.363948,-7.023807,-1.161219,-0.918709,9845.142295,0.000000,0.375694
2.451000000,40.242941996,140.009936867,142.020973,127.230422,-5.408987,-4.447737,128.166576,41.157471,68.884732,9.613296,289.072484,-0.000003,-0.082599,0.038876,52.051849,-4.288025,-6.899215,-1.193667,-0.932194,9924.943218,0.000000,0.377240
2.461000000,40.242942847,140.009932122,143.229302,127.754374,-5.451523,-4.516159,128.690882,41.381331,68.834705,9.649270,289.111053,-0.000003,-0.081324,0.038140,52.717509,-4.209457,-6.767962,-1.225296,-0.945232,10005.147305,0.000000,0.378789
2.471000000,40.242943706,140.009927352,144.442466,128.283881,-5.493263,-4.583241,129.220657,41.607701,68.785471,9.684312,289.148634,-0.000003,-0.080005,0.037389,53.147186,-4.128421,-6.630399,-1.256041,-0.957781,10086.513458,0.000000,0.380353
2.481000000,40.242944571,140.009922556,145.660500,128.815794,-5.534180,-4.648917,129.752743,41.835447,68.737058,9.718421,289.185227,-0.000003,-0.078643,0.036623,53.160778,-4.044792,-6.486235,-1.285910,-0.969860,10168.557112,0.000000,0.381925
2.491000000,40.242945443,140.009917735,146.883399,129.344056,-5.574249,-4.713120,130.281081,42.062375,68.689492,9.751595,289.220828,-0.000003,-0.077239,0.035842,52.634952,-3.958353,-6.334985,-1.314944,-0.981506,10250.328685,0.000000,0.383485
2.501000000,40.242946322,140.009912889,148.111134,129.874169,-5.613441,-4.775779,130.811165,42.290459,68.642799,9.783834,289.255438,-0.000003,-0.075792,0.035046,53.249822,-3.869313,-6.177071,-1.343067,-0.992672,10332.688842,0.000000,0.385051
2.511000000,40.242947208,140.009908017,149.343729,130.403483,-5.651730,-4.836829,131.340338,42.518729,68.597005,9.815138,289.289053,-0.000003,-0.074304,0.034235,52.699458,-3.777585,-6.012287,-1.370290,-1.003374,10415.219458,0.000000,0.386614
2.521000000,40.242948101,140.009903120,150.581156,130.931561,-5.689090,-4.896198,131.868161,42.747015,68.552135,9.845506,289.321674,-0.000003,-0.072774,0.033410,52.851147,-3.683169,-5.840615,-1.396596,-1.013609,10497.848351,0.000000,0.388173
2.531000000,40.242949001,140.009898197,151.823408,131.457839,-5.725493,-4.953820,132.394061,42.975097,68.508214,9.874938,289.353299,-0.000003,-0.071203,0.032571,52.443799,-3.586064,-5.662033,-1.421974,-1.023376,10580.481526,0.000000,0.389726
2.541000000,40.242949908,140.009893248,153.070456,131.981944,-5.760913,-5.009625,132.917659,43.202824,68.465268,9.903435,289.383928,-0.000003,-0.069593,0.031718,52.384781,-3.486281,-5.476549,-1.446409,-1.032672,10663.054337,0.000000,0.391273
