time_sec,lat_deg,lon_deg,alt_agl_m,down_range_m,local_x_m,local_y_m,u_mps,v_mps,w_mps,true_airspeed_mps,ground_speed_mps,pitch_deg,roll_deg,yaw_deg,p_rad_sec,q_rad_sec,r_rad_sec,ax_mps2,ay_mps2,az_mps2,alpha_deg,beta_deg,qbar_pa,total_aoa_deg,pressure_pa,temperature_k,gust_airspeed_mps,gust_aoa_deg,thrust_n,mach
0.001,40.242865,140.01045,5.3,0.0,0.0,0.0,0.0,0.0,0.0,0.6033721946635292,0.0,75.0,0.0,279.0,0.0,0.0,0.0,-9.44310043576738,0.0,0.0,0.0,0.0,0.0,0.0,0.0,0.0,0.0,0.0,0.622109,0.0
0.012000000000000004,40.242865,140.01045,5.3,0.0,0.0,0.0,0.0,0.0,0.0,0.6033721946635292,0.0,75.0,0.0,279.0,0.0,0.0,0.0,-9.381368640389143,0.0,0.0,0.0,0.0,0.0,0.0,0.0,0.0,0.0,0.0,1.9285387000000034,0.0
0.023000000000000013,40.242865,140.01045,5.3,0.0,0.0,0.0,0.0,0.0,0.0,0.6033721946635292,0.0,75.0,0.0,279.0,0.0,0.0,0.0,-7.802794889460214,0.0,0.0,0.0,0.0,0.0,0.0,0.0,0.0,0.0,0.0,35.335811600000135,0.0
0.03400000000000002,40.242865,140.01045,5.3,0.0,0.0,0.0,0.0,0.0,0.0,0.6033721946635292,0.0,75.0,0.0,279.0,0.0,0.0,0.0,-3.234502512137765,0.0,0.0,0.0,0.0,0.0,0.0,0.0,0.0,0.0,0.0,132.01160700000008,0.0
0.04500000000000003,40.242865,140.01045,5.3,0.0,0.0,0.0,0.0,0.0,0.0,0.6033721946635292,0.0,75.0,0.0,279.0,0.0,0.0,0.0,-1.0764801063337224,0.0,0.0,0.0,0.0,0.0,0.0,0.0,0.0,0.0,0.0,177.67443240000017,0.0
0.05600000000000004,40.242865000006134,140.01044999994926,5.300016286980374,4.36455335582646e-6,4.364553352922492e-6,-1.5921385235207597e-10,0.006722176429255425,0.0,0.0,0.5966500182342738,0.0017398272844305618,75.0,0.0,279.0,0.0,0.0,0.0,1.6698190812931895,0.0,0.0,0.0,0.0,0.0,0.0,0.0,0.0,0.0,0.0,235.7794415000002,0.0
0.06700000000000005,40.242865000092685,140.01044999923334,5.3002461456223315,0.00006595522582466181,0.00006595522582427031,-2.2725475898004838e-10,0.04222296482153452,0.0,0.0,0.5611492298419947,0.01092810743650689,75.0,0.0,279.0,0.0,0.0,0.0,4.716469791299703,0.0,0.0,0.0,0.0,0.0,0.0,0.0,0.0,0.0,0.0,300.2299804000003,0.0
0.07800000000000006,40.24286500039588,140.01044999672547,5.301051355205894,0.0002817096953952767,0.0002817096953952679,-7.044361070211811e-11,0.11665668877878242,0.0,0.0,0.48671550588474677,0.030192972794546413,75.0,0.0,279.0,0.0,0.0,0.0,8.640024222571295,0.0,0.0,0.0,0.0,0.0,0.0,0.0,0.0,0.0,0.0,383.2193662000004,0.0
0.08900000000000007,40.242865001080936,140.01044999105906,5.302870678146959,0.0007691953000738736,0.0007691953000737573,4.2282237194997407e-10,0.2301622223551694,0.0,0.0,0.37320997230835984,0.05957036660863899,75.0,0.0,279.0,0.0,0.0,0.0,11.341308929657416,0.0,0.0,0.0,0.0,0.0,0.0,0.0,0.0,0.0,0.0,440.3289920000003,0.0
0.10000000000000007,40.242865002270435,140.0104499812201,5.306029683550899,0.0016156496403106672,0.001615649640310662,1.2988782938745322e-10,0.3687992385805833,0.0,0.0,0.23457295608294593,0.09545226676396329,75.0,0.0,279.0,0.0,0.0,0.0,13.690485880539292,0.0,0.0,0.0,0.0,0.0,0.0,0.0,0.0,0.0,0.0,489.97332480000034,0.0
0.11100000000000008,40.24286500407424,140.0104499662999,5.310820138654406,0.0028992465039669123,0.0028992465039669123,5.473067095015938e-12,0.5392764342483523,0.0,0.0,0.06409576041517695,0.13957501175845083,75.0,0.0,279.0,0.0,0.0,0.0,17.087651808048086,0.0,0.0,0.0,0.0,0.0,0.0,0.0,0.0,0.0,0.0,561.7647710000007,0.0
0.1220000000000001,40.24286500664245,140.01044994505696,5.317640631982606,0.0047267921920889485,0.004726792192088934,3.7122953550159515e-10,0.75192832938558,0.0,0.0,0.14855613472205076,0.1946133721971095,75.0,0.0,279.0,0.0,0.0,0.0,21.048101944127918,0.0,0.0,0.0,0.0,0.0,0.0,0.0,0.0,0.0,0.0,645.4384274000004,0.0
0.1330000000000001,40.24286501013165,140.01044991619594,5.326907072995577,0.007209728762156863,0.007209728762156862,7.851730897401321e-11,0.9963636462685488,0.0,0.0,0.3929914516050196,0.25787788750209156,75.0,0.0,279.0,0.0,0.0,0.0,23.327273772037405,0.0,0.0,0.0,0.0,0.0,0.0,0.0,0.0,0.0,0.0,693.5275024000005,0.0
0.1440000000000001,40.24286501465731,140.01044987876188,5.338926079691142,0.010430210658491566,0.010430210658491566,-1.371043272403033e-10,1.272612276464149,0.0,0.0,0.6692400818006198,0.32937629418019615,75.0,0.0,279.0,0.0,0.0,0.0,27.055472644840325,0.0,0.0,0.0,0.0,0.0,0.0,0.0,0.0,0.0,0.0,772.224341100001,0.0
0.1550000000000001,40.24286502039019,140.01044983134227,5.354151144970418,0.0145097565094036,0.014509756509403591,-5.370440043193925e-10,1.602862588924208,0.0,0.0,0.9994903942606789,0.41485136469591777,75.0,0.0,279.0,0.0,0.0,0.0,32.351758971933776,0.0,0.0,0.0,0.0,0.0,0.0,0.0,0.0,0.0,0.0,884.017419400001,0.0
0.16600000000000012,40.242865027555865,140.01044977207138,5.373181330863204,0.01960887789929856,0.019608877899298556,3.5879511514624873e-10,1.9883713613431568,0.0,0.0,1.3849991666796275,0.5146283770520351,75.0,0.0,279.0,0.0,0.0,0.0,37.36575820988084,0.0,0.0,0.0,0.0,0.0,0.0,0.0,0.0,0.0,0.0,989.7759705000011,0.0
0.17700000000000013,40.242865036370084,140.01044969916447,5.396589647764615,0.02588111716671095,0.025881117166710946,2.9978402139169136e-10,2.422208497559377,0.0,0.0,1.818836302895848,0.6269136903775294,75.0,0.0,279.0,0.0,0.0,0.0,40.17467731234356,0.0,0.0,0.0,0.0,0.0,0.0,0.0,0.0,0.0,0.0,1048.8763184000002,0.0
0.18800000000000014,40.242865046951536,140.01044961163987,5.424691280433398,0.03341092724202694,0.03341092724202694,3.556710629140647e-10,2.868734510373362,0.0,0.0,2.265362315709833,0.742483126627481,75.0,0.0,279.0,0.0,0.0,0.0,40.914702262354,0.0,0.0,0.0,0.0,0.0,0.0,0.0,0.0,0.0,0.0,1064.2424437000002,0.0
0.19900000000000015,40.242865059339884,140.0104495091695,5.457591571368068,0.042226534778366,0.042226534778366,1.0873657269733217e-10,3.32772916900784,0.0,0.0,2.724356974344311,0.861279685882414,75.0,0.0,279.0,0.0,0.0,0.0,42.66884697180478,0.0,0.0,0.0,0.0,0.0,0.0,0.0,0.0,0.0,0.0,1101.0091062000006,0.0
0.21000000000000016,40.242865073604065,140.01044939118313,5.495473607313825,0.052376994247869665,0.052376994247869665,-2.328319221450714e-10,3.8044358618317164,0.0,0.0,3.2010636671681874,0.9846604569130704,75.0,0.0,279.0,0.0,0.0,0.0,43.70823708818092,0.0,0.0,0.0,0.0,0.0,0.0,0.0,0.0,0.0,0.0,1122.6585446000001,0.0
0.22100000000000017,40.242865089802876,140.01044925719452,5.538493498563544,0.06390413974600245,0.06390413974600244,3.4702577964007553e-10,4.29743900713829,0.0,0.0,3.6940668124747607,1.112259060213857,75.0,0.0,279.0,0.0,0.0,0.0,45.85690591994043,0.0,0.0,0.0,0.0,0.0,0.0,0.0,0.0,0.0,0.0,1167.699219,0.0
0.23200000000000018,40.242865108007855,140.01044910661182,5.586841279942565,0.07685888863428825,0.07685888863428825,1.0836373291744916e-10,4.803841668578422,0.0,0.0,4.200469473914893,1.2433257134851672,75.0,0.0,279.0,0.0,0.0,0.0,46.296965296892125,0.0,0.0,0.0,0.0,0.0,0.0,0.0,0.0,0.0,0.0,1176.6576052000005,0.0
0.2430000000000002,40.2428651282607,140.01044893909017,5.640627668121446,0.09127090802206396,0.09127090802206395,3.264311130429798e-10,5.323581299857893,0.0,0.0,4.720209105194364,1.377844228554856,75.0,0.0,279.0,0.0,0.0,0.0,47.97633343215968,0.0,0.0,0.0,0.0,0.0,0.0,0.0,0.0,0.0,0.0,1211.7445558000004,0.0
0.25400000000000017,40.24286515062573,140.01044875409758,5.700023471880335,0.10718596597896198,0.10718596597896198,3.827224023811304e-10,5.858678448509767,0.0,0.0,5.255306253846238,1.5163375616060157,75.0,0.0,279.0,0.0,0.0,0.0,49.09063360894332,0.0,0.0,0.0,0.0,0.0,0.0,0.0,0.0,0.0,0.0,1234.8870607000001,0.0
0.2650000000000002,40.24286517515142,140.01044855123303,5.765157454451294,0.12463856340582154,0.12463856340582154,-5.102513203625314e-11,6.403264849682738,0.0,0.0,5.7998926550192085,1.6572868939334222,75.0,0.0,279.0,0.0,0.0,0.0,49.99335911972102,0.0,0.0,0.0,0.0,0.0,0.0,0.0,0.0,0.0,0.0,1253.5503176000004,0.0
0.2760000000000002,40.24286520188081,140.0104483301406,5.83614387493576,0.14365931855739936,0.14365931855739936,2.1024272600644878e-10,6.960959278190346,0.0,0.0,6.357587083526817,1.8016288333787573,75.0,0.0,279.0,0.0,0.0,0.0,51.26597625440648,0.0,0.0,0.0,0.0,0.0,0.0,0.0,0.0,0.0,0.0,1279.9899900000005,0.0
0.2870000000000002,40.24286523086784,140.01044809037404,5.913126031735721,0.16428662489246548,0.16428662489246545,1.575601524250736e-10,7.531091459714368,0.0,0.0,6.927719265050839,1.9491899001830217,75.0,0.0,279.0,0.0,0.0,0.0,52.16764761522455,0.0,0.0,0.0,0.0,0.0,0.0,0.0,0.0,0.0,0.0,1298.5910644000003,0.0
0.2980000000000002,40.24286526215126,140.01044783161288,5.996206805986806,0.18654805145366798,0.18654805145366798,2.2112947237196146e-10,8.108258362594027,0.0,0.0,7.504886167930498,2.0985716868511144,75.0,0.0,279.0,0.0,0.0,0.0,52.6801684128133,0.0,0.0,0.0,0.0,0.0,0.0,0.0,0.0,0.0,0.0,1308.9802734000002,0.0
0.3090000000000002,40.24286529575623,140.010447553649,6.0854530264613205,0.21046150397542635,0.21046150397542635,1.5779028778029058e-10,8.692626066873101,0.0,0.0,8.089253872209571,2.2498171780613765,75.0,0.0,279.0,0.0,0.0,0.0,53.61869167933432,0.0,0.0,0.0,0.0,0.0,0.0,0.0,0.0,0.0,0.0,1328.3278812000005,0.0
0.32000000000000023,40.24286533172338,140.01044725614634,6.180972584647931,0.23605589143707406,0.23605589143707406,3.9313678007468766e-10,9.289317740510569,0.0,0.0,8.685945545847039,2.404252347252851,75.0,0.0,279.0,0.0,0.0,0.0,54.770968684449315,0.0,0.0,0.0,0.0,0.0,0.0,0.0,0.0,0.0,0.0,1352.1546507000005,0.0
0.33100000000000024,40.242865370095195,140.01044693875338,6.2828783395897965,0.2633614576129976,0.2633614576129976,-2.399868151425899e-10,9.892411038514481,0.0,0.0,9.289038843850951,2.560344378749954,75.0,0.0,279.0,0.0,0.0,0.0,54.77699948477951,0.0,0.0,0.0,0.0,0.0,0.0,0.0,0.0,0.0,0.0,1351.8436280000005,0.0
0.34200000000000025,40.24286541088892,140.0104466013277,6.3912160403128855,0.2923904554465009,0.2923904554465009,4.0159379294246733e-10,10.502500689107261,0.0,0.0,9.899128494443731,2.7182471995433075,75.0,0.0,279.0,0.0,0.0,0.0,56.03429448341218,0.0,0.0,0.0,0.0,0.0,0.0,0.0,0.0,0.0,0.0,1377.8477786000005,0.0
0.35300000000000026,40.24286545415099,140.01044624348495,6.506109057576991,0.3231759477652165,0.3231759477652165,-8.078476082529207e-11,11.125806667060097,0.0,0.0,10.522434472396567,2.879570657563753,75.0,0.0,279.0,0.0,0.0,0.0,56.878607430241416,0.0,0.0,0.0,0.0,0.0,0.0,0.0,0.0,0.0,0.0,1395.1424069999994,0.0
0.36400000000000027,40.24286549990686,140.01044586501473,6.627624973192502,0.35573603870903897,0.355736038709039,2.803263246531351e-10,11.746170531457937,0.0,0.0,11.142798336794407,3.0401326405633116,75.0,0.0,279.0,0.0,0.0,0.0,56.26728345076879,0.0,0.0,0.0,0.0,0.0,0.0,0.0,0.0,0.0,0.0,1381.8293092000004,0.0
0.3750000000000003,40.2428655481435,140.01044546602486,6.755729157558884,0.39006145124857694,0.39006145124857694,4.942486281356295e-10,12.368095369733904,0.0,0.0,11.764723175070374,3.201098633331437,75.0,0.0,279.0,0.0,0.0,0.0,56.79244092553803,0.0,0.0,0.0,0.0,0.0,0.0,0.0,0.0,0.0,0.0,1392.4051754000002,0.0
0.3860000000000003,40.24286559888025,140.01044504635524,6.89047302212182,0.4261659588592011,0.4261659588592011,5.2351011026186e-10,12.995441606018062,0.0,0.0,12.392069411354532,3.3634677871551633,75.0,0.0,279.0,0.0,0.0,0.0,57.06045115616921,0.0,0.0,0.0,0.0,0.0,0.0,0.0,0.0,0.0,0.0,1397.5686644999998,0.0
0.3970000000000003,40.24286565212859,140.01044460591095,7.031887030853809,0.46405772828882325,0.46405772828882325,2.2619976725035684e-10,13.62400476536348,0.0,0.0,13.02063257069995,3.526151903843568,75.0,0.0,279.0,0.0,0.0,0.0,57.41754799258052,0.0,0.0,0.0,0.0,0.0,0.0,0.0,0.0,0.0,0.0,1404.5985106000005,0.0
0.4080000000000003,40.24286570790365,140.01044414456695,7.180011331819542,0.50374751579953,0.50374751579953,1.485347816965188e-10,14.257825369791474,0.0,0.0,13.654453175127944,3.690196747447924,75.0,0.0,279.0,0.0,0.0,0.0,57.588334759260235,0.0,0.0,0.0,0.0,0.0,0.0,0.0,0.0,0.0,0.0,1407.7090328,0.0
0.4190000000000003,40.24286576621761,140.01044366222237,7.33487831972557,0.5452439992885695,0.5452439992885695,8.753796298943683e-10,14.895168444642687,0.0,0.0,14.291796249979157,3.8551532734836194,75.0,0.0,279.0,0.0,0.0,0.0,58.506402818193095,0.0,0.0,0.0,0.0,0.0,0.0,0.0,0.0,0.0,0.0,1426.4967530000008,0.0
0.4300000000000003,40.24286582710102,140.0104431586245,7.4965691247902235,0.5885689205755851,0.5885689205755852,1.6451173756593107e-11,15.539634831343962,0.0,0.0,14.936262636680432,4.021953448290315,75.0,0.0,279.0,0.0,0.0,0.0,58.41998944984097,0.0,0.0,0.0,0.0,0.0,0.0,0.0,0.0,0.0,0.0,1424.1949702999998,0.0
0.44100000000000034,40.24286589055898,140.0104426337313,7.665097257853024,0.6337258964877954,0.6337258964877954,5.208945358381456e-10,16.183275151334115,0.0,0.0,15.579902956670585,4.188539821299647,75.0,0.0,279.0,0.0,0.0,0.0,58.64200197091215,0.0,0.0,0.0,0.0,0.0,0.0,0.0,0.0,0.0,0.0,1428.3630369999998,0.0
0.45200000000000035,40.24286595659419,140.01044208752032,7.840469905654174,0.6807168559216328,0.6807168559216327,3.969042455809202e-10,16.82705593286592,0.0,0.0,16.223683738202393,4.355162548431064,75.0,0.0,279.0,0.0,0.0,0.0,58.38638642822711,0.0,0.0,0.0,0.0,0.0,0.0,0.0,0.0,0.0,0.0,1422.5152345999995,0.0
0.46300000000000036,40.24286602519496,140.01044152008828,8.022656035925884,0.7295334806428471,0.7295334806428471,5.553384835321751e-10,17.465295163835567,0.0,0.0,16.86192296917204,4.520351016737595,75.0,0.0,279.0,0.0,0.0,0.0,57.99385885938324,0.0,0.0,0.0,0.0,0.0,0.0,0.0,0.0,0.0,0.0,1413.805688800001,0.0
0.47400000000000037,40.24286609635684,140.01044093147195,8.211643826802156,0.7801726066028429,0.7801726066028429,8.113512917073962e-10,18.10961943569985,0.0,0.0,17.506247241036323,4.6871144095178865,75.0,0.0,279.0,0.0,0.0,0.0,58.6613979968167,0.0,0.0,0.0,0.0,0.0,0.0,0.0,0.0,0.0,0.0,1427.3055179999994,0.0
0.4850000000000004,40.242866170094075,140.01044032155357,8.407471098438153,0.8326443639571083,0.8326443639571083,7.726870532298591e-10,18.750507759850187,0.0,0.0,18.14713556518666,4.85298851359183,75.0,0.0,279.0,0.0,0.0,0.0,58.200435257812,0.0,0.0,0.0,0.0,0.0,0.0,0.0,0.0,0.0,0.0,1417.1650636000002,0.0
0.4960000000000004,40.24286624639466,140.01043969043246,8.610105958652039,0.8869402095783863,0.8869402095783864,1.7331434898348874e-9,19.39187624850081,0.0,0.0,18.788504053837283,5.018986893383232,75.0,0.0,279.0,0.0,0.0,0.0,58.23840428594336,0.0,0.0,0.0,0.0,0.0,0.0,0.0,0.0,0.0,0.0,1417.4761349999997,0.0
0.5070000000000003,40.24286632525736,140.01043903811876,8.819545147218548,0.9430592702530411,0.9430592702530411,1.8505511567568078e-9,20.030978527846862,0.0,0.0,19.427606333183334,5.184398735046422,75.0,0.0,279.0,0.0,0.0,0.0,58.044454801232874,0.0,0.0,0.0,0.0,0.0,0.0,0.0,0.0,0.0,0.0,1412.9347652,0.0
0.5180000000000003,40.242866406677095,140.01043836465448,9.035775179444082,1.0009979321468343,1.0009979321468343,1.7058841561556903e-9,20.671847561003116,0.0,0.0,20.068475366339587,5.350267846243699,75.0,0.0,279.0,0.0,0.0,0.0,58.67709776645714,0.0,0.0,0.0,0.0,0.0,0.0,0.0,0.0,0.0,0.0,1425.6880127000006,0.0
0.5290000000000004,40.242866490677635,140.01043766984307,9.258859164234185,1.0607731035330628,1.0607731035330628,2.075206756435577e-9,21.319774233533806,0.0,0.0,20.716402038870278,5.517963608924545,75.0,0.0,279.0,0.0,0.0,0.0,58.88203276188628,0.0,0.0,0.0,0.0,0.0,0.0,0.0,0.0,0.0,0.0,1429.4829097999998,0.0
0.5400000000000004,40.24286657726427,140.01043695364066,9.488811176615656,1.1223885594990042,1.1223885594990042,1.6633684152278505e-9,21.962547074538726,0.0,0.0,21.359174879875198,5.684325461851273,75.0,0.0,279.0,0.0,0.0,0.0,57.917482447785815,0.0,0.0,0.0,0.0,0.0,0.0,0.0,0.0,0.0,0.0,1408.8288325999993,0.0
0.5510000000000004,40.242866666404986,140.01043621631229,9.72554614033574,1.185821499392294,1.185821499392294,2.3885333433337763e-9,22.59859786106652,0.0,0.0,21.99522566640299,5.848947519057104,75.0,0.0,279.0,0.0,0.0,0.0,57.833169560478666,0.0,0.0,0.0,0.0,0.0,0.0,0.0,0.0,0.0,0.0,1406.5892330000001,0.0
0.5620000000000004,40.242866758094486,140.0104354579015,9.96905005085372,1.2510681744740828,1.2510681744740828,2.1735030442116e-9,23.237448691666238,0.0,0.0,22.63407649700271,6.014294280995876,75.0,0.0,279.0,0.0,0.0,0.0,58.27593592471908,0.0,0.0,0.0,0.0,0.0,0.0,0.0,0.0,0.0,0.0,1415.3609621,0.0
0.5700000000000004,40.24286682638793,140.01043489301153,10.150419987909011,1.2996661027552951,1.2996661027552951,2.8540001195676012e-9,23.70491138466096,0.0,0.0,23.101546011055472,6.1352825288178225,75.0,0.0,279.0,0.0,0.0,0.0,58.554900240388776,0.0,0.0,0.0,0.0,0.0,0.0,0.0,0.0,0.0,0.0,1420.8355709000002,0.0
0.5810000000000004,40.24286693030005,140.01043409626286,10.405284297305933,1.368343405288044,1.3683431509689603,0.0008342611206558492,24.91765267772098,3.1194196020194345,2.2795022752034444,25.215398554130694,6.319828890287461,74.99995361821404,0.00022976429243665378,279.0002373528951,-5.574626162432612e-11,-0.00018345627418922544,0.0002397865915259701,58.49563917541001,-0.026089540001002817,2.5194230404931326,5.226950537609572,7.106317873131066,389.05144755302314,8.813651354430418,101200.49415956518,288.0823003911429,26.773425709902277,26.331144468758513,0.0,0.07410767379575516
0.5920000000000004,40.24286703739154,140.0104332747015,10.666921864548508,1.4391589697437708,1.439157979498404,0.0016882653889983834,25.559480213318157,3.1193114891065963,2.3071406409856636,25.852273224580514,6.5127591587010265,74.99977907983249,0.0010812090621155103,279.00111830128395,-2.622568865361368e-10,-0.0003927422008180106,0.0005098375542523783,58.30186560966562,-0.03345197722942641,2.5135673928801388,5.157857069963456,6.930141441462818,408.94219590248,8.631362497070961,101197.35421757674,288.0805997432536,27.374075890856343,25.765512800713164,0.0,0.07597966305711702
0.6030000000000004,40.24286714764911,140.0104324284282,10.935301374242679,1.5121040760674256,1.512101905812747,0.0025618932807429107,26.202815155065473,3.119123715247596,2.334709671432198,26.490891341203067,6.706072970310724,74.99947037620146,0.0025747993964826297,279.0026640339719,-6.243780324444994e-10,-0.0006099820333710362,0.0007864438375643426,58.72520813693462,-0.041302345777145665,2.507249083239554,5.091692851808913,6.761877111975391,429.3845368348979,8.457409779471151,101194.13344700965,288.0788552727899,27.97797927033737,25.221216175394137,0.0,0.07785679328411793
0.6140000000000004,40.242867261090346,140.0104315573076,11.21046627420192,1.5871903537496024,1.5871865927082405,0.003455280450780557,26.851153458144747,3.11885078710415,2.362204081756018,27.134695140887867,6.900676620958959,74.99902243557818,0.004725889439067483,279.0048904497081,-1.1457157165337584e-9,-0.0008353409045138528,0.001069631068702002,58.73094496175884,-0.04966086390526267,2.5004434501519572,5.027596833614076,6.600140818282356,450.49676385485463,8.290152443655291,101190.8313327563,288.077066697355,28.588313703136176,24.69431817124107,0.0,0.0797491817648599
0.6250000000000004,40.242867377713175,140.0104306613573,11.492410994198648,1.6644162625099528,1.6644105298014775,0.004368431476528767,27.493084852730167,3.1184871131089635,2.3896184328778545,27.7723775152362,7.093618266416196,74.99843007705766,0.007549843886824947,279.0078134597279,-1.8298792934403718e-9,-0.0010689506901047586,0.0013593841947734438,58.42011345082669,-0.05851890372359849,2.493147262750538,4.967497374069637,6.447189047952872,471.90670079791244,8.132526605260367,101187.44794812387,288.0752340531616,29.194262327532737,24.192994940040215,0.0,0.08162359724340268
0.6360000000000005,40.24286749750549,140.0104297406734,11.781104663763621,1.7437734975813166,1.743765439258653,0.005301293620948222,28.13651388437723,3.118027006559532,2.4169471417858235,28.411742985349807,7.286945466955791,74.99768804853785,0.011061863175382566,279.0114488068526,-2.6804399715500454e-9,-0.00131091292968966,0.001655652551017317,58.10877770321595,-0.06790062719791166,2.4853325051573836,4.909696965269786,6.300576126273833,493.87124287725203,7.981547115366052,101183.98367014094,288.07335754086097,29.80313975851494,23.70963061333476,0.0,0.08350297767453298
0.6470000000000005,40.24286762045462,140.01042879535797,12.076514503318778,1.8252532482873878,1.8252425345706624,0.006253829045017811,28.77273745154642,3.11746471117807,2.4441844532449313,29.044156801713953,7.478406984763255,74.99679101566952,0.01527702769964281,279.0158121113569,-3.700942218235381e-9,-0.0015613328332577765,0.0019583911820918363,57.88364631578464,-0.07779402775658215,2.476998616383068,4.855500848544326,6.1617327779142785,516.0873445921827,7.839122244400263,101180.43889899224,288.0714373735847,30.406628295859225,23.249611374260024,0.0,0.08536194562828793
0.6580000000000005,40.242867746549955,140.01042782549922,12.378612039230521,1.9088479045895634,1.9088342272499363,0.00722604560639184,29.41126617126572,3.1167943622588354,2.4713244289121854,29.679023389029936,7.670466427441037,74.99573358179707,0.02021020853187476,279.02091877866195,-4.89488304149775e-9,-0.0018203091584710277,0.002267548543350617,58.20792545066514,-0.08823169789210644,2.4681101520705147,4.803078477389253,6.028131178117137,538.8802625677828,7.702123366991589,101176.81398310667,288.0694737363672,31.013616837231126,22.804788612694423,0.0,0.08722814137211655
0.6690000000000005,40.24286787580646,140.01042683099155,12.687430927183609,1.9945665722458772,1.9945496415416073,0.008218183918240418,30.052596253373466,3.116009857590827,2.4983607707417335,30.316824793201235,7.8632540677031715,74.99451025910106,0.025876185832555704,279.0267841219496,-6.2657412284062176e-9,-0.002087996005674349,0.002583135808242895,58.33500927830786,-0.09922924850090438,2.4586439962550886,4.752239163199812,5.899366418627403,562.2734969546567,7.570099155636811,101173.10852574186,288.06746641049926,31.624513680713907,22.374127878224904,0.0,0.08910298219836782
0.6800000000000005,40.24286800823051,140.010425811797,13.00298304057144,2.082412530196242,2.0823920728067677,0.009230440393059869,30.693075076795772,3.1151049989124204,2.525286998380343,30.953930465261752,8.05582608654089,74.99311545654261,0.03228969077706688,279.0334234058881,-7.816988241207408e-9,-0.0023645301625283195,0.0029051438662025717,58.05536900558978,-0.11078711264068074,2.448588882344476,4.703443013515801,5.775842331712252,586.1363162111305,7.443635499555171,101169.32239157765,288.06541531878617,32.23578463832174,21.95936573180752,0.0,0.09097579819520153
0.6910000000000005,40.24286814381516,140.01042476798148,13.325246884268186,2.172380113603095,2.1723558710067294,0.010262927496076601,31.33171371459724,3.11407355818052,2.5520965167568503,31.5893484429496,8.247928280894934,74.99154349733598,0.03946532530166208,279.0408517637216,-9.552069771983675e-9,-0.0026500169045292348,0.003233528942971594,57.963741337469784,-0.1229107009439886,2.437929564540657,4.656695564109927,5.6573983891006225,610.4286678957052,7.322596552829522,101165.45584592033,288.0633206009835,32.846414340839125,21.56027739260628,0.0,0.09284367428734071
0.7020000000000005,40.24286828255126,140.01042369962963,13.654194898769614,2.264462044166884,2.264433770934214,0.011315764451298838,31.96525523865331,3.1129092439400043,2.578782562378429,32.21983652871763,8.438719033553907,74.98978857352631,0.04741752865592228,279.0490841666819,-1.1474385324917135e-8,-0.002944555047035953,0.003568241142262255,57.45297166566711,-0.1355938346341797,2.4266601744707312,4.612322248394311,5.5442618003682025,635.0187238451343,7.207349477957167,101161.50922687806,288.0611824362222,33.45321906688931,21.177977607044294,0.0,0.09469708169725508
0.7130000000000005,40.242868424428195,140.01042260683911,13.989795270823924,2.3586499297053627,2.358617391931547,0.01238908298213559,32.60179420880376,3.1116056893778845,2.605338200387889,32.85341478047236,8.630296678895002,74.9878449803484,0.05616047062892541,279.05813529784444,-1.3587316458461992e-8,-0.0032482318533952306,0.003909219197861374,58.117882583136996,-0.14887876324641333,2.414734796895511,4.569022361799684,5.434731744411528,660.217303272517,7.095745306047513,101157.4829237683,288.05900103131773,34.06386447157398,20.806750278970473,0.0,0.09655959243040754
0.7240000000000005,40.24286856947164,140.01042148943338,14.332103959563048,2.454959025999025,2.454921998432924,0.01348335804536488,33.24211806531639,3.1101560911750115,2.6317559257764382,33.49085880703519,8.822867387271517,74.98570675361253,0.0657082433604674,279.06801977432326,-1.589419408469571e-8,-0.003561215840548596,0.00425648754685518,58.14840494641521,-0.16278438176376303,2.4021255118373173,4.526626430979546,5.328497269123255,686.0632569853732,6.987424268247501,101153.37627299213,288.05677602254275,34.679066072095516,20.445696801842722,0.0,0.0984334866754282
0.7350000000000005,40.242868717686704,140.01042034739422,14.681126136462012,2.553390943176265,2.553349208495071,0.014598909965109652,33.879840811029624,3.1085536944592795,2.658028169521826,34.12582355346192,9.014779113659541,74.98336782032806,0.07607487616807006,279.07875215121226,-1.83983429982544e-8,-0.0038836358630408266,0.004610023980240535,57.62466347135517,-0.17729067492839773,2.3888289449819435,4.4859267064103445,5.226371754233477,712.3006115590277,6.8835044101961005,101149.1892204495,288.05450737628564,35.292659763781145,20.09791324326575,0.0,0.10030011607589227
0.7460000000000006,40.24286886905315,140.010419180899,15.036804225041958,2.653930434419208,2.6538837828936392,0.015735870826657727,34.510648329702484,3.106791940226455,2.6841470638405482,34.75401631116289,9.204915745709478,74.98082211917868,0.08727414345996715,279.0903467112863,-2.1103070629802047e-8,-0.004215937506390816,0.004969745786286396,57.20820265745773,-0.19237847390120294,2.374802933914099,4.447360966137179,5.12873109869509,738.7409984540835,6.784543134573582,101144.92246500538,288.0521954668412,35.90044080170293,19.764969226467645,0.0,0.10214686403926986
0.7570000000000006,40.24286902355565,140.01041799008917,15.399092074147923,2.7565653549723095,2.7565135831782763,0.016894436577607086,35.14066189188561,3.104864169178915,2.710104497191614,35.3815059896349,9.394865241022913,74.9780630491485,0.09931956797422337,279.10281749573426,-2.4011564510632247e-8,-0.004558457308662937,0.005335574068356068,57.39365353706374,-0.20808599101530803,2.360032190353161,4.410013500749113,5.034402129107552,765.6313700014258,6.6890453551711095,101140.57656838496,288.0498405941605,36.508231484071786,19.44285476193021,0.0,0.10399156812619062
0.7680000000000006,40.242869181205975,140.0104167749028,15.768008616726148,2.86130110327678,2.8612440118203875,0.01807507772855138,35.774252832522045,3.1027633118311444,2.7358919336842855,36.01262848734116,9.585762936059375,74.97508403369288,0.11222440530136918,279.1161782605652,-2.712699534688785e-8,-0.004911357876918517,0.005707489166293257,57.75896944647836,-0.22445075726992525,2.3444688416926383,4.373271668112476,4.942597355010103,793.1609882282296,6.596005640072468,101136.15131182957,288.0474426352178,37.12020218920226,19.128877586081142,0.0,0.10584697265791848
0.7790000000000006,40.24286934202941,140.01041553517805,16.1436046604053,2.96815170160487,2.968089093368124,0.019278422369991277,36.41509033038722,3.1004819642444463,2.761500340699,36.65102558336597,9.778562895856007,74.97187836613334,0.12600178972520298,279.13044264010034,-3.045251508816319e-8,-0.005274835679795239,0.006085499808273328,58.835223080636275,-0.24151308068074934,2.328061084151065,4.336665223859726,4.8527180847846925,821.5013879159696,6.504654500345121,101131.6460944112,288.0450012597872,37.73986852537442,18.820980052716138,0.0,0.10772378207274344
0.7900000000000006,40.24286950606072,140.01041427068375,16.525953070044366,3.0771371544743635,3.0770688330532656,0.020505221256920725,37.0554318847742,3.0980124192166363,2.786920202000866,37.289001559831036,9.971260394207675,74.96843901962795,0.140664846055865,279.14562427462886,-3.399124541894876e-8,-0.005649117755654371,0.0064696386465710074,57.24796623131984,-0.25923680745290545,2.310823680312307,4.30108900128478,4.765691427767148,850.3184464160248,6.416267106511072,101127.06005086887,288.0425159942623,38.35973979746319,18.522647735751715,0.0,0.10959937799745031
0.8010000000000006,40.24286967326037,140.01041298175303,16.914946026841992,3.1882288117973294,3.188154584113354,0.0217555549599881,37.684949151984554,3.0953479910026847,2.812142888324135,37.916285675121415,10.161179340273854,74.96475903307942,0.15622644170571576,279.16173653024106,-3.7746301740444656e-8,-0.006034234975834017,0.006859768051693087,57.2739394277928,-0.277548555386942,2.2928071776044856,4.267641179632948,4.6826306383094485,879.1347347803959,6.332393547821675,101122.39448328776,288.03998753947485,38.96979239612931,18.238098877140438,0.0,0.11144357293880032
0.8120000000000006,40.24286984362828,140.0104116684232,17.31057026585699,3.3014235419675604,3.301343215528102,0.023029909774103796,38.32151312505039,3.09248135399857,2.837158975340945,38.5506326818328,10.352957561485018,74.96083135148413,0.17269902381735863,279.1787923459275,-4.1720700834204716e-8,-0.006430300712086884,0.007255822704381203,58.116354242095255,-0.29658731702184415,2.273871207879796,4.234206521686097,4.601136301593903,908.7624725538026,6.249831188455953,101117.64955968136,288.03741598164504,39.587261589678,17.958659565165867,0.0,0.11330855189536956
0.8230000000000006,40.24287001719595,140.0104103304955,17.71288793933601,3.4167385736989004,3.4166519541007636,0.024329108932162224,38.957779084406056,3.089404551202637,2.861958187880572,39.18473907453709,10.544692500291974,74.956648722708,0.19009490320332031,279.1968045286759,-4.5917426040413805e-8,-0.006837525967569128,0.007657818732546473,57.481670786737666,-0.31631040865237176,2.2540361045333244,4.20157651956437,4.522008955694378,938.8679249437627,6.169694313821345,101112.8245437916,288.034800916817,40.2050217801154,17.687363165503445,0.0,0.11517284898367039
0.8340000000000006,40.24287019394663,140.0104089681372,18.121844024950356,3.53415957787608,3.5340664705274736,0.025653533610779045,39.58802869102591,3.086110370690474,2.886530842671126,39.812914401827776,10.734902750360353,74.95220396481785,0.2084261210173824,279.21578559841737,-5.033945695466643e-8,-0.007255986398398674,0.008065659316168596,57.4832656343834,-0.33667377265712983,2.2333256624871693,4.170297959751991,4.445759818056189,969.1733563688515,6.092719946527118,101107.92010479428,288.03214270265175,40.817498124790376,17.426208650457003,0.0,0.11701973893792991
0.8450000000000006,40.24287037388881,140.01040758132825,18.537443263540204,3.65368838870375,3.6535885966810646,0.02700385066419364,40.22523192566486,3.082591071146959,2.9108665511640606,40.44805057433705,10.926958133902245,74.94748959952415,0.22770440837108114,279.2357477752533,-5.4989662533120297e-8,-0.007685811064109068,0.008479291688827542,57.78213715929293,-0.35779819843093924,2.2116117097633854,4.138948416427814,4.370813323005139,1000.3025631922992,6.016780539264549,101102.93619524679,288.02944130835226,41.43723923313579,17.169437419154264,0.0,0.1188871145450854
0.8560000000000006,40.24287055703968,140.01040616998586,18.95971038950056,3.7753322573567925,3.775225580130457,0.02838084860234369,40.85784399437837,3.0788386632603424,2.93495445355289,41.07866381745854,11.117864001920825,74.94249824295946,0.24794124365858644,279.2567030071431,-5.987092264331668e-8,-0.008127165270842323,0.008898691951362765,57.287465319984314,-0.3795898300625116,2.1889622148146852,4.1086886028848095,4.298339373169453,1031.6946896282952,5.943513367802152,101097.8725281219,288.02669657316613,42.05302154456654,16.921482904353237,0.0,0.12074122265023055
0.8670000000000007,40.24287074338601,140.010404734257,19.388596506447858,3.8990786192320526,3.8989648537899018,0.029785027507482353,41.48898180682072,3.0748456952475993,2.9587840731629957,41.7078492685476,11.308432713656401,74.93722221302332,0.26914782905241075,279.2786629768124,-6.498602159669937e-8,-0.008580115470258958,0.009323757667764686,57.58016788679075,-0.4020804031846664,2.165330640323497,4.079138934633171,4.22787714338224,1063.4970238648611,5.872316224962193,101092.72969944366,288.0239088149148,42.667841410222366,16.680710510707996,0.0,0.12259116089860081
0.8780000000000007,40.24287093294317,140.01040327407787,19.82412001912136,4.024933104448584,4.024812042800491,0.03121722944551042,42.12167087121282,3.0706040652011173,2.9823440660475304,42.338612901656305,11.499453432615173,74.93165390824207,0.29133497648434675,279.3016389570376,-7.033771010291512e-8,-0.0090448043335509,0.009754446444666037,57.0305513605083,-0.42530787842096157,2.140662680981533,4.049959144954481,4.159022648236855,1095.8617605140573,5.802655466985266,101087.50749839349,288.02107791400016,43.28461785018204,16.445675297222877,0.0,0.12444576512127922
0.8890000000000007,40.24287112570237,140.010401789567,20.266240920842876,4.15288561477231,4.152757044853344,0.03267806303479159,42.74920525354758,3.0661061537094616,3.0056233830072148,42.96427968296728,11.68918629394293,74.92578551293012,0.3145132241918562,279.32564195138417,-7.592866959178985e-8,-0.009521307046394997,0.010190664433628007,57.1845813445819,-0.4492067703045834,2.1150021103671897,4.0217499653625195,4.0923390321124105,1128.441760272766,5.735345539230546,101082.2064146614,288.01820413048415,43.89680317148659,16.218568979164843,0.0,0.12628541574111168
0.9000000000000007,40.24287132167844,140.01040028066956,20.714974444311007,4.282941015971156,4.28280471941962,0.034168429947357026,43.38462736958215,3.061343721354998,3.0286101500046594,43.597823303675234,11.881026187531274,74.91960933529573,0.3386926561876109,279.3506824856698,-8.176154201928635e-8,-0.010009749286654438,0.01063235607766977,58.31390322726854,-0.47392632245343536,2.088187522599576,3.993246782211867,4.026497659067255,1161.9166511250905,5.668547912026666,101076.82627572588,288.0152873653756,44.51707758623074,15.994426648353635,0.0,0.12814824688460025
0.9110000000000007,40.2428715209147,140.0103987471232,21.170401935707734,4.415122090201511,4.414977839521806,0.03568960516343567,44.0220964999636,3.05630771551531,3.0512914018032915,44.23343052853514,12.073458003290254,74.91311730137308,0.3638832048217518,279.3767709522488,-8.783889907255091e-8,-0.010510348690680307,0.011079532985986853,57.37809895934421,-0.499417562450592,2.0602437138989687,3.964985038430702,3.9620071620395065,1195.990167298553,5.602993224954736,101071.36611661153,288.01232708993894,45.13974275871257,15.775219211102195,0.0,0.13001717235503094
0.9220000000000007,40.24287172338484,140.01039718918253,21.632439603095932,4.549407014249221,4.549254577249768,0.0372420820046534,44.64451947907364,3.050990793369787,3.0736557431711002,44.85408592275781,12.262036048527925,74.90630138422118,0.3900944579190538,279.4039173825529,-9.416329572678331e-8,-0.011023121193526997,0.011532058255623307,56.1583100377192,-0.5254766970022068,2.031350099673891,3.938446315637008,3.900290769039922,1229.7338063284865,5.540726760945066,101065.82695239279,288.00932384883674,45.74810404777602,15.566439491121473,0.0,0.13184217810557494
0.9330000000000007,40.2428719290568,140.01039560714656,22.100989380446254,4.685770140992883,4.6856092807592065,0.038826309168619955,45.26989784231564,3.0453858219280496,3.095691851260165,45.477701497503745,12.451449479753471,74.89915354561442,0.41733538471057086,279.4321311756525,-1.0073716426304468e-7,-0.011548032892534393,0.011989761659228793,57.32401952688817,-0.5523148170532309,2.0012849484544857,3.9119676550300455,3.839649318627568,1264.1091047066193,5.47936810167848,101060.20996924196,288.0062782795186,46.35969514024067,15.361663788740145,0.0,0.13367591378650703
0.9440000000000007,40.24287213798323,140.0103940006935,22.576151061303246,4.824239405710222,4.8240698733324585,0.040443798207957404,45.90483140718367,3.0394833228806704,3.117385689502997,46.11084578414437,12.643422044554427,74.89166567603921,0.4456145550980597,279.4614213232472,-1.0756286975889019e-7,-0.012085306504443862,0.012452657085496,57.73079905255884,-0.5800325008323892,1.9699261935328376,3.884977309493547,3.7794997014870906,1299.4928707603872,5.418095786220887,101054.51398148047,288.0031897333467,46.98095464046196,15.158684963573249,0.0,0.13553768755872606
0.9550000000000007,40.24287235019454,140.01039236966866,23.057970963198922,4.964828332260591,4.964649867751945,0.042095836469690506,46.53892449555851,3.0332742651159075,3.138723433111706,46.743168813852094,12.835249786304495,74.88382938332067,0.4749403712297786,279.4917966595413,-1.1464273773630377e-7,-0.012635105594034288,0.01292071423569288,57.411020698994506,-0.6085083388489159,1.937370599007311,3.858354816411391,3.72067244113412,1335.3156130952245,5.358112294579203,101048.73844477856,288.00005790926775,47.60172088023998,14.960730599673077,0.0,0.13739707761788425
0.9660000000000007,40.242872565687726,140.0103907141646,23.546416436056393,5.107529108285024,5.107341442719551,0.04378332397375462,47.16923498297156,3.026750541310294,3.159692020849541,47.37173842476894,13.026169174093706,74.87563634360767,0.5053207985929855,279.52326556318894,-1.2197905919625183e-7,-0.01319748124031702,0.013393824139148166,57.05464366596451,-0.637703441566611,1.903636929712634,3.832306444008135,3.6633285890166554,1371.4055251412785,5.299672151063488,101042.88376161957,287.9968830195424,48.21909996448223,14.768471773628056,0.0,0.139245465436163
0.9770000000000008,40.242872784455926,140.0103890343043,24.04144503036283,5.252331302188503,5.252134157472375,0.04550714077070239,47.79536346045104,3.0199041953679386,3.1802783394002043,47.99615359569845,13.216079043416448,74.86707820938437,0.5367632906848635,279.55583588878704,-1.2957404174212427e-7,-0.013772463521443717,0.013871864954431596,56.61334936210442,-0.6676095841350633,1.8687142026453454,3.806819410280305,3.6074168896264767,1407.730331199254,5.242725506735227,101036.95045195648,287.9936653400952,48.83268126963619,14.581760899679809,0.0,0.14108167240241695
0.9880000000000008,40.2428730064911,140.01038733022068,24.543011000960956,5.399223627456726,5.399016715974264,0.04726817023576202,48.418507046720286,3.0127273398298273,3.2004691370736484,48.61760332795952,13.405295069744495,74.85814634383208,0.5692748344200467,279.5895150336525,-1.3742975616994329e-7,-0.014360070216519865,0.014354708381573874,56.70284593288552,-0.6982412697923425,1.8325685036107822,3.78175653416392,3.5527713390140656,1444.3510696047108,5.187053784058385,101030.93907536849,287.9904051683134,49.44361792339655,14.399998794373916,0.0,0.1429091936626186
0.9990000000000008,40.24287323180866,140.01038560188027,25.051121409646193,5.5482091746924525,5.547992196351849,0.04906766104562221,49.04561189278099,3.0052113310396424,3.2202501239834755,49.24300307599573,13.595635425559452,74.8488324258591,0.6028618089863955,279.6243097480576,-1.4554824866468732e-7,-0.014960380062718022,0.014842267662987418,57.199864876210846,-0.7297064965229549,1.795068311083177,3.75654989201152,3.4988318598388854,1481.677000997114,5.131855506683762,101024.84955853909,287.98710245829574,50.058699063624545,14.221032422599146,0.0,0.1447483572603036
1.0099999999999996,40.24287346044284,140.0103838491158,25.56582562383181,5.699302592665604,5.69907523238381,0.05090715464746065,49.67685590256408,2.9973468136569394,3.2396059774891595,49.872528983147006,13.787152063964117,74.83912771574634,0.637530273135287,279.66022648184145,-1.5393144657974096e-7,-0.015573529886780896,0.015334493660106953,57.37690901926997,-0.7620194703863687,1.7561746925451305,3.731179966854204,3.4455617061979855,1519.727735284273,5.077086619285236,101018.68132139686,287.9837568891886,50.678093365623354,14.044740864627071,0.0,0.1465996816564384
1.0209999999999984,40.24287369240356,140.01038207193866,26.087116093028015,5.852503113429885,5.852265042784831,0.05278789354719693,50.300073032945186,2.9891252452372004,3.2585219971631947,50.49406086320777,13.97666800142658,74.82902364293201,0.6732858099501295,279.6972711819622,-1.6258126507498195e-7,-0.0161995822069892,0.015831288769650956,55.96159301144286,-0.794987525674593,1.7160648783553263,3.706536205814565,3.3937545224651373,1557.7646991254976,5.023933250944531,101012.43446611775,287.98036851006356,51.28986432480915,13.874283341548468,0.0,0.14842754011701875
1.0319999999999971,40.24287392766032,140.01038027065226,26.614892339574908,6.00778474960044,6.007535630574982,0.05471055568795935,50.91998302533447,2.9805395381909885,3.276984887814081,51.11229712304107,14.165421256762999,74.81851137105342,0.7101334514777596,279.7354492519661,-1.714994678773176e-7,-0.01683845024383665,0.01633246180880434,56.443229539331064,-0.8286778231318462,1.6746513044501665,3.68222506788481,3.3430168198803014,1596.0630413702318,4.971835574897473,101006.11020859526,287.97693797406276,51.89862153462298,13.7081486072516,0.0,0.15024574353782624
1.042999999999996,40.24287416623396,140.01037844519462,27.149169754414853,6.165153082432038,6.164892561245277,0.05667661002486302,51.5410716104174,2.9715808618896182,3.2949792004142817,51.73170443258259,14.354589929340484,74.80758233210587,0.7480775423250002,279.7747653722635,-1.8068775823319884e-7,-0.017490201859707472,0.01683792122584187,56.58041674866829,-0.8631668389306327,1.6318317871645678,3.6578952596990892,3.293005985574081,1634.8974911392575,4.9202994063589705,100999.70837627354,287.9734651811722,52.5087539701723,13.545010677428719,0.0,0.15206742212798635
1.0539999999999947,40.24287440815341,140.01037659544977,27.689980633558317,6.324618365214596,6.324346070543526,0.05868769556231146,52.169424776063046,2.962239978640938,3.3124887786504402,52.35834536217741,14.545774706374056,74.79622759242268,0.7871220196276624,279.8152238315088,-1.9014771106141672e-7,-0.018154921905254133,0.017347585616583488,57.09251074175047,-0.8985694535440499,1.5874602080049622,3.63310863556112,3.243313406844789,1674.658340773384,4.868722119674891,100993.2285942393,287.9699499214974,53.12623014166396,13.383259868136568,0.0,0.15391039768551718
1.0649999999999935,40.242874653452915,140.0103747212675,28.23736792642719,6.486193819604111,6.485909361063366,0.06074558042492462,52.79537287745911,2.9525074235834907,3.3294969184208916,52.982584375302366,14.736446284809888,74.78443844084077,0.8272703046027976,279.8568283705657,-1.9988089415289869e-7,-0.018832717596217824,0.017861386809096276,56.47631195938097,-0.9347202796320628,1.5416870392628783,3.608532616571955,3.1945193566948866,1714.7382274093052,4.817983217626902,100986.67036010949,287.96639191586405,53.74155047154887,13.225235144108371,0.0,0.15574634668965778
1.0759999999999923,40.242874902118885,140.01037282283815,28.79126646634741,6.649863250923792,6.64956622419824,0.06285130061275201,53.41364051138012,2.942375625342282,3.3459888036772787,53.59916238220417,14.92522401562196,74.77220578780792,0.8685253417226726,279.89958227047657,-2.0988872573793083e-7,-0.019523528917918347,0.01837915602271037,55.73241249185866,-0.9715128906170296,1.494606889020224,3.5844937106661225,3.1468867523496065,1754.7871677312814,4.768497222031356,100980.03446706268,287.96279158788934,54.34951893139341,13.072027124068784,0.0,0.1575598097115196
1.086999999999991,40.24287515413363,140.01037090038255,29.351601338133356,6.815607828777776,6.815297815619758,0.06500584670220055,54.02914859568922,2.931837314218569,3.3619497612524714,54.21298067999302,15.113403176433614,74.75952093905379,0.9108892657545778,279.9434879571349,-2.2017256187767766e-7,-0.02022726422290854,0.018900708422451173,56.58343359837513,-1.0090290131763175,1.4461131484561887,3.5606242761549454,3.100067389900673,1795.1123643193007,4.719754844904376,100973.32182503208,287.9591494245518,54.95495677561121,12.922268045189815,0.0,0.15936519451263842
1.0979999999999899,40.24287540954245,140.01036895368253,29.91843628896299,6.983446677042433,6.98312323622551,0.06721129951394333,54.65234164227102,2.920882666598952,3.3773619680237,54.83444698725977,15.303733355104972,74.74637480539842,0.9543636815388655,279.988547344638,-2.3073357959957493e-7,-0.02094402326867999,0.019425972823575013,55.787187990616495,-1.047476852742847,1.3959541097977894,3.53622212896148,3.0534363274623146,1836.4045208043278,4.670813288655328,100966.53168283185,287.9554650114896,55.56812554332386,12.773449481872504,0.0,0.16119309631243145
1.1089999999999887,40.24287566834557,140.01036698283758,30.49173447130248,7.153371466287242,7.1530341388747365,0.06946900593099214,55.269737632757064,2.9095037269076367,3.392209445356051,55.45012348815695,15.492676067489864,74.73275857768925,0.9989496068555319,280.03476172369267,-2.415729468144021e-7,-0.021673769007790528,0.019954799169724813,56.7808539586696,-1.0865880150736063,1.34440029830686,3.512153219159356,3.0077276967246953,1877.7705937504688,4.622803315607042,100959.66449463014,287.9517385882658,56.17576163125743,12.628568757314628,0.0,0.1630040133886006
1.1199999999999875,40.24287593058007,140.01036498769426,31.07153867832274,7.325395744355401,7.325044047577889,0.07178100350339656,55.89192480809822,2.8976910210400604,3.406474233011165,56.070562140107796,15.683022032374648,74.7186632458392,1.0446474515651347,280.08213177978996,-2.5269167995124015e-7,-0.022416555410951732,0.02048708968569266,55.87175514399601,-1.126577951482223,1.2911903004690075,3.487721468829927,2.962329085539145,1919.9199782772441,4.574795206814877,100952.7197606653,287.94796987673317,56.78827289773559,12.485152946110166,0.0,0.16482896516343928
1.1309999999999862,40.242876196250634,140.01036296832626,31.657819798467457,7.499513427666959,7.499146858755948,0.07414878669147518,56.51247243536886,2.885436463444954,3.420139694872222,56.689352085513775,15.873084582154892,74.70407980454716,1.0914570535384713,280.130657612451,-2.640907182547563e-7,-0.02317233447298565,0.021022689720375756,56.677779482644084,-1.167311882169411,1.2364500076345264,3.4633212818001833,2.9175637577953686,1962.4194192458071,4.52729512020446,100945.69784265276,287.94415906614273,57.39932612736273,12.344539517667984,0.0,0.16664910632793764
1.141999999999985,40.242876465396414,140.0103609245732,32.250622309652854,7.675738684469659,7.675356714439698,0.07657452820262067,57.13793649216877,2.8727304996779877,3.4331872285066907,57.313027678293814,16.06459798508697,74.68899924695798,1.1393776000697118,280.1803386572266,-2.7577088890633905e-7,-0.02394115025074772,0.02156149635411292,56.756353970574814,-1.2089326314591016,1.1799940734338847,3.438537277913979,2.873069852732321,2005.722356618305,4.479749430159907,100938.59822102536,287.94030586739535,58.01536987430894,12.205256750984582,0.0,0.1684836463724779
1.1529999999999838,40.24287673804359,140.01035885636696,32.84996133666396,7.854077713526844,7.85367978814308,0.0790602013146735,57.76220888063722,2.8595641396161264,3.4455985901618846,57.935498888707855,16.255957134849314,74.6734125177854,1.1884077169530756,280.23117377832875,-2.8773293123204885e-7,-0.02472300471445064,0.02210338354049903,56.33424617252533,-1.2513067571111958,1.121947196165977,3.4137302263003004,2.8291385608815833,2049.4088509760395,4.432618207794046,100931.42072808818,287.93641018223633,58.630384882614145,12.068522140081274,0.0,0.17031468298194366
1.1639999999999826,40.242877014187926,140.01035676384961,33.45578562486577,8.034518537995474,8.034104081830971,0.0816072282329312,58.37849847813623,2.8459299397337916,3.457357105441838,58.54999333849814,16.44537177875713,74.65731057133289,1.2385453559594841,280.2831611521036,-2.9997747252099314e-7,-0.025517788056598784,0.022648165807893562,55.79035747595171,-1.294268086722069,1.0624779851259516,3.3892763126517362,2.786064379634722,2092.9918033545077,4.386375649213334,100924.16599110562,287.93247234382187,59.23767145945371,11.935586119542979,0.0,0.17212230729655548
1.1749999999999814,40.242877293824876,140.01035464716713,34.06804254385652,8.217048849738294,8.216617265484404,0.08421705010881819,58.99549331682876,2.831820607982674,3.4684460787992024,59.165171831520276,16.635143521485773,74.64068443444803,1.289787681246729,280.33629814911586,-3.125049992819205e-7,-0.026325364086114182,0.023195645806818186,56.18695566580139,-1.3380045784942138,1.001352274626308,3.3646439684202116,2.743394084582884,2137.078825694052,4.340320885836514,100916.83465384928,287.9284926942681,59.84578145411187,11.804581562513189,0.0,0.17393197989898979
1.1859999999999802,40.24287757699119,140.01035250618844,34.68676629288841,8.401680319669913,8.401230980060593,0.08689196509960473,59.6148506234637,2.8172269560673957,3.478846286397938,59.78268607267717,16.8257174339532,74.6235251589997,1.3421311626071453,280.39058143062533,-3.25315874470868e-7,-0.027145728703232463,0.023745697812117324,55.690804057978724,-1.3825545754274127,0.9385003919448099,3.3397285051025234,2.7010331546885533,2181.7918381702234,4.294310295670236,100909.42632047835,287.92447101131427,60.45634420029274,11.67512576256815,0.0,0.1757485569602005
1.196999999999979,40.2428778636858,140.01035034103973,35.31191013832119,8.588402362517412,8.58793461609476,0.08963353265378071,60.2263437550669,2.802141750426441,3.4885405781611714,60.392337227983205,17.01438893479058,74.60582380331033,1.3955716119339894,280.4460069867302,-3.3841035292014404e-7,-0.027978750275854735,0.02429813077591214,55.74106241463326,-1.4276592330208426,0.8742015941557862,3.3150868204343307,2.659419497814818,2226.38390728646,4.249049025044661,100901.94156436868,287.9204075987649,61.05926953263072,11.549083850220558,0.0,0.17754205628532896
1.2079999999999778,40.242878153925275,140.0103481517313,35.94346337619484,8.777214429466202,8.776727596367703,0.09244371253524153,60.841519380059815,2.7865570121728096,3.497510696033693,61.005638768274146,17.204225533829458,74.58757150913841,1.450104050603529,280.5025699985281,-3.5178854536015673e-7,-0.028824324104497395,0.02485276905022127,55.53582504602397,-1.4735935840914747,0.8081137914935704,3.290060828371931,2.618012527442675,2271.69480116954,4.203683367246586,100894.38052748653,287.91630252619063,61.66593842248047,11.424186149114886,0.0,0.1793463254239297
1.2189999999999765,40.24287844772569,140.01034593827893,36.58141352358612,8.968115508071579,8.967608879157643,0.09532448041794761,61.45214568345844,2.770464909649371,3.505738284110903,61.614380511640945,17.3930476084514,74.56875944490342,1.5057228157761504,280.5602649483568,-3.654504435994334e-7,-0.029682349320241632,0.025409440953620775,55.26649708001177,-1.5201418998978162,0.7404676534806692,3.2650857958984316,2.5771497352169903,2317.114948655929,4.158761105365665,100886.74337331658,287.9121558747866,62.26822533068756,11.301883547363676,0.0,0.18113722824411693
1.2299999999999753,40.24287874509646,140.010343700745,37.225733147739525,9.161100553407008,9.160573390503322,0.09827770264264712,62.06330457794257,2.753858084003451,3.513205342372489,62.2236299267326,17.58221163223297,74.54937885450579,1.5624214821672064,280.6190855385741,-3.793959028429027e-7,-0.030552677830882297,0.0259679524718498,55.61710773028648,-1.567423350956997,0.6711016506677182,3.239873394115457,2.5365926175959888,2363.0189577344513,4.11390586446941,100879.03044431563,287.907967822875,62.87113901671396,11.18117224250908,0.0,0.18292966251081982
1.2409999999999741,40.24287904606433,140.01034143908007,37.876429660160966,9.356174217396052,9.355625748683092,0.1013056604763718,62.672028600043,2.736728429129251,3.5198926908513117,62.830426513708474,17.770933195600243,74.52942103952257,1.6201928998172508,280.6790247304962,-3.9362464667566015e-7,-0.031435213529205266,0.026528137194052982,54.96098530740218,-1.6153503345239855,0.6000975493763161,3.214565549700352,2.496443554871257,2409.180742950773,4.069289955535343,100871.24166590531,287.9037383222792,63.47174565028538,11.062508583779993,0.0,0.1847149250982041
1.251999999999973,40.242879350642866,140.01033915332386,38.533482287093236,9.553333431385463,9.552762852960369,0.10441037461691538,63.28589599741351,2.7190685825062193,3.5257818375393564,63.44232895880899,17.961240516091088,74.5088773747818,1.679029176038321,280.7400747256426,-4.081362654516474e-7,-0.03232979366144876,0.02708979718816325,55.97767086867622,-1.6641195606542867,0.5271967037899083,3.1887642630964748,2.4563866285371376,2456.179962068196,4.024403182868426,100863.37730116547,287.8994675081092,64.07752416969412,10.944531675923987,0.0,0.1865152381075139
1.2629999999999717,40.24287965888654,140.01033684325245,39.19695226532956,9.752597980117791,9.752004445675077,0.10759485736390739,63.89862943717333,2.7008691562368763,3.530851464931188,64.05307525962911,18.151465500785946,74.48773927673143,1.7389217337203684,280.8022270258296,-4.229302221927012e-7,-0.033236390725545364,0.027652801114541933,55.232581880076395,-1.7135552867409405,0.4525846015674681,3.162780877473425,2.416656755214588,2503.5382639946565,3.979633002691689,100855.43663153869,287.89515498229616,64.68227307551669,10.828274276020137,0.0,0.18831219248115655
1.2739999999999705,40.24287997079097,140.01033450902673,39.86678061529467,9.953954314739,9.953336947489515,0.11086076696139302,64.5068825373043,2.6821240734524054,3.535084157360608,64.65932650613205,18.34071997345269,74.46599822784916,1.7998612793835689,280.8654724002561,-4.3800585586545977e-7,-0.034154764150181906,0.02821691682706776,55.30284010787936,-1.7635462739648309,0.37637837078852343,3.136766127002177,2.3773599612738185,2550.98945549871,3.93516120844241,100847.42037763831,287.89080112827355,65.2826815030341,10.714215925864412,0.0,0.19009597213909588
1.2849999999999693,40.24288028638488,140.01033215059627,40.54297390371971,10.157407208355115,10.156765092178777,0.11421058901484793,65.1206174489945,2.6628256121659475,3.538460216253953,65.27102081231077,18.53167648810859,74.44364584299448,1.8618377087668874,280.92980078688504,-4.5336234721052884e-7,-0.035084757169332,0.02878195371577981,55.802329716650014,-1.8143675055831714,0.2982186631334221,3.110223266226647,2.3381129980961934,2599.3149319464933,3.8903585742829616,100839.3284755762,287.88640590337144,65.88858898080233,10.600677291090122,0.0,0.19189579508335486
1.295999999999968,40.242880605718874,140.01032976777353,41.22558098165266,10.36297332674695,10.362305499317438,0.11764739556950099,65.73589774159223,2.642964916060532,3.5409582007422564,65.88423104522052,18.72328979926636,74.42067379261246,1.9248402371565596,280.9952014274833,-4.689987481520282e-7,-0.03602628365280148,0.029347755060240906,55.515876692280834,-1.865900891388248,0.21822403442895577,3.083339260536332,2.2990536091633773,2648.2108973757327,3.8454550527691,100831.16035568675,287.88196899008716,66.4961044003331,10.488272492182256,0.0,0.19370011637746248
1.3069999999999669,40.24288092880437,140.0103273606241,41.91457184582362,10.570647401464093,10.569952862432627,0.12117331402531706,66.34552389490052,2.622535534647406,3.5425594757625882,66.49177363522965,18.913634491056445,74.39707382934493,1.9888573675518875,281.06166283456355,-4.849139807507402e-7,-0.03697911572112174,0.029914100090802108,55.0614703528615,-1.917915416129177,0.1366620663974386,3.0564403628543766,2.260418020322851,2697.0977542527853,3.8008511194874446,100822.91639208222,287.87749058346867,67.09810698640179,10.378069708591845,0.0,0.19548781654074202
1.3179999999999656,40.242881255647234,140.01032492925077,42.60990473063889,10.78042094723457,10.77969865843543,0.12479035579430109,66.95620203797064,2.601531554294939,3.5432459122599123,67.10033941324204,19.104518432912805,74.37283786964811,2.053876781930631,281.1291726780221,-5.011068060090722e-7,-0.03794297921611708,0.03048074931178507,55.97243849185178,-1.9705951539410633,0.05328502855916669,3.0292018045044795,2.2219581587903843,2746.5105243754697,3.7561363490903523,100814.59709961602,287.8729709550029,67.70122265788324,10.268967309912105,0.0,0.19727856687821935
1.3289999999999644,40.2428815863058,140.01032247342806,43.3116391814051,10.992313955585917,10.991562825656766,0.1285019369860061,67.56950020330792,2.579944188577085,3.5429954039410507,67.7114930139142,19.296370948421615,74.34795795077656,2.1198854199938713,281.1977178662611,-5.175758317753308e-7,-0.03891776149013901,0.031047537201708515,54.66039496543687,-2.023980097270879,-0.03198273043798823,3.001545769304966,2.1836131028834096,2796.5805153889855,3.7112100556159464,100806.20178115631,287.86840971767185,68.30700027210499,10.160697537020564,0.0,0.1990769681264039
1.3399999999999632,40.242881920768305,140.01031999337224,44.01969794493661,11.206308107545924,11.205527009498313,0.132309639306043,68.17617012228786,2.5577689615821675,3.541791440362774,68.31600574690383,19.48670831910859,74.32242624005941,2.186869500046991,281.26728456798054,-5.343195326585912e-7,-0.03990289624147917,0.031614186361862515,55.55627452575462,-2.077753840049008,-0.11865800966562898,2.973875422274102,2.145670324819281,2846.5441882212353,3.6665652472164836,100797.73137641195,287.86380737367574,68.90628883644074,10.05457853988111,0.0,0.20085588741017724
1.350999999999962,40.24288225908023,140.01031748894536,44.7341128111268,11.42241582414064,11.42160357783834,0.1362166300013843,68.78777220378608,2.5349983739197897,3.5396153156739243,68.92541402196069,19.67865730824532,74.2962357099557,2.2548144034705233,281.3378580911492,-5.51336226671554e-7,-0.04089642090730704,0.03218041824502948,55.183033527080156,-2.132264100131669,-0.20708110824026474,2.9456733149334062,2.1077490060635413,2897.3565837612177,3.6215579425534576,100789.18552056522,287.85916371639695,69.5105222113796,9.948875905747585,0.0,0.20264924318846603
1.3619999999999608,40.24288260125625,140.0103149602022,45.45485583349929,11.640632810040588,11.63978818954968,0.14022524955653726,69.3910995380207,2.511626960691001,3.5364504887989243,69.52653771866461,19.86865513512683,74.26938027869471,2.323704816089103,281.4094230293783,-5.686241238059056e-7,-0.04189764784675888,0.03274597961701037,54.46140695651039,-2.1870647227253786,-0.29676144248445857,2.9175000055035683,2.0702446439269555,2947.9105823513614,3.57687209303094,100780.56456353849,287.85447892750346,70.10662912410561,9.845429000928517,0.0,0.2044182846331267
1.3729999999999596,40.24288294729879,140.010312407275,46.18187501910217,11.86094805479786,11.860069790601544,0.14433752344340234,69.998000694678,2.4876502402246667,3.532281440179632,70.13120216524503,20.059916527986296,74.24185415783657,2.393524628147259,281.48196315726915,-5.861812669022019e-7,-0.04290619615041276,0.03331060265584061,55.56219008329556,-2.2425238072376157,-0.38818122188378923,2.8888438142141304,2.0327865710964383,2999.199286260315,3.531874481096613,100771.8691429248,287.84975334498085,70.70633293519379,9.74252056830203,0.0,0.20619777990550947
1.3839999999999584,40.24288329729474,140.01030982978216,46.915275889260926,12.08339516555258,12.082481916706133,0.14855793270222906,70.61688089374437,2.463058679493033,3.527085769917543,70.74779755757955,20.254734893283864,74.21365174406314,2.464257048859358,281.5554615484278,-6.040055380856452e-7,-0.04392188555486657,0.03387412682639446,55.89349181003459,-2.298923482008999,-0.48172755131878503,2.859363504938866,1.9951347697327966,3051.9540871679437,3.4861464403690348,100763.09801252857,287.8449862829711,71.31795607873418,9.639013664135513,0.0,0.20801239871106142
1.3949999999999572,40.24288365128937,140.0103072275995,47.655084539867794,12.307985415184618,12.3070357799247,0.15288980361845583,71.22744062466475,2.4378455076703434,3.5208444982249834,71.3560630545162,20.447605550979866,74.18476755361556,2.5358847332711636,281.6299007072314,-6.220947051802707e-7,-0.044944438330221305,0.03443634171538123,55.04539452169673,-2.355555539742726,-0.5764947466037783,2.829885014863932,1.957863696598902,3104.43828216318,3.4406920391425753,100754.25087644029,287.84017757187826,71.92139969883853,9.537631848449108,0.0,0.20980257103332206
1.405999999999956,40.24288400926787,140.010304600969,48.40121461785163,12.534698280428659,12.5337108138731,0.15733472465317333,71.83379654603294,2.4120080609522683,3.5135440673292506,71.96010770570052,20.639651811265892,74.15519635580657,2.6083895823541625,281.70526236056537,-6.404463747821626e-7,-0.04597339577992869,0.034996945860404485,54.67334599417039,-2.4125285854752514,-0.6726291884720803,2.8002270120177286,1.9208388806717498,3156.9938521047197,3.3952842258517584,100745.32878358106,287.8353277730208,72.52073566240225,9.437752060128899,0.0,0.21158037805713856
