time_sec,lat_deg,lon_deg,alt_agl_m,u_mps,v_mps,w_mps,true_airspeed_mps,ground_speed_mps,pitch_deg,roll_deg,yaw_deg,p_rad_sec,q_rad_sec,r_rad_sec,ax_mps2,ay_mps2,az_mps2,alpha_deg,beta_deg,qbar_pa,thrust_n,mach
26.973000000,40.248503512,139.985159004,3464.086900,73.463339,0.000000,1.508960,87.647406,73.463339,-1.176708,0.000000,-73.702780,0.000000,0.000000,0.000000,-189.122910,0.000000,6.571328,0.000000,0.000000,0.000000,0.000000,0.000000
26.983000000,40.248505338,139.985150820,3464.071451,71.615991,0.000000,1.574287,85.801508,71.615991,-1.259292,0.000000,-73.707212,0.000000,0.000000,0.000000,-181.220518,0.000000,6.501755,0.000000,0.000000,0.000000,0.000000,0.000000
26.993000000,40.248507118,139.985142840,3464.055351,69.844961,0.000000,1.638942,84.032016,69.844961,-1.344223,0.000000,-73.711682,0.000000,0.000000,0.000000,-173.803887,0.000000,6.436443,0.000000,0.000000,0.000000,0.000000,0.000000
27.003000000,40.248508854,139.985135056,3464.038609,68.145610,0.000000,1.702966,82.334291,68.145610,-1.431529,0.000000,-73.716190,0.000000,0.000000,0.000000,-166.833997,0.000000,6.375050,0.000000,0.000000,0.000000,0.000000,0.000000
27.013000000,40.248510547,139.985127459,3464.021230,66.513667,0.000000,1.766395,80.704064,66.513667,-1.521240,0.000000,-73.720736,0.000000,0.000000,0.000000,-160.275674,0.000000,6.317266,0.000000,0.000000,0.000000,0.000000,0.000000
27.023000000,40.248512200,139.985120042,3464.003220,64.945193,0.000000,1.829266,79.137399,64.945193,-1.613384,0.000000,-73.725320,0.000000,0.000000,0.000000,-154.097139,0.000000,6.262813,0.000000,0.000000,0.000000,0.000000,0.000000
27.033000000,40.248513814,139.985112799,3463.984584,63.436551,0.000000,1.891609,77.630660,63.436551,-1.707992,0.000000,-73.729944,0.000000,0.000000,0.000000,-148.269624,0.000000,6.211438,0.000000,0.000000,0.000000,0.000000,0.000000
27.043000000,40.248515390,139.985105723,3463.965328,61.984377,0.000000,1.953454,76.180483,61.984377,-1.805094,0.000000,-73.734608,0.000000,0.000000,0.000000,-142.767035,0.000000,6.162911,0.000000,0.000000,0.000000,0.000000,0.000000
27.053000000,40.248516929,139.985098807,3463.945455,60.585554,0.000000,2.014829,74.783754,60.585554,-1.904722,0.000000,-73.739311,0.000000,0.000000,0.000000,-137.565658,0.000000,6.117023,0.000000,0.000000,0.000000,0.000000,0.000000
27.063000000,40.248518434,139.985092045,3463.924971,59.237189,0.000000,2.075758,73.437583,59.237189,-2.006907,0.000000,-73.744056,0.000000,0.000000,0.000000,-132.643908,0.000000,6.073584,0.000000,0.000000,0.000000,0.000000,0.000000
27.073000000,40.248519906,139.985085433,3463.903881,57.936597,0.000000,2.136266,72.139284,57.936597,-2.111681,0.000000,-73.748842,0.000000,0.000000,0.000000,-127.982097,0.000000,6.032422,0.000000,0.000000,0.000000,0.000000,0.000000
27.083000000,40.248521345,139.985078965,3463.882187,56.681278,0.000000,2.196374,70.886360,56.681278,-2.219075,0.000000,-73.753671,0.000000,0.000000,0.000000,-123.562242,0.000000,5.993378,0.000000,0.000000,0.000000,0.000000,0.000000
27.093000000,40.248522752,139.985072636,3463.859895,55.468904,0.000000,2.256102,69.676485,55.468904,-2.329123,0.000000,-73.758541,0.000000,0.000000,0.000000,-119.367890,0.000000,5.956308,0.000000,0.000000,0.000000,0.000000,0.000000
27.103000000,40.248524129,139.985066441,3463.837007,54.297304,0.000000,2.315470,68.507489,54.297304,-2.441858,0.000000,-73.763455,0.000000,0.000000,0.000000,-115.383961,0.000000,5.921077,0.000000,0.000000,0.000000,0.000000,0.000000
27.113000000,40.248525477,139.985060376,3463.813527,53.164452,0.000000,2.374495,67.377347,53.164452,-2.557314,0.000000,-73.768413,0.000000,0.000000,0.000000,-111.596618,0.000000,5.887566,0.000000,0.000000,0.000000,0.000000,0.000000
27.123000000,40.248526796,139.985054437,3463.789459,52.068451,0.000000,2.433194,66.284166,52.068451,-2.675524,0.000000,-73.773415,0.000000,0.000000,0.000000,-107.993143,0.000000,5.855660,0.000000,0.000000,0.000000,0.000000,0.000000
27.133000000,40.248528089,139.985048619,3463.764806,51.007529,0.000000,2.491582,65.226174,51.007529,-2.796523,0.000000,-73.778462,0.000000,0.000000,0.000000,-104.561829,0.000000,5.825258,0.000000,0.000000,0.000000,0.000000,0.000000
27.143000000,40.248529354,139.985042918,3463.739570,49.980025,0.000000,2.549674,64.201710,49.980025,-2.920347,0.000000,-73.783555,0.000000,0.000000,0.000000,-101.291890,0.000000,5.796265,0.000000,0.000000,0.000000,0.000000,0.000000
27.153000000,40.248530594,139.985037332,3463.713755,48.984379,0.000000,2.607483,63.209219,48.984379,-3.047031,0.000000,-73.788694,0.000000,0.000000,0.000000,-98.173367,0.000000,5.768591,0.000000,0.000000,0.000000,0.000000,0.000000
27.163000000,40.248531809,139.985031856,3463.687364,48.019128,0.000000,2.665023,62.247239,48.019128,-3.176611,0.000000,-73.793880,0.000000,0.000000,0.000000,-95.197063,0.000000,5.742157,0.000000,0.000000,0.000000,0.000000,0.000000
27.173000000,40.248533000,139.985026487,3463.660398,47.082899,0.000000,2.722305,61.314397,47.082899,-3.309123,0.000000,-73.799113,0.000000,0.000000,0.000000,-92.354466,0.000000,5.716887,0.000000,0.000000,0.000000,0.000000,0.000000
27.183000000,40.248534167,139.985021223,3463.632861,46.174397,0.000000,2.779340,60.409400,46.174397,-3.444604,0.000000,-73.804395,0.000000,0.000000,0.000000,-89.637693,0.000000,5.692712,0.000000,0.000000,0.000000,0.000000,0.000000
27.193000000,40.248535311,139.985016059,3463.604755,45.292406,0.000000,2.836139,59.531035,45.292406,-3.583093,0.000000,-73.809726,0.000000,0.000000,0.000000,-87.039433,0.000000,5.669566,0.000000,0.000000,0.000000,0.000000,0.000000
27.203000000,40.248536434,139.985010993,3463.576083,44.435777,0.000000,2.892712,58.678154,44.435777,-3.724626,0.000000,-73.815106,0.000000,0.000000,0.000000,-84.552899,0.000000,5.647390,0.000000,0.000000,0.000000,0.000000,0.000000
27.213000000,40.248537535,139.985006022,3463.546845,43.603428,0.000000,2.949068,57.849677,43.603428,-3.869242,0.000000,-73.820537,0.000000,0.000000,0.000000,-82.171784,0.000000,5.626128,0.000000,0.000000,0.000000,0.000000,0.000000
27.223000000,40.248538615,139.985001144,3463.517046,42.794339,0.000000,3.005216,57.044584,42.794339,-4.016980,0.000000,-73.826019,0.000000,0.000000,0.000000,-79.890220,0.000000,5.605727,0.000000,0.000000,0.000000,0.000000,0.000000
27.233000000,40.248539675,139.984996356,3463.486686,42.007543,0.000000,3.061165,56.261912,42.007543,-4.167879,0.000000,-73.831553,0.000000,0.000000,0.000000,-77.702740,0.000000,5.586141,0.000000,0.000000,0.000000,0.000000,0.000000
27.243000000,40.248540715,139.984991655,3463.455767,41.242129,0.000000,3.116922,55.500750,41.242129,-4.321980,0.000000,-73.837140,0.000000,0.000000,0.000000,-75.604249,0.000000,5.567323,0.000000,0.000000,0.000000,0.000000,0.000000
27.253000000,40.248541735,139.984987039,3463.424292,40.497232,0.000000,3.172495,54.760236,40.497232,-4.479322,0.000000,-73.842780,0.000000,0.000000,0.000000,-73.589993,0.000000,5.549231,0.000000,0.000000,0.000000,0.000000,0.000000
27.263000000,40.248542738,139.984982506,3463.392262,39.772036,0.000000,3.227892,54.039555,39.772036,-4.639946,0.000000,-73.848474,0.000000,0.000000,0.000000,-71.655531,0.000000,5.531826,0.000000,0.000000,0.000000,0.000000,0.000000
27.273000000,40.248543722,139.984978054,3463.359680,39.065765,0.000000,3.283117,53.337932,39.065765,-4.803893,0.000000,-73.854223,0.000000,0.000000,0.000000,-69.796710,0.000000,5.515070,0.000000,0.000000,0.000000,0.000000,0.000000
27.283000000,40.248544688,139.984973680,3463.326545,38.377684,0.000000,3.338179,52.654635,38.377684,-4.971206,0.000000,-73.860029,0.000000,0.000000,0.000000,-68.009644,0.000000,5.498930,0.000000,0.000000,0.000000,0.000000,0.000000
27.293000000,40.248545637,139.984969383,3463.292862,37.707097,0.000000,3.393082,51.988969,37.707097,-5.141925,0.000000,-73.865891,0.000000,0.000000,0.000000,-66.290696,0.000000,5.483373,0.000000,0.000000,0.000000,0.000000,0.000000
27.303000000,40.248546569,139.984965161,3463.258630,37.053340,0.000000,3.447833,51.340271,37.053340,-5.316094,0.000000,-73.871811,0.000000,0.000000,0.000000,-64.636454,0.000000,5.468368,0.000000,0.000000,0.000000,0.000000,0.000000
27.313000000,40.248547484,139.984961011,3463.223851,36.415785,0.000000,3.502436,50.707916,36.415785,-5.493756,0.000000,-73.877789,0.000000,0.000000,0.000000,-63.043717,0.000000,5.453887,0.000000,0.000000,0.000000,0.000000,0.000000
27.323000000,40.248548384,139.984956932,3463.188527,35.793833,0.000000,3.556898,50.091306,35.793833,-5.674954,0.000000,-73.883827,0.000000,0.000000,0.000000,-61.509483,0.000000,5.439903,0.000000,0.000000,0.000000,0.000000,0.000000
27.333000000,40.248549268,139.984952923,3463.152659,35.186916,0.000000,3.611222,49.489873,35.186916,-5.859732,0.000000,-73.889925,0.000000,0.000000,0.000000,-60.030927,0.000000,5.426391,0.000000,0.000000,0.000000,0.000000,0.000000
27.343000000,40.248550137,139.984948981,3463.116248,34.594489,0.000000,3.665414,48.903078,34.594489,-6.048134,0.000000,-73.896084,0.000000,0.000000,0.000000,-58.605394,0.000000,5.413327,0.000000,0.000000,0.000000,0.000000,0.000000
27.353000000,40.248550991,139.984945105,3463.079297,34.016039,0.000000,3.719477,48.330405,34.016039,-6.240205,0.000000,-73.902306,0.000000,0.000000,0.000000,-57.230388,0.000000,5.400689,0.000000,0.000000,0.000000,0.000000,0.000000
27.363000000,40.248551830,139.984941294,3463.041805,33.451071,0.000000,3.773416,47.771363,33.451071,-6.435989,0.000000,-73.908591,0.000000,0.000000,0.000000,-55.903554,0.000000,5.388454,0.000000,0.000000,0.000000,0.000000,0.000000
27.373000000,40.248552655,139.984937545,3463.003775,32.899117,0.000000,3.827236,47.225486,32.899117,-6.635533,0.000000,-73.914940,0.000000,0.000000,0.000000,-54.622676,0.000000,5.376605,0.000000,0.000000,0.000000,0.000000,0.000000
27.383000000,40.248553466,139.984933858,3462.965207,32.359730,0.000000,3.880938,46.692326,32.359730,-6.838882,0.000000,-73.921354,0.000000,0.000000,0.000000,-53.385663,0.000000,5.365121,0.000000,0.000000,0.000000,0.000000,0.000000
27.393000000,40.248554264,139.984930232,3462.926103,31.832480,0.000000,3.934528,46.171458,31.832480,-7.046082,0.000000,-73.927835,0.000000,0.000000,0.000000,-52.190541,0.000000,5.353984,0.000000,0.000000,0.000000,0.000000,0.000000
27.403000000,40.248555049,139.984926664,3462.886464,31.316960,0.000000,3.988008,45.662474,31.316960,-7.257179,0.000000,-73.934384,0.000000,0.000000,0.000000,-51.035448,0.000000,5.343179,0.000000,0.000000,0.000000,0.000000,0.000000
27.413000000,40.248555820,139.984923153,3462.846290,30.812779,0.000000,4.041382,45.164986,30.812779,-7.472220,0.000000,-73.941000,0.000000,0.000000,0.000000,-49.918621,0.000000,5.332688,0.000000,0.000000,0.000000,0.000000,0.000000
27.423000000,40.248556579,139.984919699,3462.805583,30.319563,0.000000,4.094652,44.678623,30.319563,-7.691253,0.000000,-73.947687,0.000000,0.000000,0.000000,-48.838396,0.000000,5.322498,0.000000,0.000000,0.000000,0.000000,0.000000
27.433000000,40.248557325,139.984916299,3462.764344,29.836956,0.000000,4.147823,44.203027,29.836956,-7.914323,0.000000,-73.954444,0.000000,0.000000,0.000000,-47.793197,0.000000,5.312592,0.000000,0.000000,0.000000,0.000000,0.000000
27.443000000,40.248558059,139.984912954,3462.722574,29.364615,0.000000,4.200895,43.737859,29.364615,-8.141480,0.000000,-73.961274,0.000000,0.000000,0.000000,-46.781534,0.000000,5.302959,0.000000,0.000000,0.000000,0.000000,0.000000
27.453000000,40.248558782,139.984909661,3462.680273,28.902213,0.000000,4.253873,43.282793,28.902213,-8.372770,0.000000,-73.968176,0.000000,0.000000,0.000000,-45.801992,0.000000,5.293584,0.000000,0.000000,0.000000,0.000000,0.000000
27.463000000,40.248559492,139.984906420,3462.637444,28.449436,0.000000,4.306759,42.837517,28.449436,-8.608241,0.000000,-73.975153,0.000000,0.000000,0.000000,-44.853234,0.000000,5.284457,0.000000,0.000000,0.000000,0.000000,0.000000
27.473000000,40.248560192,139.984903229,3462.594086,28.005984,0.000000,4.359554,42.401731,28.005984,-8.847942,0.000000,-73.982206,0.000000,0.000000,0.000000,-43.933989,0.000000,5.275564,0.000000,0.000000,0.000000,0.000000,0.000000
27.483000000,40.248560880,139.984900088,3462.550200,27.571567,0.000000,4.412262,41.975149,27.571567,-9.091920,0.000000,-73.989336,0.000000,0.000000,0.000000,-43.043052,0.000000,5.266895,0.000000,0.000000,0.000000,0.000000,0.000000
27.493000000,40.248561557,139.984896995,3462.505788,27.145909,0.000000,4.464884,41.557495,27.145909,-9.340224,0.000000,-73.996544,0.000000,0.000000,0.000000,-42.179279,0.000000,5.258439,0.000000,0.000000,0.000000,0.000000,0.000000
27.503000000,40.248562223,139.984893950,3462.460850,26.728745,0.000000,4.517423,41.148505,26.728745,-9.592902,0.000000,-74.003831,0.000000,0.000000,0.000000,-41.341582,0.000000,5.250187,0.000000,0.000000,0.000000,0.000000,0.000000
27.513000000,40.248562879,139.984890952,3462.415387,26.319819,0.000000,4.569880,40.747926,26.319819,-9.850002,0.000000,-74.011200,0.000000,0.000000,0.000000,-40.528930,0.000000,5.242128,0.000000,0.000000,0.000000,0.000000,0.000000
27.523000000,40.248563525,139.984887999,3462.369400,25.918886,0.000000,4.622258,40.355515,25.918886,-10.111573,0.000000,-74.018652,0.000000,0.000000,0.000000,-39.740339,0.000000,5.234253,0.000000,0.000000,0.000000,0.000000,0.000000
27.533000000,40.248564160,139.984885091,3462.322890,25.525711,0.000000,4.674558,39.971037,25.525711,-10.377661,0.000000,-74.026187,0.000000,0.000000,0.000000,-38.974875,0.000000,5.226554,0.000000,0.000000,0.000000,0.000000,0.000000
27.543000000,40.248564786,139.984882226,3462.275857,25.140068,0.000000,4.726782,39.594267,25.140068,-10.648317,0.000000,-74.033807,0.000000,0.000000,0.000000,-38.231648,0.000000,5.219022,0.000000,0.000000,0.000000,0.000000,0.000000
27.553000000,40.248565402,139.984879405,3462.228302,24.761739,0.000000,4.778932,39.224990,24.761739,-10.923587,0.000000,-74.041515,0.000000,0.000000,0.000000,-37.509812,0.000000,5.211650,0.000000,0.000000,0.000000,0.000000,0.000000
27.563000000,40.248566008,139.984876626,3462.180227,24.390515,0.000000,4.831008,38.862997,24.390515,-11.203518,0.000000,-74.049311,0.000000,0.000000,0.000000,-36.808559,0.000000,5.204430,0.000000,0.000000,0.000000,0.000000,0.000000
27.573000000,40.248566605,139.984873889,3462.131630,24.026193,0.000000,4.883014,38.508089,24.026193,-11.488159,0.000000,-74.057197,0.000000,0.000000,0.000000,-36.127120,0.000000,5.197353,0.000000,0.000000,0.000000,0.000000,0.000000
27.583000000,40.248567193,139.984871192,3462.082515,23.668580,0.000000,4.934949,38.160073,23.668580,-11.777557,0.000000,-74.065175,0.000000,0.000000,0.000000,-35.464761,0.000000,5.190414,0.000000,0.000000,0.000000,0.000000,0.000000
27.593000000,40.248567772,139.984868535,3462.032880,23.317489,0.000000,4.986816,37.818762,23.317489,-12.071757,0.000000,-74.073246,0.000000,0.000000,0.000000,-34.820782,0.000000,5.183606,0.000000,0.000000,0.000000,0.000000,0.000000
27.603000000,40.248568342,139.984865917,3461.982727,22.972740,0.000000,5.038615,37.483980,22.972740,-12.370806,0.000000,-74.081413,0.000000,0.000000,0.000000,-34.194515,0.000000,5.176922,0.000000,0.000000,0.000000,0.000000,0.000000
27.613000000,40.248568903,139.984863338,3461.932056,22.634160,0.000000,5.090348,37.155553,22.634160,-12.674750,0.000000,-74.089676,0.000000,0.000000,0.000000,-33.585321,0.000000,5.170356,0.000000,0.000000,0.000000,0.000000,0.000000
27.623000000,40.248569456,139.984860797,3461.880868,22.301580,0.000000,5.142016,36.833316,22.301580,-12.983633,0.000000,-74.098039,0.000000,0.000000,0.000000,-32.992592,0.000000,5.163902,0.000000,0.000000,0.000000,0.000000,0.000000
27.633000000,40.248570000,139.984858293,3461.829164,21.974839,0.000000,5.193620,36.517108,21.974839,-13.297501,0.000000,-74.106501,0.000000,0.000000,0.000000,-32.415744,0.000000,5.157555,0.000000,0.000000,0.000000,0.000000,0.000000
27.643000000,40.248570536,139.984855826,3461.776945,21.653783,0.000000,5.245161,36.206775,21.653783,-13.616396,0.000000,-74.115067,0.000000,0.000000,0.000000,-31.854221,0.000000,5.151308,0.000000,0.000000,0.000000,0.000000,0.000000
27.653000000,40.248571064,139.984853394,3461.724210,21.338259,0.000000,5.296640,35.902169,21.338259,-13.940361,0.000000,-74.123736,0.000000,0.000000,0.000000,-31.307490,0.000000,5.145157,0.000000,0.000000,0.000000,0.000000,0.000000
27.663000000,40.248571584,139.984850998,3461.670960,21.028124,0.000000,5.348058,35.603145,21.028124,-14.269438,0.000000,-74.132513,0.000000,0.000000,0.000000,-30.775041,0.000000,5.139097,0.000000,0.000000,0.000000,0.000000,0.000000
27.673000000,40.248572096,139.984848636,3461.617197,20.723238,0.000000,5.399416,35.309565,20.723238,-14.603669,0.000000,-74.141397,0.000000,0.000000,0.000000,-30.256386,0.000000,5.133123,0.000000,0.000000,0.000000,0.000000,0.000000
27.683000000,40.248572601,139.984846309,3461.562921,20.423464,0.000000,5.450715,35.021295,20.423464,-14.943092,0.000000,-74.150393,0.000000,0.000000,0.000000,-29.751058,0.000000,5.127229,0.000000,0.000000,0.000000,0.000000,0.000000
27.693000000,40.248573098,139.984844015,3461.508132,20.128672,0.000000,5.501955,34.738206,20.128672,-15.287747,0.000000,-74.159501,0.000000,0.000000,0.000000,-29.258609,0.000000,5.121413,0.000000,0.000000,0.000000,0.000000,0.000000
27.703000000,40.248573587,139.984841753,3461.452831,19.838736,0.000000,5.553138,34.460171,19.838736,-15.637671,0.000000,-74.168724,0.000000,0.000000,0.000000,-28.778610,0.000000,5.115668,0.000000,0.000000,0.000000,0.000000,0.000000
27.713000000,40.248574069,139.984839525,3461.397018,19.553534,0.000000,5.604263,34.187072,19.553534,-15.992899,0.000000,-74.178065,0.000000,0.000000,0.000000,-28.310651,0.000000,5.109992,0.000000,0.000000,0.000000,0.000000,0.000000
27.723000000,40.248574544,139.984837328,3461.340695,19.272946,0.000000,5.655332,33.918789,19.272946,-16.353467,0.000000,-74.187525,0.000000,0.000000,0.000000,-27.854335,0.000000,5.104379,0.000000,0.000000,0.000000,0.000000,0.000000
27.733000000,40.248575012,139.984835163,3461.283861,18.996860,0.000000,5.706345,33.655211,18.996860,-16.719406,0.000000,-74.197108,0.000000,0.000000,0.000000,-27.409286,0.000000,5.098827,0.000000,0.000000,0.000000,0.000000,0.000000
27.743000000,40.248575473,139.984833028,3461.226517,18.725164,0.000000,5.757303,33.396228,18.725164,-17.090749,0.000000,-74.206815,0.000000,0.000000,0.000000,-26.975140,0.000000,5.093331,0.000000,0.000000,0.000000,0.000000,0.000000
27.753000000,40.248575927,139.984830924,3461.168664,18.457751,0.000000,5.808207,33.141734,18.457751,-17.467525,0.000000,-74.216649,0.000000,0.000000,0.000000,-26.551548,0.000000,5.087887,0.000000,0.000000,0.000000,0.000000,0.000000
27.763000000,40.248576375,139.984828850,3461.110302,18.194517,0.000000,5.859056,32.891627,18.194517,-17.849761,0.000000,-74.226613,0.000000,0.000000,0.000000,-26.138176,0.000000,5.082493,0.000000,0.000000,0.000000,0.000000,0.000000
27.773000000,40.248576815,139.984826805,3461.051432,17.935362,0.000000,5.909851,32.645807,17.935362,-18.237482,0.000000,-74.236710,0.000000,0.000000,0.000000,-25.734703,0.000000,5.077144,0.000000,0.000000,0.000000,0.000000,0.000000
27.783000000,40.248577249,139.984824790,3460.992055,17.680189,0.000000,5.960593,32.404178,17.680189,-18.630712,0.000000,-74.246941,0.000000,0.000000,0.000000,-25.340818,0.000000,5.071838,0.000000,0.000000,0.000000,0.000000,0.000000
27.793000000,40.248577677,139.984822803,3460.932170,17.428904,0.000000,6.011283,32.166648,17.428904,-19.029472,0.000000,-74.257311,0.000000,0.000000,0.000000,-24.956225,0.000000,5.066571,0.000000,0.000000,0.000000,0.000000,0.000000
27.803000000,40.248578098,139.984820844,3460.871778,17.181415,0.000000,6.061920,31.933126,17.181415,-19.433781,0.000000,-74.267822,0.000000,0.000000,0.000000,-24.580639,0.000000,5.061340,0.000000,0.000000,0.000000,0.000000,0.000000
27.813000000,40.248578513,139.984818912,3460.810881,16.937633,0.000000,6.112505,31.703525,16.937633,-19.843654,0.000000,-74.278477,0.000000,0.000000,0.000000,-24.213785,0.000000,5.056142,0.000000,0.000000,0.000000,0.000000,0.000000
27.823000000,40.248578922,139.984817008,3460.749478,16.697473,0.000000,6.163038,31.477759,16.697473,-20.259104,0.000000,-74.289280,0.000000,0.000000,0.000000,-23.855398,0.000000,5.050974,0.000000,0.000000,0.000000,0.000000,0.000000
27.833000000,40.248579325,139.984815131,3460.687570,16.460852,0.000000,6.213519,31.255747,16.460852,-20.680143,0.000000,-74.300232,0.000000,0.000000,0.000000,-23.505224,0.000000,5.045833,0.000000,0.000000,0.000000,0.000000,0.000000
27.843000000,40.248579722,139.984813281,3460.625157,16.227688,0.000000,6.263949,31.037410,16.227688,-21.106777,0.000000,-74.311339,0.000000,0.000000,0.000000,-23.163018,0.000000,5.040717,0.000000,0.000000,0.000000,0.000000,0.000000
27.853000000,40.248580113,139.984811456,3460.562241,15.997904,0.000000,6.314328,30.822669,15.997904,-21.539012,0.000000,-74.322602,0.000000,0.000000,0.000000,-22.828544,0.000000,5.035623,0.000000,0.000000,0.000000,0.000000,0.000000
27.863000000,40.248580498,139.984809658,3460.498821,15.771423,0.000000,6.364657,30.611450,15.771423,-21.976848,0.000000,-74.334026,0.000000,0.000000,0.000000,-22.501575,0.000000,5.030549,0.000000,0.000000,0.000000,0.000000,0.000000
27.873000000,40.248580878,139.984807884,3460.434897,15.548171,0.000000,6.414934,30.403680,15.548171,-22.420284,0.000000,-74.345614,0.000000,0.000000,0.000000,-22.181893,0.000000,5.025491,0.000000,0.000000,0.000000,0.000000,0.000000
27.883000000,40.248581251,139.984806136,3460.370472,15.328077,0.000000,6.465161,30.199289,15.328077,-22.869314,0.000000,-74.357371,0.000000,0.000000,0.000000,-21.869285,0.000000,5.020447,0.000000,0.000000,0.000000,0.000000,0.000000
27.893000000,40.248581620,139.984804412,3460.305544,15.111072,0.000000,6.515338,29.998207,15.111072,-23.323928,0.000000,-74.369298,0.000000,0.000000,0.000000,-21.563550,0.000000,5.015416,0.000000,0.000000,0.000000,0.000000,0.000000
27.903000000,40.248581982,139.984802713,3460.240115,14.897086,0.000000,6.565465,29.800368,14.897086,-23.784114,0.000000,-74.381402,0.000000,0.000000,0.000000,-21.264489,0.000000,5.010394,0.000000,0.000000,0.000000,0.000000,0.000000
27.913000000,40.248582340,139.984801037,3460.174185,14.686056,0.000000,6.615541,29.605707,14.686056,-24.249855,0.000000,-74.393686,0.000000,0.000000,0.000000,-20.971916,0.000000,5.005379,0.000000,0.000000,0.000000,0.000000,0.000000
27.923000000,40.248582692,139.984799385,3460.107754,14.477916,0.000000,6.665567,29.414161,14.477916,-24.721130,0.000000,-74.406153,0.000000,0.000000,0.000000,-20.685646,0.000000,5.000370,0.000000,0.000000,0.000000,0.000000,0.000000
27.933000000,40.248583038,139.984797757,3460.040824,14.272606,0.000000,6.715543,29.225670,14.272606,-25.197913,0.000000,-74.418809,0.000000,0.000000,0.000000,-20.405503,0.000000,4.995364,0.000000,0.000000,0.000000,0.000000,0.000000
27.943000000,40.248583380,139.984796151,3459.973394,14.070063,0.000000,6.765470,29.040173,14.070063,-25.680176,0.000000,-74.431657,0.000000,0.000000,0.000000,-20.131319,0.000000,4.990359,0.000000,0.000000,0.000000,0.000000,0.000000
27.953000000,40.248583716,139.984794569,3459.905465,13.870231,0.000000,6.815346,28.857612,13.870231,-26.167885,0.000000,-74.444703,0.000000,0.000000,0.000000,-19.862927,0.000000,4.985353,0.000000,0.000000,0.000000,0.000000,0.000000
27.963000000,40.248584048,139.984793008,3459.837037,13.673051,0.000000,6.865172,28.677933,13.673051,-26.661001,0.000000,-74.457951,0.000000,0.000000,0.000000,-19.600170,0.000000,4.980344,0.000000,0.000000,0.000000,0.000000,0.000000
27.973000000,40.248584374,139.984791470,3459.768112,13.478469,0.000000,6.914947,28.501079,13.478469,-27.159482,0.000000,-74.471406,0.000000,0.000000,0.000000,-19.342895,0.000000,4.975330,0.000000,0.000000,0.000000,0.000000,0.000000
27.983000000,40.248584696,139.984789953,3459.698689,13.286430,0.000000,6.964673,28.326998,13.286430,-27.663280,0.000000,-74.485074,0.000000,0.000000,0.000000,-19.090952,0.000000,4.970309,0.000000,0.000000,0.000000,0.000000,0.000000
27.993000000,40.248585012,139.984788458,3459.628769,13.096882,0.000000,7.014349,28.155638,13.096882,-28.172341,0.000000,-74.498959,0.000000,0.000000,0.000000,-18.844200,0.000000,4.965280,0.000000,0.000000,0.000000,0.000000,0.000000
28.003000000,40.248585324,139.984786985,3459.558352,12.909773,0.000000,7.063974,27.986948,12.909773,-28.686610,0.000000,-74.513066,0.000000,0.000000,0.000000,-18.602500,0.000000,4.960240,0.000000,0.000000,0.000000,0.000000,0.000000
28.013000000,40.248585631,139.984785532,3459.487440,12.725055,0.000000,7.113548,27.820879,12.725055,-29.206023,0.000000,-74.527403,0.000000,0.000000,0.000000,-18.365717,0.000000,4.955189,0.000000,0.000000,0.000000,0.000000,0.000000
28.023000000,40.248585933,139.984784100,3459.416032,12.542677,0.000000,7.163072,27.657385,12.542677,-29.730513,0.000000,-74.541973,0.000000,0.000000,0.000000,-18.133723,0.000000,4.950123,0.000000,0.000000,0.000000,0.000000,0.000000
28.033000000,40.248586231,139.984782688,3459.344129,12.362594,0.000000,7.212546,27.496417,12.362594,-30.260007,0.000000,-74.556784,0.000000,0.000000,0.000000,-17.906393,0.000000,4.945042,0.000000,0.000000,0.000000,0.000000,0.000000
28.043000000,40.248586524,139.984781297,3459.271732,12.184759,0.000000,7.261968,27.337931,12.184759,-30.794427,0.000000,-74.571841,0.000000,0.000000,0.000000,-17.683604,0.000000,4.939944,0.000000,0.000000,0.000000,0.000000,0.000000
28.053000000,40.248586813,139.984779925,3459.198840,12.009128,0.000000,7.311339,27.181882,12.009128,-31.333690,0.000000,-74.587152,0.000000,0.000000,0.000000,-17.465240,0.000000,4.934827,0.000000,0.000000,0.000000,0.000000,0.000000
28.063000000,40.248587097,139.984778573,3459.125456,11.835656,0.000000,7.360659,27.028228,11.835656,-31.877707,0.000000,-74.602722,0.000000,0.000000,0.000000,-17.251188,0.000000,4.929690,0.000000,0.000000,0.000000,0.000000,0.000000
28.073000000,40.248587377,139.984777241,3459.051578,11.664302,0.000000,7.409928,26.876927,11.664302,-32.426385,0.000000,-74.618558,0.000000,0.000000,0.000000,-17.041337,0.000000,4.924531,0.000000,0.000000,0.000000,0.000000,0.000000
28.083000000,40.248587653,139.984775928,3458.977208,11.495023,0.000000,7.459145,26.727937,11.495023,-32.979624,0.000000,-74.634669,0.000000,0.000000,0.000000,-16.835581,0.000000,4.919350,0.000000,0.000000,0.000000,0.000000,0.000000
28.093000000,40.248587924,139.984774634,3458.902346,11.327780,0.000000,7.508310,26.581219,11.327780,-33.537320,0.000000,-74.651060,0.000000,0.000000,0.000000,-16.633816,0.000000,4.914143,0.000000,0.000000,0.000000,0.000000,0.000000
28.103000000,40.248588191,139.984773358,3458.826993,11.162534,0.000000,7.557422,26.436733,11.162534,-34.099362,0.000000,-74.667740,0.000000,0.000000,0.000000,-16.435943,0.000000,4.908911,0.000000,0.000000,0.000000,0.000000,0.000000
28.113000000,40.248588454,139.984772101,3458.751149,10.999245,0.000000,7.606483,26.294443,10.999245,-34.665637,0.000000,-74.684717,0.000000,0.000000,0.000000,-16.241865,0.000000,4.903651,0.000000,0.000000,0.000000,0.000000,0.000000
28.123000000,40.248588713,139.984770863,3458.674814,10.837876,0.000000,7.655490,26.154310,10.837876,-35.236023,0.000000,-74.701999,0.000000,0.000000,0.000000,-16.051488,0.000000,4.898362,0.000000,0.000000,0.000000,0.000000,0.000000
28.133000000,40.248588967,139.984769642,3458.597990,10.678391,0.000000,7.704444,26.016300,10.678391,-35.810396,0.000000,-74.719594,0.000000,0.000000,0.000000,-15.864721,0.000000,4.893043,0.000000,0.000000,0.000000,0.000000,0.000000
28.143000000,40.248589218,139.984768440,3458.520677,10.520755,0.000000,7.753345,25.880375,10.520755,-36.388623,0.000000,-74.737512,0.000000,0.000000,0.000000,-15.681475,0.000000,4.887693,0.000000,0.000000,0.000000,0.000000,0.000000
28.153000000,40.248589465,139.984767255,3458.442875,10.364932,0.000000,7.802193,25.746503,10.364932,-36.970571,0.000000,-74.755762,0.000000,0.000000,0.000000,-15.501665,0.000000,4.882310,0.000000,0.000000,0.000000,0.000000,0.000000
28.163000000,40.248589707,139.984766087,3458.364584,10.210888,0.000000,7.850986,25.614649,10.210888,-37.556099,0.000000,-74.774353,0.000000,0.000000,0.000000,-15.325208,0.000000,4.876894,0.000000,0.000000,0.000000,0.000000,0.000000
28.173000000,40.248589946,139.984764937,3458.285806,10.058591,0.000000,7.899725,25.484781,10.058591,-38.145060,0.000000,-74.793295,0.000000,0.000000,0.000000,-15.152024,0.000000,4.871442,0.000000,0.000000,0.000000,0.000000,0.000000
28.183000000,40.248590181,139.984763804,3458.206541,9.908009,0.000000,7.948409,25.356866,9.908009,-38.737307,0.000000,-74.812599,0.000000,0.000000,0.000000,-14.982033,0.000000,4.865954,0.000000,0.000000,0.000000,0.000000,0.000000
28.193000000,40.248590412,139.984762688,3458.126790,9.759109,0.000000,7.997039,25.230874,9.759109,-39.332684,0.000000,-74.832275,0.000000,0.000000,0.000000,-14.815160,0.000000,4.860429,0.000000,0.000000,0.000000,0.000000,0.000000
28.203000000,40.248590639,139.984761589,3458.046552,9.611860,0.000000,8.045612,25.106773,9.611860,-39.931032,0.000000,-74.852335,0.000000,0.000000,0.000000,-14.651332,0.000000,4.854865,0.000000,0.000000,0.000000,0.000000,0.000000
28.213000000,40.248590863,139.984760506,3457.965829,9.466234,0.000000,8.094130,24.984534,9.466234,-40.532190,0.000000,-74.872790,0.000000,0.000000,0.000000,-14.490476,0.000000,4.849262,0.000000,0.000000,0.000000,0.000000,0.000000
28.223000000,40.248591083,139.984759439,3457.884621,9.322200,0.000000,8.142592,24.864128,9.322200,-41.135991,0.000000,-74.893653,0.000000,0.000000,0.000000,-14.332524,0.000000,4.843618,0.000000,0.000000,0.000000,0.000000,0.000000
28.233000000,40.248591299,139.984758389,3457.802929,9.179731,0.000000,8.190997,24.745525,9.179731,-41.742265,0.000000,-74.914936,0.000000,0.000000,0.000000,-14.177407,0.000000,4.837933,0.000000,0.000000,0.000000,0.000000,0.000000
28.243000000,40.248591512,139.984757354,3457.720753,9.038797,0.000000,8.239345,24.628698,9.038797,-42.350838,0.000000,-74.936652,0.000000,0.000000,0.000000,-14.025059,0.000000,4.832205,0.000000,0.000000,0.000000,0.000000,0.000000
28.253000000,40.248591721,139.984756336,3457.638094,8.899371,0.000000,8.287635,24.513620,8.899371,-42.961534,0.000000,-74.958815,0.000000,0.000000,0.000000,-13.875418,0.000000,4.826433,0.000000,0.000000,0.000000,0.000000,0.000000
28.263000000,40.248591926,139.984755333,3457.554952,8.761428,0.000000,8.335867,24.400264,8.761428,-43.574173,0.000000,-74.981439,0.000000,0.000000,0.000000,-13.728421,0.000000,4.820617,0.000000,0.000000,0.000000,0.000000,0.000000
28.273000000,40.248592128,139.984754345,3457.471328,8.624940,0.000000,8.384041,24.288604,8.624940,-44.188573,0.000000,-75.004540,0.000000,0.000000,0.000000,-13.584008,0.000000,4.814755,0.000000,0.000000,0.000000,0.000000,0.000000
28.283000000,40.248592327,139.984753373,3457.387223,8.489882,0.000000,8.432156,24.178613,8.489882,-44.804549,0.000000,-75.028133,0.000000,0.000000,0.000000,-13.442120,0.000000,4.808846,0.000000,0.000000,0.000000,0.000000,0.000000
28.293000000,40.248592522,139.984752416,3457.302637,8.356230,0.000000,8.480212,24.070268,8.356230,-45.421915,0.000000,-75.052233,0.000000,0.000000,0.000000,-13.302700,0.000000,4.802890,0.000000,0.000000,0.000000,0.000000,0.000000
28.303000000,40.248592714,139.984751474,3457.217571,8.223958,0.000000,8.528208,23.963543,8.223958,-46.040482,0.000000,-75.076859,0.000000,0.000000,0.000000,-13.165692,0.000000,4.796886,0.000000,0.000000,0.000000,0.000000,0.000000
28.313000000,40.248592902,139.984750547,3457.132026,8.093044,0.000000,8.576144,23.858415,8.093044,-46.660060,0.000000,-75.102028,0.000000,0.000000,0.000000,-13.031044,0.000000,4.790833,0.000000,0.000000,0.000000,0.000000,0.000000
28.323000000,40.248593087,139.984749635,3457.046001,7.963463,0.000000,8.624018,23.754860,7.963463,-47.280459,0.000000,-75.127759,0.000000,0.000000,0.000000,-12.898701,0.000000,4.784729,0.000000,0.000000,0.000000,0.000000,0.000000
28.333000000,40.248593269,139.984748737,3456.959498,7.835193,0.000000,8.671832,23.652854,7.835193,-47.901486,0.000000,-75.154070,0.000000,0.000000,0.000000,-12.768613,0.000000,4.778575,0.000000,0.000000,0.000000,0.000000,0.000000
28.343000000,40.248593448,139.984747853,3456.872517,7.708212,0.000000,8.719584,23.552376,7.708212,-48.522949,0.000000,-75.180983,0.000000,0.000000,0.000000,-12.640731,0.000000,4.772369,0.000000,0.000000,0.000000,0.000000,0.000000
28.353000000,40.248593623,139.984746984,3456.785058,7.582498,0.000000,8.767273,23.453404,7.582498,-49.144655,0.000000,-75.208519,0.000000,0.000000,0.000000,-12.515005,0.000000,4.766111,0.000000,0.000000,0.000000,0.000000,0.000000
28.363000000,40.248593795,139.984746129,3456.697124,7.458029,0.000000,8.814899,23.355915,7.458029,-49.766413,0.000000,-75.236700,0.000000,0.000000,0.000000,-12.391389,0.000000,4.759800,0.000000,0.000000,0.000000,0.000000,0.000000
28.373000000,40.248593964,139.984745288,3456.608713,7.334785,0.000000,8.862462,23.259889,7.334785,-50.388031,0.000000,-75.265549,0.000000,0.000000,0.000000,-12.269837,0.000000,4.753435,0.000000,0.000000,0.000000,0.000000,0.000000
28.383000000,40.248594130,139.984744460,3456.519827,7.212746,0.000000,8.909961,23.165304,7.212746,-51.009316,0.000000,-75.295091,0.000000,0.000000,0.000000,-12.150304,0.000000,4.747015,0.000000,0.000000,0.000000,0.000000,0.000000
28.393000000,40.248594293,139.984743647,3456.430467,7.091891,0.000000,8.957396,23.072140,7.091891,-51.630080,0.000000,-75.325352,0.000000,0.000000,0.000000,-12.032746,0.000000,4.740540,0.000000,0.000000,0.000000,0.000000,0.000000
28.403000000,40.248594452,139.984742847,3456.340632,6.972201,0.000000,9.004766,22.980377,6.972201,-52.250133,0.000000,-75.356360,0.000000,0.000000,0.000000,-11.917120,0.000000,4.734009,0.000000,0.000000,0.000000,0.000000,0.000000
28.413000000,40.248594609,139.984742060,3456.250324,6.853657,0.000000,9.052069,22.889997,6.853657,-52.869288,0.000000,-75.388141,0.000000,0.000000,0.000000,-11.803386,0.000000,4.727422,0.000000,0.000000,0.000000,0.000000,0.000000
28.423000000,40.248594763,139.984741287,3456.159544,6.736240,0.000000,9.099307,22.800978,6.736240,-53.487362,0.000000,-75.420727,0.000000,0.000000,0.000000,-11.691503,0.000000,4.720777,0.000000,0.000000,0.000000,0.000000,0.000000
28.433000000,40.248594913,139.984740527,3456.068291,6.619931,0.000000,9.146478,22.713303,6.619931,-54.104170,0.000000,-75.454149,0.000000,0.000000,0.000000,-11.581432,0.000000,4.714074,0.000000,0.000000,0.000000,0.000000,0.000000
28.443000000,40.248595061,139.984739780,3455.976567,6.504714,0.000000,9.193582,22.626952,6.504714,-54.719534,0.000000,-75.488440,0.000000,0.000000,0.000000,-11.473133,0.000000,4.707313,0.000000,0.000000,0.000000,0.000000,0.000000
28.453000000,40.248595206,139.984739046,3455.884372,6.390570,0.000000,9.240617,22.541909,6.390570,-55.333276,0.000000,-75.523636,0.000000,0.000000,0.000000,-11.366570,0.000000,4.700493,0.000000,0.000000,0.000000,0.000000,0.000000
28.463000000,40.248595348,139.984738325,3455.791708,6.277482,0.000000,9.287585,22.458154,6.277482,-55.945222,0.000000,-75.559771,0.000000,0.000000,0.000000,-11.261707,0.000000,4.693614,0.000000,0.000000,0.000000,0.000000,0.000000
28.473000000,40.248595487,139.984737616,3455.698574,6.165434,0.000000,9.334483,22.375670,6.165434,-56.555202,0.000000,-75.596887,0.000000,0.000000,0.000000,-11.158506,0.000000,4.686674,0.000000,0.000000,0.000000,0.000000,0.000000
28.483000000,40.248595623,139.984736920,3455.604972,6.054409,0.000000,9.381311,22.294441,6.054409,-57.163048,0.000000,-75.635024,0.000000,0.000000,0.000000,-11.056934,0.000000,4.679674,0.000000,0.000000,0.000000,0.000000,0.000000
28.493000000,40.248595757,139.984736237,3455.510901,5.944391,0.000000,9.428069,22.214449,5.944391,-57.768598,0.000000,-75.674224,0.000000,0.000000,0.000000,-10.956956,0.000000,4.672613,0.000000,0.000000,0.000000,0.000000,0.000000
28.503000000,40.248595887,139.984735566,3455.416364,5.835364,0.000000,9.474756,22.135677,5.835364,-58.371692,0.000000,-75.714535,0.000000,0.000000,0.000000,-10.858539,0.000000,4.665490,0.000000,0.000000,0.000000,0.000000,0.000000
28.513000000,40.248596015,139.984734907,3455.321360,5.727312,0.000000,9.521371,22.058110,5.727312,-58.972175,0.000000,-75.756004,0.000000,0.000000,0.000000,-10.761651,0.000000,4.658305,0.000000,0.000000,0.000000,0.000000,0.000000
28.523000000,40.248596140,139.984734260,3455.225890,5.620221,0.000000,9.567914,21.981730,5.620221,-59.569897,0.000000,-75.798683,0.000000,0.000000,0.000000,-10.666259,0.000000,4.651058,0.000000,0.000000,0.000000,0.000000,0.000000
28.533000000,40.248596262,139.984733625,3455.129955,5.514076,0.000000,9.614385,21.906523,5.514076,-60.164712,0.000000,-75.842626,0.000000,0.000000,0.000000,-10.572334,0.000000,4.643748,0.000000,0.000000,0.000000,0.000000,0.000000
28.543000000,40.248596382,139.984733003,3455.033556,5.408863,0.000000,9.660782,21.832473,5.408863,-60.756479,0.000000,-75.887892,0.000000,0.000000,0.000000,-10.479843,0.000000,4.636374,0.000000,0.000000,0.000000,0.000000,0.000000
28.553000000,40.248596499,139.984732392,3454.936693,5.304566,0.000000,9.707105,21.759565,5.304566,-61.345061,0.000000,-75.934541,0.000000,0.000000,0.000000,-10.388759,0.000000,4.628937,0.000000,0.000000,0.000000,0.000000,0.000000
28.563000000,40.248596613,139.984731793,3454.839368,5.201173,0.000000,9.753353,21.687784,5.201173,-61.930327,0.000000,-75.982639,0.000000,0.000000,0.000000,-10.299051,0.000000,4.621435,0.000000,0.000000,0.000000,0.000000,0.000000
28.573000000,40.248596725,139.984731205,3454.741580,5.098669,0.000000,9.799526,21.617114,5.098669,-62.512149,0.000000,-76.032254,0.000000,0.000000,0.000000,-10.210691,0.000000,4.613870,0.000000,0.000000,0.000000,0.000000,0.000000
28.583000000,40.248596834,139.984730629,3454.643332,4.997042,0.000000,9.845622,21.547542,4.997042,-63.090408,0.000000,-76.083462,0.000000,0.000000,0.000000,-10.123651,0.000000,4.606239,0.000000,0.000000,0.000000,0.000000,0.000000
28.593000000,40.248596941,139.984730064,3454.544622,4.896278,0.000000,9.891643,21.479053,4.896278,-63.664986,0.000000,-76.136340,0.000000,0.000000,0.000000,-10.037904,0.000000,4.598544,0.000000,0.000000,0.000000,0.000000,0.000000
28.603000000,40.248597045,139.984729511,3454.445453,4.796364,0.000000,9.937585,21.411634,4.796364,-64.235772,0.000000,-76.190973,0.000000,0.000000,0.000000,-9.953423,0.000000,4.590783,0.000000,0.000000,0.000000,0.000000,0.000000
28.613000000,40.248597146,139.984728969,3454.345825,4.697289,0.000000,9.983450,21.345270,4.697289,-64.802661,0.000000,-76.247449,0.000000,0.000000,0.000000,-9.870182,0.000000,4.582956,0.000000,0.000000,0.000000,0.000000,0.000000
28.623000000,40.248597245,139.984728438,3454.245738,4.599039,0.000000,10.029236,21.279948,4.599039,-65.365551,0.000000,-76.305866,0.000000,0.000000,0.000000,-9.788154,0.000000,4.575064,0.000000,0.000000,0.000000,0.000000,0.000000
28.633000000,40.248597342,139.984727918,3454.145195,4.501603,0.000000,10.074943,21.215654,4.501603,-65.924349,0.000000,-76.366326,0.000000,0.000000,0.000000,-9.707315,0.000000,4.567106,0.000000,0.000000,0.000000,0.000000,0.000000
28.643000000,40.248597436,139.984727410,3454.044194,4.404968,0.000000,10.120570,21.152376,4.404968,-66.478963,0.000000,-76.428938,0.000000,0.000000,0.000000,-9.627640,0.000000,4.559081,0.000000,0.000000,0.000000,0.000000,0.000000
28.653000000,40.248597527,139.984726912,3453.942738,4.309125,0.000000,10.166117,21.090100,4.309125,-67.029308,0.000000,-76.493821,0.000000,0.000000,0.000000,-9.549103,0.000000,4.550989,0.000000,0.000000,0.000000,0.000000,0.000000
28.663000000,40.248597616,139.984726424,3453.840827,4.214060,0.000000,10.211582,21.028813,4.214060,-67.575306,0.000000,-76.561102,0.000000,0.000000,0.000000,-9.471681,0.000000,4.542831,0.000000,0.000000,0.000000,0.000000,0.000000
28.673000000,40.248597703,139.984725948,3453.738461,4.119764,0.000000,10.256965,20.968504,4.119764,-68.116880,0.000000,-76.630916,0.000000,0.000000,0.000000,-9.395350,0.000000,4.534606,0.000000,0.000000,0.000000,0.000000,0.000000
28.683000000,40.248597787,139.984725482,3453.635642,4.026225,0.000000,10.302265,20.909160,4.026225,-68.653963,0.000000,-76.703412,0.000000,0.000000,0.000000,-9.320086,0.000000,4.526314,0.000000,0.000000,0.000000,0.000000,0.000000
28.693000000,40.248597869,139.984725026,3453.532371,3.933433,0.000000,10.347483,20.850767,3.933433,-69.186488,0.000000,-76.778746,0.000000,0.000000,0.000000,-9.245866,0.000000,4.517955,0.000000,0.000000,0.000000,0.000000,0.000000
28.703000000,40.248597949,139.984724582,3453.428648,3.841377,0.000000,10.392616,20.793316,3.841377,-69.714397,0.000000,-76.857091,0.000000,0.000000,0.000000,-9.172667,0.000000,4.509528,0.000000,0.000000,0.000000,0.000000,0.000000
28.713000000,40.248598026,139.984724147,3453.324474,3.750048,0.000000,10.437665,20.736793,3.750048,-70.237634,0.000000,-76.938631,0.000000,0.000000,0.000000,-9.100466,0.000000,4.501034,0.000000,0.000000,0.000000,0.000000,0.000000
28.723000000,40.248598101,139.984723723,3453.219850,3.659435,0.000000,10.482628,20.681187,3.659435,-70.756150,0.000000,-77.023568,0.000000,0.000000,0.000000,-9.029240,0.000000,4.492472,0.000000,0.000000,0.000000,0.000000,0.000000
28.733000000,40.248598173,139.984723309,3453.114777,3.569530,0.000000,10.527505,20.626486,3.569530,-71.269898,0.000000,-77.112119,0.000000,0.000000,0.000000,-8.958966,0.000000,4.483843,0.000000,0.000000,0.000000,0.000000,0.000000
28.743000000,40.248598243,139.984722905,3453.009255,3.480322,0.000000,10.572296,20.572679,3.480322,-71.778837,0.000000,-77.204520,0.000000,0.000000,0.000000,-8.889622,0.000000,4.475146,0.000000,0.000000,0.000000,0.000000,0.000000
28.753000000,40.248598311,139.984722511,3452.903286,3.391802,0.000000,10.616999,20.519756,3.391802,-72.282930,0.000000,-77.301030,0.000000,0.000000,0.000000,-8.821185,0.000000,4.466381,0.000000,0.000000,0.000000,0.000000,0.000000
28.763000000,40.248598377,139.984722127,3452.796871,3.303962,0.000000,10.661614,20.467704,3.303962,-72.782145,0.000000,-77.401930,0.000000,0.000000,0.000000,-8.753633,0.000000,4.457549,0.000000,0.000000,0.000000,0.000000,0.000000
28.773000000,40.248598441,139.984721753,3452.690010,3.216793,0.000000,10.706141,20.416513,3.216793,-73.276454,0.000000,-77.507527,0.000000,0.000000,0.000000,-8.686941,0.000000,4.448648,0.000000,0.000000,0.000000,0.000000,0.000000
28.783000000,40.248598502,139.984721388,3452.582704,3.130286,0.000000,10.750578,20.366173,3.130286,-73.765830,0.000000,-77.618158,0.000000,0.000000,0.000000,-8.621087,0.000000,4.439680,0.000000,0.000000,0.000000,0.000000,0.000000
28.793000000,40.248598561,139.984721034,3452.474954,3.044432,0.000000,10.794925,20.316672,3.044432,-74.250253,0.000000,-77.734193,0.000000,0.000000,0.000000,-8.556048,0.000000,4.430645,0.000000,0.000000,0.000000,0.000000,0.000000
28.803000000,40.248598618,139.984720689,3452.366761,2.959225,0.000000,10.839182,20.268000,2.959225,-74.729705,0.000000,-77.856039,0.000000,0.000000,0.000000,-8.491798,0.000000,4.421542,0.000000,0.000000,0.000000,0.000000,0.000000
28.813000000,40.248598673,139.984720354,3452.258126,2.874656,0.000000,10.883347,20.220147,2.874656,-75.204173,0.000000,-77.984143,0.000000,0.000000,0.000000,-8.428313,0.000000,4.412371,0.000000,0.000000,0.000000,0.000000,0.000000
28.823000000,40.248598725,139.984720028,3452.149050,2.790718,0.000000,10.927420,20.173103,2.790718,-75.673644,0.000000,-78.119003,0.000000,0.000000,0.000000,-8.365568,0.000000,4.403133,0.000000,0.000000,0.000000,0.000000,0.000000
28.833000000,40.248598776,139.984719712,3452.039534,2.707403,0.000000,10.971400,20.126858,2.707403,-76.138112,0.000000,-78.261166,0.000000,0.000000,0.000000,-8.303536,0.000000,4.393827,0.000000,0.000000,0.000000,0.000000,0.000000
28.843000000,40.248598824,139.984719405,3451.929579,2.624705,0.000000,11.015287,20.081402,2.624705,-76.597571,0.000000,-78.411244,0.000000,0.000000,0.000000,-8.242188,0.000000,4.384454,0.000000,0.000000,0.000000,0.000000,0.000000
28.853000000,40.248598870,139.984719107,3451.819185,2.542617,0.000000,11.059079,20.036724,2.542617,-77.052017,0.000000,-78.569917,0.000000,0.000000,0.000000,-8.181495,0.000000,4.375014,0.000000,0.000000,0.000000,0.000000,0.000000
28.863000000,40.248598914,139.984718819,3451.708354,2.461131,0.000000,11.102777,19.992816,2.461131,-77.501452,0.000000,-78.737943,0.000000,0.000000,0.000000,-8.121426,0.000000,4.365506,0.000000,0.000000,0.000000,0.000000,0.000000
28.873000000,40.248598956,139.984718540,3451.597086,2.380244,0.000000,11.146380,19.949668,2.380244,-77.945875,0.000000,-78.916175,0.000000,0.000000,0.000000,-8.061946,0.000000,4.355932,0.000000,0.000000,0.000000,0.000000,0.000000
28.883000000,40.248598996,139.984718270,3451.485383,2.299947,0.000000,11.189886,19.907271,2.299947,-78.385292,0.000000,-79.105571,0.000000,0.000000,0.000000,-8.003020,0.000000,4.346291,0.000000,0.000000,0.000000,0.000000,0.000000
28.893000000,40.248599034,139.984718009,3451.373245,2.220237,0.000000,11.233296,19.865614,2.220237,-78.819708,0.000000,-79.307213,0.000000,0.000000,0.000000,-7.944608,0.000000,4.336584,0.000000,0.000000,0.000000,0.000000,0.000000
28.903000000,40.248599070,139.984717758,3451.260674,2.141109,0.000000,11.276608,19.824689,2.141109,-79.249127,0.000000,-79.522323,0.000000,0.000000,0.000000,-7.886664,0.000000,4.326810,0.000000,0.000000,0.000000,0.000000,0.000000
28.913000000,40.248599104,139.984717515,3451.147670,2.062557,0.000000,11.319822,19.784487,2.062557,-79.673559,0.000000,-79.752297,0.000000,0.000000,0.000000,-7.829140,0.000000,4.316970,0.000000,0.000000,0.000000,0.000000,0.000000
28.923000000,40.248599136,139.984717281,3451.034235,1.984579,0.000000,11.362937,19.745000,1.984579,-80.093010,0.000000,-79.998724,0.000000,0.000000,0.000000,-7.771981,0.000000,4.307064,0.000000,0.000000,0.000000,0.000000,0.000000
28.933000000,40.248599166,139.984717056,3450.920369,1.907170,0.000000,11.405953,19.706217,1.907170,-80.507488,0.000000,-80.263428,0.000000,0.000000,0.000000,-7.715122,0.000000,4.297093,0.000000,0.000000,0.000000,0.000000,0.000000
28.943000000,40.248599194,139.984716839,3450.806073,1.830328,0.000000,11.448869,19.668130,1.830328,-80.917000,0.000000,-80.548514,0.000000,0.000000,0.000000,-7.658491,0.000000,4.287056,0.000000,0.000000,0.000000,0.000000,0.000000
28.953000000,40.248599220,139.984716631,3450.691349,1.754051,0.000000,11.491684,19.630731,1.754051,-81.321553,0.000000,-80.856417,0.000000,0.000000,0.000000,-7.602004,0.000000,4.276954,0.000000,0.000000,0.000000,0.000000,0.000000
28.963000000,40.248599244,139.984716432,3450.576197,1.678338,0.000000,11.534398,19.594011,1.678338,-81.721150,0.000000,-81.189976,0.000000,0.000000,0.000000,-7.545559,0.000000,4.266787,0.000000,0.000000,0.000000,0.000000,0.000000
28.973000000,40.248599266,139.984716242,3450.460619,1.603190,0.000000,11.577009,19.557962,1.603190,-82.115793,0.000000,-81.552514,0.000000,0.000000,0.000000,-7.489037,0.000000,4.256555,0.000000,0.000000,0.000000,0.000000,0.000000
28.983000000,40.248599286,139.984716060,3450.344615,1.528608,0.000000,11.619518,19.522575,1.528608,-82.505480,0.000000,-81.947953,0.000000,0.000000,0.000000,-7.432295,0.000000,4.246259,0.000000,0.000000,0.000000,0.000000,0.000000
28.993000000,40.248599304,139.984715886,3450.228186,1.454595,0.000000,11.661924,19.487842,1.454595,-82.890202,0.000000,-82.380946,0.000000,0.000000,0.000000,-7.375157,0.000000,4.235900,0.000000,0.000000,0.000000,0.000000,0.000000
29.003000000,40.248599320,139.984715721,3450.111334,1.381155,0.000000,11.704226,19.453755,1.381155,-83.269945,0.000000,-82.857058,0.000000,0.000000,0.000000,-7.317407,0.000000,4.225477,0.000000,0.000000,0.000000,0.000000,0.000000
29.013000000,40.248599334,139.984715565,3449.994060,1.308297,0.000000,11.746423,19.420306,1.308297,-83.644684,0.000000,-83.382997,0.000000,0.000000,0.000000,-7.258773,0.000000,4.214990,0.000000,0.000000,0.000000,0.000000,0.000000
29.023000000,40.248599347,139.984715416,3449.876364,1.236031,0.000000,11.788515,19.387487,1.236031,-84.014383,0.000000,-83.966920,0.000000,0.000000,0.000000,-7.198913,0.000000,4.204441,0.000000,0.000000,0.000000,0.000000,0.000000
29.033000000,40.248599358,139.984715276,3449.758248,1.164371,0.000000,11.830501,19.355290,1.164371,-84.378990,0.000000,-84.618839,0.000000,0.000000,0.000000,-7.137386,0.000000,4.193829,0.000000,0.000000,0.000000,0.000000,0.000000
29.043000000,40.248599366,139.984715144,3449.639712,1.093336,0.000000,11.872380,19.323707,1.093336,-84.738430,0.000000,-85.351171,0.000000,0.000000,0.000000,-7.073618,0.000000,4.183155,0.000000,0.000000,0.000000,0.000000,0.000000
29.053000000,40.248599373,139.984715020,3449.520759,1.022953,0.000000,11.914153,19.292730,1.022953,-85.092600,0.000000,-86.179491,0.000000,0.000000,0.000000,-7.006848,0.000000,4.172419,0.000000,0.000000,0.000000,0.000000,0.000000
29.063000000,40.248599378,139.984714905,3449.401388,0.953257,0.000000,11.955818,19.262353,0.953257,-85.441357,0.000000,-87.123581,0.000000,0.000000,0.000000,-6.936052,0.000000,4.161623,0.000000,0.000000,0.000000,0.000000,0.000000
29.073000000,40.248599382,139.984714797,3449.281601,0.884294,0.000000,11.997374,19.232566,0.884294,-85.784506,0.000000,-88.208907,0.000000,0.000000,0.000000,-6.859824,0.000000,4.150765,0.000000,0.000000,0.000000,0.000000,0.000000
29.083000000,40.248599383,139.984714697,3449.161399,0.816128,0.000000,12.038822,19.203364,0.816128,-86.121776,0.000000,-89.468751,0.000000,0.000000,0.000000,-6.776195,0.000000,4.139847,0.000000,0.000000,0.000000,0.000000,0.000000
29.093000000,40.248599383,139.984714606,3449.040784,0.748846,0.000000,12.080160,19.174738,0.748846,-86.452788,0.000000,-90.947332,0.000000,0.000000,0.000000,-6.682348,0.000000,4.128869,0.000000,0.000000,0.000000,0.000000,0.000000
29.103000000,40.248599381,139.984714522,3448.919755,0.682570,0.000000,12.121388,19.146681,0.682570,-86.777010,0.000000,-92.704449,0.000000,0.000000,0.000000,-6.574151,0.000000,4.117831,0.000000,0.000000,0.000000,0.000000,0.000000
29.113000000,40.248599377,139.984714446,3448.798315,0.617472,0.000000,12.162505,19.119186,0.617472,-87.093677,0.000000,-94.822547,0.000000,0.000000,0.000000,-6.445382,0.000000,4.106734,0.000000,0.000000,0.000000,0.000000,0.000000
29.123000000,40.248599371,139.984714378,3448.676464,0.553802,0.000000,12.203512,19.092247,0.553802,-87.401671,0.000000,-97.417572,0.000000,0.000000,0.000000,-6.286408,0.000000,4.095579,0.000000,0.000000,0.000000,0.000000,0.000000
29.133000000,40.248599364,139.984714317,3448.554204,0.491932,0.000000,12.244406,19.065854,0.491932,-87.699316,0.000000,-100.655763,0.000000,0.000000,0.000000,-6.081878,0.000000,4.084366,0.000000,0.000000,0.000000,0.000000,0.000000
29.143000000,40.248599355,139.984714265,3448.431536,0.432435,0.000000,12.285187,19.040003,0.432435,-87.984039,0.000000,-104.779209,0.000000,0.000000,0.000000,-5.806664,0.000000,4.073095,0.000000,0.000000,0.000000,0.000000,0.000000
29.153000000,40.248599344,139.984714220,3448.308460,0.376206,0.000000,12.325856,19.014686,0.376206,-88.251778,0.000000,-110.142026,0.000000,0.000000,0.000000,-5.418918,0.000000,4.061768,0.000000,0.000000,0.000000,0.000000,0.000000
29.163000000,40.248599331,139.984714182,3448.184978,0.324690,0.000000,12.366411,18.989895,0.324690,-88.496000,0.000000,-117.249773,0.000000,0.000000,0.000000,-4.849482,0.000000,4.050383,0.000000,0.000000,0.000000,0.000000,0.000000
29.173000000,40.248599317,139.984714153,3448.061092,0.280201,0.000000,12.406852,18.965625,0.280201,-88.706232,0.000000,-126.755565,0.000000,0.000000,0.000000,-3.992395,0.000000,4.038943,0.000000,0.000000,0.000000,0.000000,0.000000
29.183000000,40.248599301,139.984714130,3447.936801,0.246245,0.000000,12.447178,18.941869,0.246245,-88.866653,0.000000,-139.257570,0.000000,0.000000,0.000000,-2.723888,0.000000,4.027448,0.000000,0.000000,0.000000,0.000000,0.000000
29.193000000,40.248599283,139.984714116,3447.812108,0.227241,0.000000,12.487389,18.918619,0.227241,-88.957467,0.000000,-154.645837,0.000000,0.000000,0.000000,-1.014919,0.000000,4.015897,0.000000,0.000000,0.000000,0.000000,0.000000
29.203000000,40.248599264,139.984714108,3447.687014,0.226634,0.000000,12.527485,18.895870,0.226634,-88.963576,0.000000,-171.302605,0.000000,0.000000,0.000000,0.890544,0.000000,4.004293,0.000000,0.000000,0.000000,0.000000,0.000000
29.213000000,40.248599243,139.984714108,3447.561519,0.244253,0.000000,12.567463,18.873615,0.244253,-88.886579,0.000000,173.322983,0.000000,0.000000,0.000000,2.566150,0.000000,3.992635,0.000000,0.000000,0.000000,0.000000,0.000000
29.223000000,40.248599220,139.984714116,3447.435625,0.276367,0.000000,12.607325,18.851847,0.276367,-88.744214,0.000000,160.839415,0.000000,0.000000,0.000000,3.779050,0.000000,3.980923,0.000000,0.000000,0.000000,0.000000,0.000000
29.233000000,40.248599196,139.984714130,3447.309333,0.318395,0.000000,12.647070,18.830561,0.318395,-88.557860,0.000000,151.349724,0.000000,0.000000,0.000000,4.569228,0.000000,3.969159,0.000000,0.000000,0.000000,0.000000,0.000000
29.243000000,40.248599170,139.984714152,3447.182644,0.366753,0.000000,12.686697,18.809749,0.366753,-88.344129,0.000000,144.254042,0.000000,0.000000,0.000000,5.066580,0.000000,3.957343,0.000000,0.000000,0.000000,0.000000,0.000000
29.253000000,40.248599142,139.984714181,3447.055560,0.419089,0.000000,12.726205,18.789406,0.419089,-88.113864,0.000000,138.899846,0.000000,0.000000,0.000000,5.379844,0.000000,3.945476,0.000000,0.000000,0.000000,0.000000,0.000000
29.263000000,40.248599113,139.984714218,3446.928081,0.473943,0.000000,12.765594,18.769525,0.473943,-87.873778,0.000000,134.782543,0.000000,0.000000,0.000000,5.579375,0.000000,3.933559,0.000000,0.000000,0.000000,0.000000,0.000000
29.273000000,40.248599082,139.984714261,3446.800209,0.530409,0.000000,12.804864,18.750101,0.530409,-87.628024,0.000000,131.548795,0.000000,0.000000,0.000000,5.707557,0.000000,3.921591,0.000000,0.000000,0.000000,0.000000,0.000000
29.283000000,40.248599050,139.984714312,3446.671945,0.587910,0.000000,12.844014,18.731127,0.587910,-87.379224,0.000000,128.957055,0.000000,0.000000,0.000000,5.789762,0.000000,3.909574,0.000000,0.000000,0.000000,0.000000,0.000000
29.293000000,40.248599016,139.984714370,3446.543290,0.646071,0.000000,12.883043,18.712598,0.646071,-87.129083,0.000000,126.841442,0.000000,0.000000,0.000000,5.841460,0.000000,3.897508,0.000000,0.000000,0.000000,0.000000,0.000000
29.303000000,40.248598980,139.984714434,3446.414246,0.704638,0.000000,12.921952,18.694507,0.704638,-86.878735,0.000000,125.086249,0.000000,0.000000,0.000000,5.872339,0.000000,3.885394,0.000000,0.000000,0.000000,0.000000,0.000000
29.313000000,40.248598943,139.984714506,3446.284813,0.763437,0.000000,12.960739,18.676849,0.763437,-86.628956,0.000000,123.609193,0.000000,0.000000,0.000000,5.888646,0.000000,3.873232,0.000000,0.000000,0.000000,0.000000,0.000000
29.323000000,40.248598904,139.984714585,3446.154993,0.822344,0.000000,12.999404,18.659617,0.822344,-86.380286,0.000000,122.350580,0.000000,0.000000,0.000000,5.894522,0.000000,3.861024,0.000000,0.000000,0.000000,0.000000,0.000000
29.333000000,40.248598863,139.984714670,3446.024786,0.881270,0.000000,13.037947,18.642807,0.881270,-86.133107,0.000000,121.266271,0.000000,0.000000,0.000000,5.892784,0.000000,3.848770,0.000000,0.000000,0.000000,0.000000,0.000000
29.343000000,40.248598822,139.984714763,3445.894196,0.940148,0.000000,13.076367,18.626412,0.940148,-85.887695,0.000000,120.323035,0.000000,0.000000,0.000000,5.885394,0.000000,3.836470,0.000000,0.000000,0.000000,0.000000,0.000000
29.353000000,40.248598778,139.984714862,3445.763221,0.998931,0.000000,13.114664,18.610427,0.998931,-85.644246,0.000000,119.495446,0.000000,0.000000,0.000000,5.873749,0.000000,3.824126,0.000000,0.000000,0.000000,0.000000,0.000000
29.363000000,40.248598733,139.984714968,3445.631864,1.057581,0.000000,13.152837,18.594846,1.057581,-85.402905,0.000000,118.763749,0.000000,0.000000,0.000000,5.858863,0.000000,3.811737,0.000000,0.000000,0.000000,0.000000,0.000000
29.373000000,40.248598686,139.984715081,3445.500127,1.116069,0.000000,13.190886,18.579664,1.116069,-85.163775,0.000000,118.112393,0.000000,0.000000,0.000000,5.841483,0.000000,3.799305,0.000000,0.000000,0.000000,0.000000,0.000000
29.383000000,40.248598638,139.984715200,3445.368009,1.174373,0.000000,13.228810,18.564875,1.174373,-84.926930,0.000000,117.528974,0.000000,0.000000,0.000000,5.822170,0.000000,3.786831,0.000000,0.000000,0.000000,0.000000,0.000000
29.393000000,40.248598589,139.984715327,3445.235513,1.232476,0.000000,13.266610,18.550474,1.232476,-84.692422,0.000000,117.003495,0.000000,0.000000,0.000000,5.801351,0.000000,3.774315,0.000000,0.000000,0.000000,0.000000,0.000000
29.403000000,40.248598538,139.984715459,3445.102640,1.290365,0.000000,13.304284,18.536456,1.290365,-84.460284,0.000000,116.527806,0.000000,0.000000,0.000000,5.779354,0.000000,3.761757,0.000000,0.000000,0.000000,0.000000,0.000000
29.413000000,40.248598485,139.984715599,3444.969390,1.348030,0.000000,13.341832,18.522815,1.348030,-84.230540,0.000000,116.095208,0.000000,0.000000,0.000000,5.756435,0.000000,3.749159,0.000000,0.000000,0.000000,0.000000,0.000000
29.423000000,40.248598431,139.984715745,3444.835766,1.405461,0.000000,13.379255,18.509546,1.405461,-84.003199,0.000000,115.700143,0.000000,0.000000,0.000000,5.732796,0.000000,3.736521,0.000000,0.000000,0.000000,0.000000,0.000000
29.433000000,40.248598375,139.984715898,3444.701768,1.462654,0.000000,13.416550,18.496645,1.462654,-83.778265,0.000000,115.337960,0.000000,0.000000,0.000000,5.708596,0.000000,3.723845,0.000000,0.000000,0.000000,0.000000,0.000000
29.443000000,40.248598318,139.984716057,3444.567398,1.519602,0.000000,13.453719,18.484105,1.519602,-83.555736,0.000000,115.004743,0.000000,0.000000,0.000000,5.683963,0.000000,3.711130,0.000000,0.000000,0.000000,0.000000,0.000000
29.453000000,40.248598260,139.984716223,3444.432657,1.576302,0.000000,13.490760,18.471921,1.576302,-83.335602,0.000000,114.697171,0.000000,0.000000,0.000000,5.659000,0.000000,3.698377,0.000000,0.000000,0.000000,0.000000,0.000000
29.463000000,40.248598200,139.984716395,3444.297546,1.632752,0.000000,13.527673,18.460090,1.632752,-83.117853,0.000000,114.412409,0.000000,0.000000,0.000000,5.633792,0.000000,3.685588,0.000000,0.000000,0.000000,0.000000,0.000000
29.473000000,40.248598139,139.984716573,3444.162067,1.688948,0.000000,13.564459,18.448605,1.688948,-82.902472,0.000000,114.148022,0.000000,0.000000,0.000000,5.608408,0.000000,3.672762,0.000000,0.000000,0.000000,0.000000,0.000000
29.483000000,40.248598076,139.984716758,3444.026221,1.744891,0.000000,13.601116,18.437462,1.744891,-82.689442,0.000000,113.901909,0.000000,0.000000,0.000000,5.582903,0.000000,3.659902,0.000000,0.000000,0.000000,0.000000,0.000000
29.493000000,40.248598011,139.984716949,3443.890009,1.800578,0.000000,13.637644,18.426656,1.800578,-82.478742,0.000000,113.672246,0.000000,0.000000,0.000000,5.557324,0.000000,3.647006,0.000000,0.000000,0.000000,0.000000,0.000000
29.503000000,40.248597946,139.984717147,3443.753432,1.856009,0.000000,13.674043,18.416183,1.856009,-82.270352,0.000000,113.457445,0.000000,0.000000,0.000000,5.531710,0.000000,3.634077,0.000000,0.000000,0.000000,0.000000,0.000000
29.513000000,40.248597879,139.984717351,3443.616492,1.911184,0.000000,13.710312,18.406037,1.911184,-82.064247,0.000000,113.256113,0.000000,0.000000,0.000000,5.506093,0.000000,3.621115,0.000000,0.000000,0.000000,0.000000,0.000000
29.523000000,40.248597810,139.984717561,3443.479190,1.966103,0.000000,13.746452,18.396213,1.966103,-81.860405,0.000000,113.067027,0.000000,0.000000,0.000000,5.480499,0.000000,3.608121,0.000000,0.000000,0.000000,0.000000,0.000000
29.533000000,40.248597740,139.984717777,3443.341527,2.020766,0.000000,13.782461,18.386708,2.020766,-81.658800,0.000000,112.889106,0.000000,0.000000,0.000000,5.454952,0.000000,3.595095,0.000000,0.000000,0.000000,0.000000,0.000000
29.543000000,40.248597669,139.984718000,3443.203505,2.075175,0.000000,13.818341,18.377516,2.075175,-81.459406,0.000000,112.721392,0.000000,0.000000,0.000000,5.429469,0.000000,3.582038,0.000000,0.000000,0.000000,0.000000,0.000000
29.553000000,40.248597596,139.984718228,3443.065125,2.129329,0.000000,13.854089,18.368633,2.129329,-81.262199,0.000000,112.563036,0.000000,0.000000,0.000000,5.404066,0.000000,3.568952,0.000000,0.000000,0.000000,0.000000,0.000000
