time_sec,lat_deg,lon_deg,alt_agl_m,down_range_m,local_x_m,local_y_m,u_mps,v_mps,w_mps,true_airspeed_mps,ground_speed_mps,pitch_deg,roll_deg,yaw_deg,p_rad_sec,q_rad_sec,r_rad_sec,ax_mps2,ay_mps2,az_mps2,alpha_deg,beta_deg,qbar_pa,total_aoa_deg,pressure_pa,temperature_k,gust_airspeed_mps,gust_aoa_deg,thrust_n,mach
26.98900000001,40.24851530489023,139.98515679349003,3470.6667650468585,2239.2680024646593,2221.0510882592803,285.04955745331654,71.60256550546042,0.0,1.5775011847195,85.78782458959972,71.60256550546042,-1.2620992015378698,0.0,-73.67716789299351,0.0,0.0,0.0,-181.16251767948805,0.0,6.495495079187198,0.0,0.0,0.0,0.0,0.0,0.0,0.0,0.0,0.0,0.0
27.000000000010015,40.24851726347441,139.98514802956467,3470.6489857147735,2240.0438886199872,2221.820650539481,285.1484171095293,69.65906285029966,0.0,1.6485191925713807,83.84602146376027,69.65906285029966,-1.3556823930843485,0.0,-73.68192990744042,0.0,0.0,0.0,-173.03327636276782,0.0,6.424164504567141,0.0,0.0,0.0,0.0,0.0,0.0,0.0,0.0,0.0,0.0
27.01100000001003,40.24851916886707,139.98513950100931,3470.630429768121,2240.798918569915,2222.5695346324355,285.2445568067138,67.80172248373343,0.0,1.718781052843553,81.99048831702613,67.80172248373343,-1.4521432444181648,0.0,-73.68673618199814,0.0,0.0,0.0,-165.43988065138524,0.0,6.357517408967583,0.0,0.0,0.0,0.0,0.0,0.0,0.0,0.0,0.0,0.0
27.022000000010042,40.24852102339834,139.9851311975131,3470.6111052261763,2241.534005962218,2223.2986463878997,285.3380956948488,66.02493131897451,0.0,1.7883358210867506,80.21561418874204,66.02493131897451,-1.5515207160279243,0.0,-73.6915873652372,0.0,0.0,0.0,-158.33624662086166,0.0,6.295150206118498,0.0,0.0,0.0,0.0,0.0,0.0,0.0,0.0,0.0,0.0
27.033000000010055,40.248522829248294,139.9851231094293,3470.5910195941046,2242.250005599037,2224.00883331197,285.4291452518674,64.32355349247834,0.0,1.857228373130453,78.5162653582813,64.32355349247834,-1.6538543966411996,0.0,-73.69648411802457,0.0,0.0,0.0,-151.68114217386358,0.0,6.23670173931448,0.0,0.0,0.0,0.0,0.0,0.0,0.0,0.0,0.0,0.0
27.04400000001007,40.248524588459574,139.98511522771915,3470.5701799062767,2242.94771840666,2224.700889495167,285.51780992620377,62.692880680935616,0.0,1.9254998395652494,76.88773566001012,62.692880680935616,-1.759184510179266,0.0,-73.70142711389467,0.0,0.0,0.0,-145.43758655132655,0.0,6.181848030244567,0.0,0.0,0.0,0.0,0.0,0.0,0.0,0.0,0.0,0.0
27.055000000010082,40.248526302948704,139.98510754390196,3470.5485927651357,2243.6278958591965,2225.375559997804,285.6041877179443,61.12858850034154,0.0,1.993187987037799,75.32570288055648,61.12858850034154,-1.8675519225142116,0.0,-73.70641703942648,0.0,0.0,0.0,-139.57233481538503,0.0,6.130297770773852,0.0,0.0,0.0,0.0,0.0,0.0,0.0,0.0,0.0,0.0
27.066000000010096,40.24852797451626,139.98510005001017,3470.5262643761484,2244.2912439650804,2226.0335448025608,285.68837069799184,59.62669813565982,0.0,2.060327553803422,73.82619038686977,59.62669813565982,-1.9789981480001295,0.0,-73.71145459462802,0.0,0.0,0.0,-134.05543383246015,0.0,6.081788439901376,0.0,0.0,0.0,0.0,0.0,0.0,0.0,0.0,0.0,0.0
27.07700000001011,40.24852960485603,139.98509273854864,3470.5032005793078,2244.938426870633,2226.6755023874407,285.7704454768401,58.18354248319156,0.0,2.126950545813407,72.3855332671528,58.18354248319156,-2.093565355748551,0.0,-73.71654049332842,0.0,0.0,0.0,-128.85983864132035,0.0,6.036082948718267,0.0,0.0,0.0,0.0,0.0,0.0,0.0,0.0,0.0,0.0
27.088000000010123,40.24853119556333,139.98508560245816,3470.479406877587,2245.5700700947277,2227.302052932408,285.8504936296607,56.795736198220425,0.0,2.193086498648407,71.00034837721485,56.795736198220425,-2.2112963756166604,0.0,-73.72167546357882,0.0,0.0,0.0,-123.96107999807388,0.0,5.99296673286201,0.0,0.0,0.0,0.0,0.0,0.0,0.0,0.0,0.0,0.0
27.099000000010136,40.24853274814245,139.98507863508215,3470.4548884626947,2246.1867634768923,2227.9137812427693,285.9285920773632,55.460149132203796,0.0,2.258762709807556,69.66750777649507,55.460149132203796,-2.332234703874998,0.0,-73.7268602480626,0.0,0.0,0.0,-119.33697544036855,0.0,5.95224522551557,0.0,0.0,0.0,0.0,0.0,0.0,0.0,0.0,0.0,0.0
27.11000000001015,40.248534264013465,139.98507183013675,3470.429650238435,2246.789063832039,2228.511239381123,286.0048134337285,54.17388272018967,0.0,2.3240044451949164,68.38411511441915,54.17388272018967,-2.456424508519519,0.0,-73.7320956045157,0.0,0.0,0.0,-114.96737747865875,0.0,5.913741655063976,0.0,0.0,0.0,0.0,0.0,0.0,0.0,0.0,0.0,0.0
27.121000000010163,40.24853574451839,139.98506518168344,3470.4036968419296,2247.3774973733075,2229.094949069488,286.07922632167293,52.934248943043535,0.0,2.3888351230861105,67.14748459165907,52.934248943043535,-2.583910634190781,0.0,-73.73738230615793,0.0,0.0,0.0,-110.83395355974486,0.0,5.87729512058979,0.0,0.0,0.0,0.0,0.0,0.0,0.0,0.0,0.0,0.0
27.132000000010176,40.248537190926825,139.98505868410425,3470.37703266294,2247.952561910865,2229.665403869254,286.1518956606359,51.73875154270055,0.0,2.4532764783890775,65.95512217449868,51.73875154270055,-2.7147386066609354,0.0,-73.7427211421353,0.0,0.0,0.0,-106.91999330137754,0.0,5.842758905851239,0.0,0.0,0.0,0.0,0.0,0.0,0.0,0.0,0.0,0.0
27.14300000001019,40.24853860444104,139.98505233207902,3470.3496618614895,2248.514728863653,2230.2230711759776,286.2228829272338,50.58506921382048,0.0,2.51734870961803,64.80470878567179,50.58506921382048,-2.848954636846886,0.0,-73.74811291797506,0.0,0.0,0.0,-103.210239201733,0.0,5.809998998550492,0.0,0.0,0.0,0.0,0.0,0.0,0.0,0.0,0.0,0.0
27.154000000010203,40.24853998620064,139.98504612056487,3470.321588383959,2249.0644450828704,2230.768394027247,286.2922463934682,49.47104053337593,0.0,2.5810706106660675,63.69408523319425,49.47104053337593,-2.986605624305593,0.0,-73.7535584560532,0.0,0.0,0.0,-99.69073761197053,0.0,5.7788927868088225,0.0,0.0,0.0,0.0,0.0,0.0,0.0,0.0,0.0,0.0
27.165000000010217,40.248541337286916,139.98504004477707,3470.292815977815,2249.6021345449376,2231.3017927809537,286.36004134941993,48.39465042203651,0.0,2.6444596891792123,62.621238671044416,48.39465042203651,-3.127739160164969,0.0,-73.75905859607558,0.0,0.0,0.0,-96.3487072461958,0.0,5.7493279090154195,0.0,0.0,0.0,0.0,0.0,0.0,0.0,0.0,0.0,0.0
27.17600000001023,40.248542658726684,139.98503410017196,3470.26334820511,2250.128199862934,2231.8236666136736,286.4263203015831,47.354017958694136,0.0,2.7075322730943068,61.58429041303037,47.354017958694136,-3.2724035294411578,0.0,-73.76461419557322,0.0,0.0,0.0,-93.17242290885875,0.0,5.721201236763755,0.0,0.0,0.0,0.0,0.0,0.0,0.0,0.0,0.0,0.0
27.187000000010244,40.2485439514959,139.98502828243085,3470.233188454876,2250.643023717747,2232.334394940405,286.4911331532207,46.34738539290175,0.0,2.7703036066983806,60.58148494461015,46.34738539290175,-3.4206477126901778,0.0,-73.77022613041258,0.0,0.0,0.0,-90.15111245930791,0.0,5.6944179735593075,0.0,0.0,0.0,0.0,0.0,0.0,0.0,0.0,0.0,0.0
27.198000000010257,40.24854521652295,139.98502258744557,3470.202339954513,2251.1469701343167,2232.834338679093,286.55452737727205,45.373108220023944,0.0,2.8327879373919553,59.61117999745809,45.373108220023944,-3.5725213869390493,0.0,-73.77589529532135,0.0,0.0,0.0,-87.27486531852936,0.0,5.668890854477093,0.0,0.0,0.0,0.0,0.0,0.0,0.0,0.0,0.0,0.0
27.20900000001027,40.248546454691706,139.98501701130485,3470.1708057802757,2251.6403856910633,2233.3238414505795,286.6165481674529,44.4296462010636,0.0,2.894998594188674,58.671837568736805,44.4296462010636,-3.728074925838434,0.0,-73.78162260443055,0.0,0.0,0.0,-84.53455106344636,0.0,5.644539434048833,0.0,0.0,0.0,0.0,0.0,0.0,0.0,0.0,0.0,0.0
27.220000000010284,40.24854766684434,139.9850115502821,3470.1385888669474,2252.123600600472,2233.8032306488035,286.67723858828566,43.51555522388046,0.0,2.9569480588546195,57.76201578178681,43.51555522388046,-3.887359398975649,0.0,-73.7874089918338,0.0,0.0,0.0,-81.92174685722085,0.0,5.621289451435186,0.0,0.0,0.0,0.0,0.0,0.0,0.0,0.0,0.0,0.0
27.231000000010297,40.24854885378386,139.985006200824,3470.105692016764,2252.5969297270503,2234.2728184509406,286.736639701005,42.6294799152264,0.0,3.01864803047956,56.88036149765473,42.6294799152264,-4.050426570283627,0.0,-73.79325541216431,0.0,0.0,0.0,-79.4286726360401,0.0,5.599072263442711,0.0,0.0,0.0,0.0,0.0,0.0,0.0,0.0,0.0,0.0
27.24200000001031,40.24855001627653,139.98500095953966,3470.072117907664,2253.060673531748,2234.732902753769,286.79479068673504,41.7701469239987,0.0,3.0801094841763836,56.02560359785856,41.7701469239987,-4.217328895477951,0.0,-73.7991628411906,0.0,0.0,0.0,-77.04813311903305,0.0,5.5778243372232685,0.0,0.0,0.0,0.0,0.0,0.0,0.0,0.0,0.0,0.0
27.253000000010324,40.248551155054066,139.98499582319116,3470.0378691009305,2253.5151189309204,2235.183768025222,286.85172895907266,40.936358805614404,0.0,3.14134272452185,55.19654686829003,40.936358805614404,-4.388119518450517,0.0,-73.80513227643156,0.0,0.0,0.0,-74.77346583245325,0.0,5.557486795582202,0.0,0.0,0.0,0.0,0.0,0.0,0.0,0.0,0.0,0.0
27.264000000010338,40.24855227081569,139.98499078868448,3470.0029480482694,2253.9605400843006,2235.625686084678,286.9074902743461,40.126988445653296,0.0,3.202357434279731,54.39206642239937,40.126988445653296,-4.562852266544728,0.0,-73.81116473779191,0.0,0.0,0.0,-72.59849444557918,0.0,5.538005008751154,0.0,0.0,0.0,0.0,0.0,0.0,0.0,0.0,0.0,0.0
27.27500000001035,40.248553364229984,139.98498585306098,3469.9673570983796,2254.3971991587523,2236.058916862093,286.96210881639195,39.3409739680866,0.0,3.2631627188846783,53.611102608977355,39.3409739680866,-4.74158164463324,0.0,-73.81726126821864,0.0,0.0,0.0,-70.51748680678988,0.0,5.519328227277281,0.0,0.0,0.0,0.0,0.0,0.0,0.0,0.0,0.0,0.0
27.286000000010365,40.24855443593671,139.98498101348963,3469.931098503054,2254.8253470099166,2236.4837090720125,287.01561729962106,38.577314079655594,0.0,3.3237671471105505,52.85265635609673,38.577314079655594,-4.924362827915456,0.0,-73.82342293437969,0.0,0.0,0.0,-68.52511714636721,0.0,5.501409251363466,0.0,0.0,0.0,0.0,0.0,0.0,0.0,0.0,0.0,0.0
27.297000000010378,40.248555486548405,139.98497626725998,3469.894174422859,2255.2452238125907,2236.9003008393347,287.0680470452889,37.83506380742064,0.0,3.3841787882991703,52.11578490823225,37.83506380742064,-5.11125165334779,0.0,-73.82965082736555,0.0,0.0,0.0,-66.61643197974422,0.0,5.484204132581483,0.0,0.0,0.0,0.0,0.0,0.0,0.0,0.0,0.0,0.0
27.30800000001039,40.24855651665189,139.98497161177528,3469.8565869324193,2255.65705966495,2237.3089202984615,287.11942805957983,37.11333059127483,0.0,3.444405246483781,51.39959791835138,37.11333059127483,-5.302304609615703,0.0,-73.83594606341481,0.0,0.0,0.0,-64.78681930281591,0.0,5.467671904386429,0.0,0.0,0.0,0.0,0.0,0.0,0.0,0.0,0.0,0.0
27.319000000010405,40.248557526809705,139.98496704454607,3469.8183380253467,2256.0610751569848,2237.709786157206,287.16978910525967,36.411270697401896,0.0,3.5044536917048297,50.70325386095463,36.411270697401896,-5.497578825552152,0.0,-73.84230978466479,0.0,0.0,0.0,-63.03198072094964,0.0,5.45177433829808,0.0,0.0,0.0,0.0,0.0,0.0,0.0,0.0,0.0,0.0
27.33000000001042,40.248558517561406,139.9849625631847,3469.779429618839,2256.4574818580154,2238.103108179516,287.21915777017034,35.728085922334714,0.0,3.5643308887835565,50.0259567357201,35.728085922334714,-5.697132056902846,0.0,-73.84874315992826,0.0,0.0,0.0,-61.34790619663298,0.0,5.436475722993574,0.0,0.0,0.0,0.0,0.0,0.0,0.0,0.0,0.0,0.0
27.341000000010432,40.248559489424885,139.9849581653997,3469.739863557976,2256.8464828173487,2238.4890876809814,287.26756053930654,35.06302056050618,0.0,3.624043223790589,49.366953034643274,35.06302056050618,-5.9010226713342275,0.0,-73.8552473854973,0.0,0.0,0.0,-59.7308511382632,0.0,5.421742663884305,0.0,0.0,0.0,0.0,0.0,0.0,0.0,0.0,0.0,0.0
27.352000000010445,40.24856044289737,139.9849538489906,3469.69964161974,2257.228273014872,2238.8679179778687,287.31502283581034,34.41535861103664,0.0,3.6835967284217546,48.7255289484151,34.41535861103664,-6.109309631575612,0.0,-73.86182368597542,0.0,0.0,0.0,-58.177315585234574,0.0,5.407543901035493,0.0,0.0,0.0,0.0,0.0,0.0,0.0,0.0,0.0,0.0
27.36300000001046,40.2485613784566,139.98494961184332,3469.6587655167727,2257.6030397845357,2239.2397848057276,287.3615690860097,33.784421202021015,0.0,3.742997102471334,48.101007790300805,33.784421202021015,-6.322052476582467,0.0,-73.86847331513954,0.0,0.0,0.0,-56.68402527291913,0.0,5.393850143535592,0.0,0.0,0.0,0.0,0.0,0.0,0.0,0.0,0.0,0.0
27.374000000010472,40.24856229656183,139.98494545192563,3469.6172369009055,2257.9709631986198,2239.604866699739,287.4072227744937,33.16956421280763,0.0,3.802249734573448,47.49274761801041,33.16956421280763,-6.539311300603134,0.0,-73.87519755683246,0.0,0.0,0.0,-55.247914385951226,0.0,5.380633918639739,0.0,0.0,0.0,0.0,0.0,0.0,0.0,0.0,0.0,0.0
27.385000000010486,40.248563197654704,139.98494136728317,3469.575057366463,2258.332216432993,2239.963335357918,287.45200648349044,32.570176076734896,0.0,3.8613597213650306,46.90013903602679,32.570176076734896,-6.7611467300268515,0.0,-73.88199772588769,0.0,0.0,0.0,-53.86610982991772,0.0,5.367869434201163,0.0,0.0,0.0,0.0,0.0,0.0,0.0,0.0,0.0,0.0
27.3960000000105,40.24856408216022,139.98493735603526,3469.532228453368,2258.6869661356973,2240.3153560061664,287.4959419439598,31.98567574854529,0.0,3.920331885208475,46.32260316260972,31.98567574854529,-6.987619897886264,0.0,-73.88887516908787,0.0,0.0,0.0,-52.53591687055548,0.0,5.355532453070583,0.0,0.0,0.0,0.0,0.0,0.0,0.0,0.0,0.0,0.0
27.407000000010513,40.24856495048751,139.98493341637138,3469.4887516500585,2259.035372736461,2240.6610877052535,287.53905007506495,31.415510822253353,0.0,3.9791707905984515,45.75958974725232,31.415510822253353,-7.218792415883187,0.0,-73.89583126615805,0.0,0.0,0.0,-51.25480600622029,0.0,5.343600178289481,0.0,0.0,0.0,0.0,0.0,0.0,0.0,0.0,0.0,0.0
27.418000000010526,40.2485658030306,139.98492954654796,3469.4446283962307,2259.3775907323547,2241.000683633571,287.58135102507674,30.8591557866319,0.0,4.037880759365233,45.21057542575363,30.8591557866319,-7.4547263438019025,0.0,-73.90286743079568,0.0,0.0,0.0,-50.0204009540398,0.0,5.332051148031105,0.0,0.0,0.0,0.0,0.0,0.0,0.0,0.0,0.0,0.0
27.42900000001054,40.24856664016919,139.9849257448847,3469.3998600854293,2259.7137690158443,2241.3342914131936,287.6228642078228,30.316110406717,0.0,4.096465884776057,44.67506210130714,30.316110406717,-7.695484156169916,0.0,-73.90998511173858,0.0,0.0,0.0,-48.83046764305156,0.0,5.3208651393559085,0.0,0.0,0.0,0.0,0.0,0.0,0.0,0.0,0.0,0.0
27.440000000010553,40.2485674622693,139.98492200976187,3469.354448067472,2260.0440511084494,2241.662053340693,287.6636083398063,29.785898220836668,0.0,4.154930044626399,44.1525754411102,29.785898220836668,-7.941128706021938,0.0,-73.91718579387283,0.0,0.0,0.0,-47.682904118994415,0.0,5.310023079947484,0.0,0.0,0.0,0.0,0.0,0.0,0.0,0.0,0.0,0.0
27.451000000010566,40.248568269683936,139.98491833961737,3469.3083936507533,2260.368575431043,2241.9841066558693,287.70360146971865,29.268065143655356,0.0,4.213276913404388,43.642663478985824,29.268065143655356,-8.191723185618812,0.0,-73.9244709993823,0.0,0.0,0.0,-46.57573127545569,0.0,5.299506967082839,0.0,0.0,0.0,0.0,0.0,0.0,0.0,0.0,0.0,0.0
27.46200000001058,40.24856906275369,139.9849147329441,3469.261698104413,2260.6874755250346,2242.300583760136,287.7428610143232,28.762178166610465,0.0,4.271509973603868,43.14489531539286,28.762178166610465,-8.447331083969381,0.0,-73.93184228894141,0.0,0.0,0.0,-45.5070843349525,0.0,5.289299793168507,0.0,0.0,0.0,0.0,0.0,0.0,0.0,0.0,0.0,0.0
27.473000000010593,40.2485698418073,139.98491118828713,3469.214362660376,2261.0008803132755,2242.611612476741,287.7814037805063,28.26782414790976,0.0,4.329632526254657,42.65885990699315,28.26782414790976,-8.708016140999671,0.0,-73.93930126295349,0.0,0.0,0.0,-44.47520501138697,0.0,5.279385477242721,0.0,0.0,0.0,0.0,0.0,0.0,0.0,0.0,0.0,0.0
27.484000000010607,40.248570607162215,139.98490770424183,3469.1663885152993,2261.308914258091,2242.9173162055313,287.81924600082795,27.784608684969946,0.0,4.38764770073238,42.18416493865571,27.784608684969946,-8.973842298210785,0.0,-73.94684956283642,0.0,0.0,0.0,-43.478434292286344,0.0,5.26974880190488,0.0,0.0,0.0,0.0,0.0,0.0,0.0,0.0,0.0,0.0
27.49500000001062,40.2485713591251,139.98490427945111,3469.117776832397,2261.6116976126964,2243.217814173505,287.85640335630166,27.312155062816544,0.0,4.445558463904579,41.720435771417876,27.312155062816544,-9.244873645663949,0.0,-73.95448887235783,0.0,0.0,0.0,-42.51520578543348,0.0,5.260375355187716,0.0,0.0,0.0,0.0,0.0,0.0,0.0,0.0,0.0,0.0
27.506000000010633,40.248572097992295,139.98490091260356,3469.068528743179,2261.909346580086,2243.513221592246,287.8928909979095,26.850103272540768,0.0,4.503367628664841,41.26731446049888,26.850103272540768,-9.521174365128994,0.0,-73.96222091902212,0.0,0.0,0.0,-41.5840395800018,0.0,5.251251476935754,0.0,0.0,0.0,0.0,0.0,0.0,0.0,0.0,0.0,0.0
27.517000000010647,40.24857282405029,139.98489760243137,3469.018645349098,2262.2019735005397,2243.8036498433344,287.9287235748945,26.39810909442799,0.0,4.561077861902106,40.8244588379804,26.39810909442799,-9.8028086692307,0.0,-73.97004747551175,0.0,0.0,0.0,-40.683536577215214,0.0,5.242364209296553,0.0,0.0,0.0,0.0,0.0,0.0,0.0,0.0,0.0,0.0
27.52800000001066,40.248573537576135,139.9848943477085,3468.968127723109,2262.4896870140396,2244.089206639934,287.9639152516118,25.95584324084028,0.0,4.618691691948232,40.39154165523639,25.95584324084028,-10.089840736426401,0.0,-73.97797036118509,0.0,0.0,0.0,-39.812373249930474,0.0,5.233701250969549,0.0,0.0,0.0,0.0,0.0,0.0,0.0,0.0,0.0,0.0
27.539000000010674,40.24857423883788,139.98489114724882,3468.9169769111486,2262.772592221168,2244.3699961853467,287.99847973607297,25.522990554358522,0.0,4.676211515543177,39.96824978061757,25.522990554358522,-10.382334641647619,0.0,-73.98599144363355,0.0,0.0,0.0,-38.96929679444711,0.0,5.225250914891483,0.0,0.0,0.0,0.0,0.0,0.0,0.0,0.0,0.0,0.0
27.550000000010687,40.248574928094946,139.98488799990426,3468.8651939335477,2263.050790853463,2244.646119343398,288.0324302905974,25.099249257071747,0.0,4.733639604353878,39.55428344827827,25.099249257071747,-10.680354282439074,0.0,-73.99411264030088,0.0,0.0,0.0,-38.15312064134514,0.0,5.217002089067914,0.0,0.0,0.0,0.0,0.0,0.0,0.0,0.0,0.0,0.0
27.5610000000107,40.24857560559846,139.98488490456356,3468.8127797863663,2263.3243813799977,2244.9176737426633,288.06577975694864,24.684330247247466,0.0,4.790978111079778,39.14935555437915,24.684330247247466,-10.983963300429476,0.0,-74.00233592016735,0.0,0.0,0.0,-37.3627202952789,0.0,5.2089442002877995,0.0,0.0,0.0,0.0,0.0,0.0,0.0,0.0,0.0,0.0
27.572000000010714,40.24857627159163,139.9848818601504,3468.759735442671,2263.5934591712253,2245.184753939946,288.0985405696822,24.277956439930577,0.0,4.848229075175302,38.75319099721357,24.277956439930577,-11.29322499797077,0.0,-74.01066330550199,0.0,0.0,0.0,-36.597029476460555,0.0,5.201067180482543,0.0,0.0,0.0,0.0,0.0,0.0,0.0,0.0,0.0,0.0
27.583000000010728,40.24857692631007,139.98487886562222,3468.7060618537453,2263.8581166116214,2245.447451531161,288.1307247770239,23.879862148302845,0.0,4.905394428217019,38.36552605808944,23.879862148302845,-11.608202249785844,0.0,-74.01909687368608,0.0,0.0,0.0,-35.85503653908294,0.0,5.193361435513003,0.0,0.0,0.0,0.0,0.0,0.0,0.0,0.0,0.0,0.0
27.59400000001074,40.24857756998211,139.98487591996852,3468.651759950247,2264.118443238803,2245.7058552901035,288.16234405252544,23.4897925028936,0.0,4.962475998941047,37.986107820057256,23.4897925028936,-11.92895740946929,0.0,-74.02763875911137,0.0,0.0,0.0,-35.13578114419273,0.0,5.185817816187699,0.0,0.0,0.0,0.0,0.0,0.0,0.0,0.0,0.0,0.0
27.605000000010754,40.248578202829066,139.98487302220974,3468.5968306433115,2264.3745258497524,2245.960051273565,288.19340971044903,23.10750290596705,0.0,5.019475517974098,37.614693621809685,23.10750290596705,-12.255552210691533,0.0,-74.03629115515643,0.0,0.0,0.0,-34.438351166559805,0.0,5.178427591333234,0.0,0.0,0.0,0.0,0.0,0.0,0.0,0.0,0.0,0.0
27.616000000010768,40.24857882506559,139.98487017139612,3468.5412748256017,2264.626448604187,2246.2101229226814,288.22393272815583,22.732758518625698,0.0,5.076394622279798,37.25105054429244,22.732758518625698,-12.588047662964112,0.0,-74.04505631624524,0.0,0.0,0.0,-33.761879816919006,0.0,5.171182422754049,0.0,0.0,0.0,0.0,0.0,0.0,0.0,0.0,0.0,0.0
27.62700000001078,40.24857943689986,139.98486736660647,3468.4850933723155,2264.8742931297734,2246.4561511685847,288.2539237493926,22.36533377836397,0.0,5.133234859340115,36.894954927760224,22.36533377836397,-12.92650394183265,0.0,-74.0539365599917,0.0,0.0,0.0,-33.10554296261265,0.0,5.164074341932946,0.0,0.0,0.0,0.0,0.0,0.0,0.0,0.0,0.0,0.0
27.638000000010795,40.24858003853384,139.9848646069469,3468.428287142144,2265.1181386308945,2246.698214540038,288.28339310007834,22.005011944983774,0.0,5.1899976910902685,36.546191917189944,22.005011944983774,-13.270980273374887,0.0,-74.06293426943441,0.0,0.0,0.0,-32.46855663115191,0.0,5.157095728336965,0.0,0.0,0.0,0.0,0.0,0.0,0.0,0.0,0.0,0.0
27.64900000001081,40.24858063016358,139.9848618915499,3468.3708569781934,2265.3580619784257,2246.936389251735,288.3123508055514,21.651584672945972,0.0,5.246684497623978,36.20455503412496,21.651584672945972,-13.621534812893337,0.0,-74.07205189536634,0.0,0.0,0.0,-31.85017468256107,0.0,5.1502392892049125,0.0,0.0,0.0,0.0,0.0,0.0,0.0,0.0,0.0,0.0
27.66000000001082,40.24858121197938,139.98485921957322,3468.3128037088604,2265.594137805018,2247.1707493000495,288.3408065930228,21.304851608379575,0.0,5.303296580684695,35.86984577317248,21.304851608379575,-13.978224517706835,0.0,-74.08129195876384,0.0,0.0,0.0,-31.249686637586457,0.0,5.1434980407035065,0.0,0.0,0.0,0.0,0.0,0.0,0.0,0.0,0.0,0.0
27.671000000010835,40.24858178416606,139.98485659019897,3468.2541281486765,2265.8264385818547,2247.401366537516,288.3687699142156,20.96462000910618,0.0,5.359835166957234,35.54187322151162,20.96462000910618,-14.34110501396171,0.0,-74.09065705332019,0.0,0.0,0.0,-30.66641564995332,0.0,5.136865290348723,0.0,0.0,0.0,0.0,0.0,0.0,0.0,0.0,0.0,0.0
27.68200000001085,40.24858234690314,139.98485400263274,3468.194831099114,2266.055034701456,2247.6283107561544,288.3962499465811,20.630704386160698,0.0,5.416301411173147,35.2204536998933,20.630704386160698,-14.710230457402226,0.0,-74.10014984808879,0.0,0.0,0.0,-30.09971661185252,0.0,5.130334620597696,0.0,0.0,0.0,0.0,0.0,0.0,0.0,0.0,0.0,0.0
27.693000000010862,40.24858290036503,139.9848514561027,3468.1349133493595,2266.279994557071,2247.8516497656137,288.42325560815283,20.30292616540326,0.0,5.472696399042172,34.90541042372713,20.30292616540326,-15.085653388061091,0.0,-74.10977309024177,0.0,0.0,0.0,-29.548974382744824,0.0,5.123899873524416,0.0,0.0,0.0,0.0,0.0,0.0,0.0,0.0,0.0,0.0
27.704000000010875,40.24858344472126,139.98484894985867,3468.074375677057,2266.5013846186603,2248.071449468318,288.44979556886665,19.98111336792096,0.0,5.529021150021229,34.59657318295395,19.98111336792096,-15.467424578854802,0.0,-74.11952960794974,0.0,0.0,0.0,-29.01360213239202,0.0,5.1175551364996545,0.0,0.0,0.0,0.0,0.0,0.0,0.0,0.0,0.0,0.0
27.71500000001089,40.24858398013657,139.98484648317145,3468.013218849021,2266.7192695025433,2248.2877739299906,288.4758782482005,19.6651003080137,0.0,5.585276619931531,34.293778039498505,19.6651003080137,-15.855592878094734,0.0,-74.12942231338914,0.0,0.0,0.0,-28.493039789771803,0.0,5.111294728802123,0.0,0.0,0.0,0.0,0.0,0.0,0.0,0.0,0.0,0.0
27.726000000010902,40.24858450677121,139.98484405533196,3467.9514436219206,2266.933712039337,2248.500685444852,288.5015118408867,19.354727307646023,0.0,5.641463703433665,33.996867041184466,19.354727307646023,-16.250205045954353,0.0,-74.13945420588352,0.0,0.0,0.0,-27.986752590212514,0.0,5.105113189093741,0.0,0.0,0.0,0.0,0.0,0.0,0.0,0.0,0.0,0.0
27.737000000010916,40.24858502478099,139.9848416656505,3467.8890507429396,2267.144773342946,2248.7102446057775,288.52670431220497,19.049840426327194,0.0,5.697583236369773,33.70568795107392,19.049840426327194,-16.651305584964806,0.0,-74.14962837518617,0.0,0.0,0.0,-27.4942297137022,0.0,5.099005263697385,0.0,0.0,0.0,0.0,0.0,0.0,0.0,0.0,0.0,0.0
27.74800000001093,40.24858553431754,139.98483931345618,3467.8260409504064,2267.3525128591673,2248.9165103510645,288.55146341540177,18.750291205456143,0.0,5.753635997981318,33.420093991268516,18.750291205456143,-17.058936564646125,0.0,-74.15994800491116,0.0,0.0,0.0,-27.01498300789042,0.0,5.0929658956203125,0.0,0.0,0.0,0.0,0.0,0.0,0.0,0.0,0.0,0.0
27.759000000010943,40.24858603552837,139.98483699809623,3467.7624149744106,2267.5569884315983,2249.119540030689,288.5757966932092,18.455936426235795,0.0,5.809622713010288,33.139943600276766,18.455936426235795,-17.47313744041931,0.0,-74.17041637612107,0.0,0.0,0.0,-26.548545789814582,0.0,5.086990214271081,0.0,0.0,0.0,0.0,0.0,0.0,0.0,0.0,0.0,0.0
27.770000000010956,40.24858652855705,139.9848347189352,3467.698173537383,2267.7582563667806,2249.3193894710357,288.5997114852108,18.16663788032425,0.0,5.865544053691234,32.86510020311525,18.16663788032425,-17.89394486698564,0.0,-74.18103687107937,0.0,0.0,0.0,-26.094471720852123,0.0,5.081073525821732,0.0,0.0,0.0,0.0,0.0,0.0,0.0,0.0,0.0,0.0
27.78100000001097,40.24858701354335,139.98483247535458,3467.633317354667,2267.956371468777,2249.516113008385,288.6232149385535,17.88226215244819,0.0,5.921400641640911,32.59543199336934,17.88226215244819,-18.32139250640346,0.0,-74.19181297717672,0.0,0.0,0.0,-25.652333749827758,0.0,5.075211304170893,0.0,0.0,0.0,0.0,0.0,0.0,0.0,0.0,0.0,0.0
27.792000000010983,40.24858749062337,139.98483026675206,3467.5678471350625,2268.151387110377,2249.709763560304,288.64631401105703,17.6026804142571,0.0,5.977193049651918,32.33081172649236,17.6026804142571,-18.755510831140086,0.0,-74.2027482910406,0.0,0.0,0.0,-25.221723119597304,0.0,5.069399182466755,0.0,0.0,0.0,0.0,0.0,0.0,0.0,0.0,0.0,0.0
27.803000000010996,40.24858795992966,139.98482809254097,3467.501763581352,2268.3433552739602,2249.9003926659134,288.6690154784489,17.32776822874637,0.0,6.032921803396258,32.0711165236713,17.32776822874637,-19.196326922426426,0.0,-74.21384652283803,0.0,0.0,0.0,-24.80224843278705,0.0,5.0636329451521185,0.0,0.0,0.0,0.0,0.0,0.0,0.0,0.0,0.0,0.0
27.81400000001101,40.248588421591336,139.9848259521498,3467.435067390812,2268.5323265997463,2250.0880505335545,288.69132594203126,17.05740536462281,0.0,6.088587383044344,31.81622768563315,17.05740536462281,-19.64386426429494,0.0,-74.22511150078236,0.0,0.0,0.0,-24.393534772696487,0.0,5.057908520496484,0.0,0.0,0.0,0.0,0.0,0.0,0.0,0.0,0.0,0.0
27.825000000011023,40.24858887573423,139.98482384502185,3467.3677592556996,2268.7183504194845,2250.272786073776,288.7132518362697,16.791475620028194,0.0,6.144190224804609,31.56603051580749,16.791475620028194,-20.09814253373746,0.0,-74.23654717585553,0.0,0.0,0.0,-23.995222875672475,0.0,5.052221973582843,0.0,0.0,0.0,0.0,0.0,0.0,0.0,0.0,0.0,0.0
27.836000000011037,40.24858932248093,139.98482177061445,3467.299839863731,2268.901474816837,2250.4546469603256,288.73479942794216,16.52986665507533,0.0,6.199730722388555,31.320414152300266,16.52986665507533,-20.5591773874778,0.0,-74.24815762675757,0.0,0.0,0.0,-23.606968351538587,0.0,5.046569499719197,0.0,0.0,0.0,0.0,0.0,0.0,0.0,0.0,0.0,0.0
27.84700000001105,40.24858976195099,139.9848197283987,3467.231309898541,2269.0817466582007,2250.6336796593496,288.75597483073324,16.272469832687293,0.0,6.255209228405728,31.079271408169703,16.272469832687293,-21.026980245914668,0.0,-74.25994706509654,0.0,0.0,0.0,-23.2284409489164,0.0,5.040947418247088,0.0,0.0,0.0,0.0,0.0,0.0,0.0,0.0,0.0,0.0
27.858000000011064,40.2485901942609,139.9848177178588,3467.1621700401242,2269.259211646463,2250.8099294845033,288.77678399810895,16.019180067263814,0.0,6.310626055692844,30.84249861952853,16.019180067263814,-21.501558074853328,0.0,-74.27191984083254,0.0,0.0,0.0,-22.859323862508063,0.0,5.035352166721366,0.0,0.0,0.0,0.0,0.0,0.0,0.0,0.0,0.0,0.0
27.869000000011077,40.24859061952429,139.9848157384919,3467.0924209652667,2269.433914337918,2250.9834406118453,288.7972327401761,15.769895680729725,0.0,6.3659814785809825,30.6099955010278,15.769895680729725,-21.98291316570888,0.0,-74.28408044799022,0.0,0.0,0.0,-22.49931307962249,0.0,5.029780295437431,0.0,0.0,0.0,0.0,0.0,0.0,0.0,0.0,0.0,0.0
27.88000000001109,40.248591037852016,139.98481378980753,3467.02206334796,2269.6058981959195,2251.1542561337897,288.81732672474817,15.524518265549027,0.0,6.421275734104575,30.381665008306182,15.524518265549027,-22.47104291493003,0.0,-74.29643353065586,0.0,0.0,0.0,-22.14811676342451,0.0,5.02422846228369,0.0,0.0,0.0,0.0,0.0,0.0,0.0,0.0,0.0,0.0
27.891000000011104,40.24859144935218,139.98481187132722,3466.9510978598073,2269.775205615839,2251.3224180839557,288.83707147981573,15.282952554314894,0.0,6.476509023155592,30.15741320701541,15.282952554314894,-22.96593960345848,0.0,-74.30898388927493,0.0,0.0,0.0,-21.805454670566547,0.0,5.018693427898791,0.0,0.0,0.0,0.0,0.0,0.0,0.0,0.0,0.0,0.0
27.902000000011117,40.24859185413027,139.98480998258415,3466.8795251704146,2269.941877962492,2251.487967474421,288.85647239725546,15.045106295550589,0.0,6.531681511586211,29.937149148057046,15.045106295550589,-23.467590177106217,0.0,-74.3217364872687,0.0,0.0,0.0,-21.471057601029052,0.0,5.01317205111441,0.0,0.0,0.0,0.0,0.0,0.0,0.0,0.0,0.0,0.0
27.91300000001113,40.248592252289214,139.98480812312266,3466.8073459477664,2270.1059556107775,2251.6509443358696,288.8755347392862,14.810890135379218,0.0,6.586793331262954,29.720784748689002,14.810890135379218,-23.97597602879935,0.0,-74.33469645798816,0.0,0.0,0.0,-21.144666878149458,0.0,5.007661284665904,0.0,0.0,0.0,0.0,0.0,0.0,0.0,0.0,0.0,0.0
27.924000000011144,40.24859264392951,139.98480629249792,3466.7345608585956,2270.267477975929,2251.8113877475676,288.8942636425287,14.58021750474163,0.0,6.641844581075195,29.50823467918133,14.58021750474163,-24.491072783702812,0.0,-74.34786911202603,0.0,0.0,0.0,-20.826033856960386,0.0,5.002158171154225,0.0,0.0,0.0,0.0,0.0,0.0,0.0,0.0,0.0,0.0
27.935000000011158,40.24859302914925,139.98480449027596,3466.6611705687424,2270.426483512536,2251.969335835728,288.9126641230709,14.353004511861746,0.0,6.696835327900648,29.299416254721013,14.353004511861746,-25.012850088303423,0.0,-74.36125994490818,0.0,0.0,0.0,-20.51491945908891,0.0,4.996659839243732,0.0,0.0,0.0,0.0,0.0,0.0,0.0,0.0,0.0,0.0
27.94600000001117,40.24859340804421,139.98480271603285,3466.5871757434957,2270.5830097853045,2252.1248258446517,288.930741078013,14.129169839676939,0.0,6.751765607530391,29.094249332283624,14.129169839676939,-25.54127140459041,0.0,-74.3748746451879,0.0,0.0,0.0,-20.21109373258892,0.0,4.991163500081524,0.0,0.0,0.0,0.0,0.0,0.0,0.0,0.0,0.0,0.0
27.957000000011185,40.24859378070792,139.98480096935458,3466.5125770479335,2270.737093477124,2252.277894144506,288.94849928823965,13.908634647968425,0.0,6.806635425555756,28.89265621220729,13.908634647968425,-26.076293810529506,0.0,-74.38871910296758,0.0,0.0,0.0,-19.914335435189926,0.0,4.985666443924923,0.0,0.0,0.0,0.0,0.0,0.0,0.0,0.0,0.0,0.0
27.968000000011198,40.24859414723175,139.98479924983687,3466.437375147251,2270.8887704128115,2252.4285762543964,288.96594342517665,13.691322479942672,0.0,6.861444758219309,28.69456154422018,13.691322479942672,-26.61786780808012,0.0,-74.40279941887466,0.0,0.0,0.0,-19.624431639548806,0.0,4.980166036964588,0.0,0.0,0.0,0.0,0.0,0.0,0.0,0.0,0.0,0.0
27.97900000001121,40.24859450770493,139.98479755708468,3466.361570707075,2271.0380755952133,2252.5769068788895,288.9830780498113,13.47715917302975,0.0,6.916193553231998,28.49989223768799,13.47715917302975,-27.16593714005255,0.0,-74.4171219135201,0.0,0.0,0.0,-19.341177359186016,0.0,4.974659718331654,0.0,0.0,0.0,0.0,0.0,0.0,0.0,0.0,0.0,0.0
27.990000000011225,40.248594862214674,139.98479589071204,3466.285164393775,2271.1850432245337,2252.722919926436,288.9999076209863,13.266072773678596,0.0,6.97088173055842,28.308577375861542,13.266072773678596,-27.720438617143355,0.0,-74.43169313746998,0.0,0.0,0.0,-19.064375193876156,0.0,4.969144997277938,0.0,0.0,0.0,0.0,0.0,0.0,0.0,0.0,0.0,0.0
28.00100000001124,40.24859521084621,139.9847942503418,3466.208156874763,2271.32970672053,2252.8666485315825,289.01643649668637,13.05799345594213,0.0,7.025509183172073,28.120548133917982,13.05799345594213,-28.281301956520775,0.0,-74.4465198817631,0.0,0.0,0.0,-18.793834993344156,0.0,4.963619450519076,0.0,0.0,0.0,0.0,0.0,0.0,0.0,0.0,0.0,0.0
28.012000000011252,40.248595553682804,139.98479263560532,3466.130548818787,2271.47209874613,2253.008125079068,289.03266893182354,12.852853443657358,0.0,7.080075777782297,27.93573770060096,12.852853443657358,-28.848449633357305,0.0,-74.4616091890096,0.0,0.0,0.0,-18.529373538194278,0.0,4.958080719731039,0.0,0.0,0.0,0.0,0.0,0.0,0.0,0.0,0.0,0.0
28.023000000011265,40.24859589080589,139.9847910461423,3466.052340896216,2271.612251228105,2253.1473812229974,289.04860909121726,12.650586936037012,0.0,7.134581355534558,27.754081203276776,12.650586936037012,-29.421796746721643,0.0,-74.47696836510862,0.0,0.0,0.0,-18.270814237069068,0.0,4.952526509191115,0.0,0.0,0.0,0.0,0.0,0.0,0.0,0.0,0.0,0.0
28.03400000001128,40.24859622229505,139.98478948160042,3465.9735337793145,2271.750195386522,2253.284447917472,289.0642610423401,12.451130036499839,0.0,7.189025732685602,27.575515636233906,12.451130036499839,-30.001250901247786,0.0,-74.49260499162529,0.0,0.0,0.0,-18.017986839100615,0.0,4.946954583554999,0.0,0.0,0.0,0.0,0.0,0.0,0.0,0.0,0.0,0.0
28.045000000011292,40.24859654822813,139.9847879416351,3465.894128142516,2271.8859617517705,2253.419355432637,289.07962876398784,12.254420684576669,0.0,7.243408701254939,27.399979792063444,12.254420684576669,-30.586712105991726,0.0,-74.5085269388712,0.0,0.0,0.0,-17.770727160776673,0.0,4.9413627657621815,0.0,0.0,0.0,0.0,0.0,0.0,0.0,0.0,0.0,0.0
28.056000000011306,40.248596868681254,139.9847864259095,3465.814124662683,2272.0195801703026,2253.552133360069,289.09471614943095,12.060398590738675,0.0,7.2977300296540175,27.227414195967192,12.060398590738675,-31.17807269186744,0.0,-74.52474237973507,0.0,0.0,0.0,-17.528876826400737,0.0,4.935748935062257,0.0,0.0,0.0,0.0,0.0,0.0,0.0,0.0,0.0,0.0
28.06700000001132,40.248597183728876,139.98478493409405,3465.733524019365,2272.1510798474624,2253.6828106563244,289.1095270035202,11.869005174002934,0.0,7.3519894632943705,27.05776104284888,11.869005174002934,-31.775217249020976,0.0,-74.54125980431449,0.0,0.0,0.0,-17.292283021376594,0.0,4.930111025155301,0.0,0.0,0.0,0.0,0.0,0.0,0.0,0.0,0.0,0.0
28.078000000011333,40.24859749344383,139.98478346586637,3465.6523268950455,2272.2804893471684,2253.8114156416714,289.1240650500961,11.680183502178588,0.0,7.4061867251759725,26.890964137052162,11.680183502178588,-32.3780225854551,0.0,-74.55808803540327,0.0,0.0,0.0,-17.060798257597156,0.0,4.924447022439806,0.0,0.0,0.0,0.0,0.0,0.0,0.0,0.0,0.0,0.0
28.089000000011346,40.248597797897375,139.98478202091107,3465.5705339753868,2272.4078366159756,2253.9379760244315,289.1383339313362,11.493878234624562,0.0,7.460321516456922,26.726968834616642,11.493878234624562,-32.98635770815535,0.0,-74.57523624489343,0.0,0.0,0.0,-16.834280150261716,0.0,4.9187549643621296,0.0,0.0,0.0,0.0,0.0,0.0,0.0,0.0,0.0,0.0
28.10000000001136,40.248598097159245,139.98478059891946,3465.4881459494686,2272.533149006162,2254.062518923689,289.15233721216674,11.310035567396971,0.0,7.514393517005558,26.56572198793045,11.310035567396971,-33.60008382789215,0.0,-74.59271397115549,0.0,0.0,0.0,-16.612591205488204,0.0,4.913032937861707,0.0,0.0,0.0,0.0,0.0,0.0,0.0,0.0,0.0,0.0
28.111000000011373,40.248598391297705,139.98477919958944,3465.4051635100154,2272.656453286103,2254.185070879444,289.16607838265895,11.128603180671025,0.0,7.568402385936018,26.407171892664437,11.128603180671025,-34.219054388781906,0.0,-74.61053113746559,0.0,0.0,0.0,-16.395598618125877,0.0,4.9072790779066775,0.0,0.0,0.0,0.0,0.0,0.0,0.0,0.0,0.0,0.0
28.122000000011386,40.24859868037954,139.98477782262546,3465.3215873536224,2272.7777756449113,2254.305657857387,289.1795608572727,10.949530188328698,0.0,7.622347762128203,26.25126823687961,10.949530188328698,-34.84311512358253,0.0,-74.62869807155415,0.0,0.0,0.0,-16.18317407921023,0.0,4.901491566114833,0.0,0.0,0.0,0.0,0.0,0.0,0.0,0.0,0.0,0.0
28.1330000000114,40.24859896447013,139.98477646773793,3465.237418180978,2272.897141741453,2254.4243052980833,289.1927879766761,10.772767089609149,0.0,7.676229264733058,26.09796205220506,10.772767089609149,-35.47210413557704,0.0,-74.64722552635604,0.0,0.0,0.0,-15.975193592535883,0.0,4.895668629455133,0.0,0.0,0.0,0.0,0.0,0.0,0.0,0.0,0.0,0.0
28.144000000011413,40.24859924363353,139.9847751346434,3465.1526566970747,2273.0145766915552,2254.5410381032825,289.205763013919,10.59826572272469,0.0,7.7300464936640445,25.94720566698946,10.59826572272469,-36.10585200776095,0.0,-74.66612470204961,0.0,0.0,0.0,-15.771537299854803,0.0,4.88980853902528,0.0,0.0,0.0,0.0,0.0,0.0,0.0,0.0,0.0,0.0
28.155000000011427,40.24859951793241,139.9847738230646,3465.067303611419,2273.130105066127,2254.655880633778,289.21848917637243,10.425979220350186,0.0,7.783799030075578,25.798952661334297,10.425979220350186,-36.74418193989805,0.0,-74.68540726947893,0.0,0.0,0.0,-15.572089314236528,0.0,4.883909608901121,0.0,0.0,0.0,0.0,0.0,0.0,0.0,0.0,0.0,0.0
28.16600000001144,40.248599787428184,139.9847725327296,3464.9813596382346,2273.2437509552988,2254.768856774677,289.23096960099764,10.255861966898703,0.0,7.837486436829232,25.65315782392189,10.255861966898703,-37.386909913844555,0.0,-74.70508539506137,0.0,0.0,0.0,-15.376737561154767,0.0,4.8779701950538685,0.0,0.0,0.0,0.0,0.0,0.0,0.0,0.0,0.0,0.0
28.177000000011454,40.24860005218097,139.98477126337224,3464.894825496662,2273.355537948225,2254.8799899142996,289.24320736008974,10.087869557500982,0.0,7.891108258948427,25.509777110555984,10.087869557500982,-38.03384488736425,0.0,-74.72517176729193,0.0,0.0,0.0,-15.185373626890264,0.0,4.87198869433133,0.0,0.0,0.0,0.0,0.0,0.0,0.0,0.0,0.0,0.0
28.188000000011467,40.2486003122497,139.98477001473182,3464.807701910952,2273.46548914248,2254.9893029526975,289.2552054687388,9.921958758610508,0.0,7.944664024062259,25.368767604336895,9.921958758610508,-38.68478901646983,0.0,-74.7456796249644,0.0,0.0,0.0,-14.997892613863705,0.0,4.865963543499634,0.0,0.0,0.0,0.0,0.0,0.0,0.0,0.0,0.0,0.0
28.19900000001148,40.248600567692066,139.98476878655285,3464.719989610651,2273.5736271772694,2255.0968183365653,289.2669668736938,9.758087470160199,0.0,7.998153242839152,25.230087477397458,9.758087470160199,-39.33953790612869,0.0,-74.76662278724137,0.0,0.0,0.0,-14.814193002535008,0.0,4.859893218341991,0.0,0.0,0.0,0.0,0.0,0.0,0.0,0.0,0.0,0.0
28.210000000011494,40.24860081856462,139.98476757858504,3464.63168933079,2273.679974229812,2255.202558053941,289.2784944662143,9.596214689200554,0.0,8.051575409410908,25.093695954129654,9.596214689200554,-39.9978808889675,0.0,-74.78801568571507,0.0,0.0,0.0,-14.634176519526015,0.0,4.8537762328113585,0.0,0.0,0.0,0.0,0.0,0.0,0.0,0.0,0.0,0.0
28.221000000011507,40.24860106492274,139.9847663905832,3464.5428018120588,2273.784552025811,2255.3065436455113,289.2897910762764,9.436300474952754,0.0,8.104930001787755,24.959553275835663,9.436300474952754,-40.65960133140041,0.0,-74.80987339861503,0.0,0.0,0.0,-14.457748011643126,0.0,4.8476111382339395,0.0,0.0,0.0,0.0,0.0,0.0,0.0,0.0,0.0,0.0
28.23200000001152,40.24860130682077,139.9847652223068,3464.453327800988,2273.8873818761267,2255.4087962403555,289.30085948212684,9.278305915213625,0.0,8.158216482264915,24.827620666740223,9.278305915213625,-41.32447696639414,0.0,-74.83221168733196,0.0,0.0,0.0,-14.28481532549482,0.0,4.841396522560672,0.0,0.0,0.0,0.0,0.0,0.0,0.0,0.0,0.0,0.0
28.243000000011534,40.24860154431193,139.9847640735203,3464.3632680501114,2273.98848465579,2255.5093365355033,289.3117024047116,9.12219309405274,0.0,8.211434297821217,24.697860301304676,9.12219309405274,-41.99228025187039,0.0,-74.85504703544291,0.0,0.0,0.0,-14.115289192415771,0.0,4.835131009663945,0.0,0.0,0.0,0.0,0.0,0.0,0.0,0.0,0.0,0.0
28.254000000011548,40.24860177744841,139.98476294399268,3464.2726233181374,2274.087880831498,2255.608184823285,289.3223225105517,8.967925060744863,0.0,8.26458288051024,24.570235272785904,8.967925060744863,-42.662778753535875,0.0,-74.8783966904397,0.0,0.0,0.0,-13.949083118425364,0.0,4.828813258677019,0.0,0.0,0.0,0.0,0.0,0.0,0.0,0.0,0.0,0.0
28.26500000001156,40.24860200628134,139.98476183349754,3464.1813943701104,2274.1855904645918,2255.7053609940854,289.3327224137091,8.81546579988393,0.0,8.317661647844409,24.444709562986322,8.81546579988393,-43.33573555072479,0.0,-74.90227870838176,0.0,0.0,0.0,-13.786113278963143,0.0,4.822441963373653,0.0,0.0,0.0,0.0,0.0,0.0,0.0,0.0,0.0,0.0
28.276000000011575,40.24860223086088,139.98476074181286,3464.0895819775656,2274.2816332286216,2255.8008845537856,289.34290467782984,8.664780202627528,0.0,8.370670003172533,24.32124801314374,8.664780202627528,-44.010909663640405,0.0,-74.92671200171512,0.0,0.0,0.0,-13.62629841815762,0.0,4.816015851585624,0.0,0.0,0.0,0.0,0.0,0.0,0.0,0.0,0.0,0.0
28.287000000011588,40.24860245123623,139.98475966872093,3463.9971869186857,2274.376028414641,2255.8947746289023,289.35287181773225,8.515834039023368,0.0,8.423607336051102,24.199816295912544,8.515834039023368,-44.68805650019433,0.0,-74.95171639052263,0.0,0.0,0.0,-13.469559752397963,0.0,4.809533684655945,0.0,0.0,0.0,0.0,0.0,0.0,0.0,0.0,0.0,0.0
28.2980000000116,40.248602667455614,139.9847586140081,3463.9042099784497,2274.468794952293,2255.987049988178,289.362626296788,8.368593931371704,0.0,8.476473022609841,24.08038088838984,8.368593931371704,-45.36692832046747,0.0,-74.97731265749589,0.0,0.0,0.0,-13.315820877989704,0.0,4.802994256925638,0.0,0.0,0.0,0.0,0.0,0.0,0.0,0.0,0.0,0.0
28.309000000011615,40.248602879566356,139.9847575774651,3463.810651948776,2274.559951383551,2256.0777290148253,289.37217053692393,8.223027328580105,0.0,8.52926642591173,23.962909046142833,8.223027328580105,-46.047274716655174,0.0,-75.00352260694807,0.0,0.0,0.0,-13.165007682687511,0.0,4.796396395252129,0.0,0.0,0.0,0.0,0.0,0.0,0.0,0.0,0.0,0.0
28.32000000001163,40.24860308761487,139.98475655888635,3463.716513628667,2274.6495159276114,2256.1668297733095,289.38150690804565,8.079102481469072,0.0,8.581986896307978,23.8473687781954,8.079102481469072,-46.728843106217724,0.0,-75.03036912821841,0.0,0.0,0.0,-13.017048260907908,0.0,4.789738958557281,0.0,0.0,0.0,0.0,0.0,0.0,0.0,0.0,0.0,0.0
28.33100000001164,40.24860329164667,139.98475555807033,3463.6217958243465,2274.7375064373073,2256.2543699642824,289.39063773677583,7.936788418989119,0.0,8.634633771788138,23.733728822934296,7.936788418989119,-47.411379235833174,0.0,-75.05787626385414,0.0,0.0,0.0,-12.871872832434914,0.0,4.78302083740332,0.0,0.0,0.0,0.0,0.0,0.0,0.0,0.0,0.0,0.0
28.342000000011655,40.24860349170642,139.98475457481933,3463.52649934939,2274.823940432882,2256.34036695871,289.3995653058543,7.796054925312042,0.0,8.687206378325767,23.62195862489698,7.796054925312042,-48.09462769364817,0.0,-75.08606928299525,0.0,0.0,0.0,-12.729413664440505,0.0,4.77624095359487,0.0,0.0,0.0,0.0,0.0,0.0,0.0,0.0,0.0,0.0
28.35300000001167,40.24860368783796,139.98475360893923,3463.430625024862,2274.90883511425,2256.424837810177,289.40829185459205,7.656872517760888,0.0,8.739704030219805,23.512028312405135,7.656872517760888,-48.77833242724268,0.0,-75.11497476043074,0.0,0.0,0.0,-12.589604996650074,0.0,4.769398259805519,0.0,0.0,0.0,0.0,0.0,0.0,0.0,0.0,0.0,0.0
28.364000000011682,40.2486038800843,139.98475266023968,3463.3341736794337,2274.9922073477546,2256.5077992409397,289.4168195834826,7.519212425544996,0.0,8.792126030432021,23.403908676009433,7.519212425544996,-49.46223726467032,0.0,-75.14462066184461,0.0,0.0,0.0,-12.452382969490735,0.0,4.7624917392272765,0.0,0.0,0.0,0.0,0.0,0.0,0.0,0.0,0.0,0.0
28.375000000011696,40.24860406848768,139.9847517285337,3463.237146149513,2275.0740737011515,2256.589267677832,289.42515064931547,7.383046569268266,0.0,8.844471670920727,23.29757114771295,7.383046569268266,-50.14608643590504,0.0,-75.1750364358238,0.0,0.0,0.0,-12.317685555067595,0.0,4.755520405241456,0.0,0.0,0.0,0.0,0.0,0.0,0.0,0.0,0.0,0.0
28.38600000001171,40.248604253089525,139.98475081363787,3463.1395432793593,2275.1544504257417,2256.669259233553,289.4332871705429,7.24834754118039,0.0,8.896740232970979,23.19298778094194,7.24834754118039,-50.82962509202033,0.0,-75.20625311326225,0.0,0.0,0.0,-12.185452490819124,0.0,4.748483301109577,0.0,0.0,0.0,0.0,0.0,0.0,0.0,0.0,0.0,0.0
28.397000000011722,40.24860443393051,139.98474991537216,3463.0413659212013,2275.2333534753493,2256.747789725995,289.44123122581965,7.1150885861425,0.0,8.948930987521502,23.090131231234338,7.1150885861425,-51.51259981944743,0.0,-75.23830341486364,0.0,0.0,0.0,-12.055625215708977,0.0,4.74137949968288,0.0,0.0,0.0,0.0,0.0,0.0,0.0,0.0,0.0,0.0
28.408000000011736,40.248604611050574,139.98474903355972,3462.9426149353462,2275.3107985190254,2256.824874690791,289.4489848560209,6.9832435832800765,0.0,9.00104319548853,22.98897473761756,6.9832435832800765,-52.19475914670463,0.0,-75.27122186752295,0.0,0.0,0.0,-11.928146808816615,0.0,4.734208103129171,0.0,0.0,0.0,0.0,0.0,0.0,0.0,0.0,0.0,0.0
28.41900000001175,40.24860478448892,139.98474816802693,3462.84329119029,2275.3868009408247,2256.9005293811865,289.45655006346044,6.8527870282975805,0.0,9.053076108086724,22.889492104648614,6.8527870282975805,-52.87585404105914,0.0,-75.30504493045369,0.0,0.0,0.0,-11.802961930193588,0.0,4.726968242675768,0.0,0.0,0.0,0.0,0.0,0.0,0.0,0.0,0.0,0.0
28.430000000011763,40.24860495428405,139.9847473186033,3462.743395562824,2275.461375845772,2256.974768773555,289.46392881582335,6.723694016430633,0.0,9.105028967147364,22.791657685090648,6.723694016430633,-53.5556383926764,0.0,-75.33981113202606,0.0,0.0,0.0,-11.680016763856592,0.0,4.719659078367334,0.0,0.0,0.0,0.0,0.0,0.0,0.0,0.0,0.0,0.0
28.441000000011776,40.248605120473776,139.98474648512152,3462.64292893813,2275.534538060087,2257.0476075675215,289.4711230469462,6.595940226012985,0.0,9.156901005433957,22.69544636320133,6.595940226012985,-54.23386948392618,0.0,-75.37556121839172,0.0,0.0,0.0,-11.559258962791446,0.0,4.712279798837464,0.0,0.0,0.0,0.0,0.0,0.0,0.0,0.0,0.0,0.0
28.45200000001179,40.24860528309524,139.98474566741717,3462.5418922098866,2275.6063021522623,2257.119060207551,289.47813465419904,6.46950190263689,0.0,9.208691446955411,22.600833538609507,6.46950190263689,-54.91030844164973,0.0,-75.41233831509635,0.0,0.0,0.0,-11.440637595844937,0.0,4.70482962109298,0.0,0.0,0.0,0.0,0.0,0.0,0.0,0.0,0.0,0.0
28.463000000011803,40.248605442184896,139.98474486532874,3462.440286280357,2275.67668243351,2257.189140883196,289.48496550004836,6.34435584388682,0.0,9.260399507276894,22.507795110757634,6.34435584388682,-55.584720670345256,0.0,-75.45018810302255,0.0,0.0,0.0,-11.324103096383483,0.0,4.697307790309838,0.0,0.0,0.0,0.0,0.0,0.0,0.0,0.0,0.0,0.0
28.474000000011817,40.24860559777859,139.98474407869767,3462.338112060482,2275.745692952141,2257.257863522686,289.4916174178763,6.2204793846278035,0.0,9.312024393828553,22.416307463888526,6.2204793846278035,-56.25687626439757,0.0,-75.4891590101673,0.0,0.0,0.0,-11.209607212598671,0.0,4.689713579639687,0.0,0.0,0.0,0.0,0.0,0.0,0.0,0.0,0.0,0.0
28.48500000001183,40.24860574991152,139.984743307368,3462.23537046997,2275.813347527663,2257.3252418283296,289.49809220397185,6.097850382830954,0.0,9.363565306212104,22.326347452555805,6.097850382830954,-56.92655039765972,0.0,-75.52930242094033,0.0,0.0,0.0,-11.097102959340102,0.0,4.682046290026159,0.0,0.0,0.0,0.0,0.0,0.0,0.0,0.0,0.0,0.0
28.496000000011843,40.24860589861826,139.98474255118677,3462.132062437376,2275.87965971481,2257.391289238975,289.5043916274809,5.97644720592012,0.0,9.415021436505505,22.237892387638535,5.97644720592012,-57.5935236888876,0.0,-75.5706729048788,0.0,0.0,0.0,-10.986544571355703,0.0,4.674305250029919,0.0,0.0,0.0,0.0,0.0,0.0,0.0,0.0,0.0,0.0
28.507000000011857,40.24860604393277,139.9847418100034,3462.0281889001876,2275.944642851766,2257.456018979845,289.5105174209103,5.856248717624831,0.0,9.466391969565727,22.15092002284106,5.856248717624831,-58.257582541729306,0.0,-75.6133284669111,0.0,0.0,0.0,-10.87788745781788,0.0,4.666489815661676,0.0,0.0,0.0,0.0,0.0,0.0,0.0,0.0,0.0,0.0
28.51800000001187,40.24860618588848,139.98474108367012,3461.923750804901,2276.008310037782,2257.5194440380365,289.5164712952213,5.737234265326145,0.0,9.51767608332975,22.065408541660226,5.737234265326145,-58.91851945817728,0.0,-75.65733082157436,0.0,0.0,0.0,-10.771088158011565,0.0,4.658599370222277,0.0,0.0,0.0,0.0,0.0,0.0,0.0,0.0,0.0,0.0
28.529000000011884,40.24860632451815,139.98474037204164,3461.8187491070944,2276.0706741403264,2257.581577171974,289.5222549223149,5.619383667883342,0.0,9.568872949113807,21.981336544802637,5.619383667883342,-59.57613332460067,0.0,-75.70274569390213,0.0,0.0,0.0,-10.666104298056126,0.0,4.65063332414915,0.0,0.0,0.0,0.0,0.0,0.0,0.0,0.0,0.0,0.0
28.540000000011897,40.24860645985408,139.98473967497512,3461.713184771501,2276.1317478198357,2257.6424309339477,289.52786995388556,5.502677203930835,0.0,9.619981731911018,21.898683038035546,5.502677203930835,-60.230229669684626,0.0,-75.74964315005528,0.0,0.0,0.0,-10.562894548528233,0.0,4.6425911148682655,0.0,0.0,0.0,0.0,0.0,0.0,0.0,0.0,0.0,0.0
28.55100000001191,40.24860659192795,139.98473899233016,3461.6070587720737,2276.1915435136925,2257.70201765572,289.5333180076847,5.387095600636206,0.0,9.671001590687387,21.817427420455545,5.387095600636206,-60.88062089380927,0.0,-75.79809796118167,0.0,0.0,0.0,-10.461418582845356,0.0,4.63447220665098,0.0,0.0,0.0,0.0,0.0,0.0,0.0,0.0,0.0,0.0
28.562000000011924,40.24860672077092,139.98473832396883,3461.5003720920527,2276.250073445841,2257.76034945716,289.5386006757622,5.272620022911812,0.0,9.721931678676263,21.737549473159874,5.272620022911812,-61.52712646960401,0.0,-75.84819000446264,0.0,0.0,0.0,-10.361637036261294,0.0,4.626276090475009,0.0,0.0,0.0,0.0,0.0,0.0,0.0,0.0,0.0,0.0
28.573000000011938,40.248606846413644,139.98473766975542,3461.3931257240247,2276.307349639041,2257.8174382585476,289.54371952492136,5.159232063074136,0.0,9.772771143671296,21.659029348305904,5.159232063074136,-62.169573113606354,0.0,-75.90000470585416,0.0,0.0,0.0,-10.263511465313622,0.0,4.61800228388893,0.0,0.0,0.0,0.0,0.0,0.0,0.0,0.0,0.0,0.0
28.58400000001195,40.24860696888622,139.9847370295566,3461.2853206699815,2276.363383906583,2257.873295772667,289.54867609316483,5.046913730946884,0.0,9.823519128317917,21.581847558544847,5.046913730946884,-62.8077949291407,0.0,-75.95363352966318,0.0,0.0,0.0,-10.167004307549707,0.0,4.609650330879518,0.0,0.0,0.0,0.0,0.0,0.0,0.0,0.0,0.0,0.0
28.595000000011964,40.24860708821831,139.98473640324124,3461.1769579413767,2276.4181878713975,2257.9279335231167,289.55347189720646,4.9356474444057925,0.0,9.874174770403387,21.505984966816328,4.9356474444057925,-63.44163352070649,0.0,-76.00917452083824,0.0,0.0,0.0,-10.072078841340767,0.0,4.601219801741406,0.0,0.0,0.0,0.0,0.0,0.0,0.0,0.0,0.0,0.0
28.606000000011978,40.24860720443898,139.98473579068025,3461.068038559175,2276.471772967142,2257.9813628471006,289.5581084192155,4.825416020365362,0.0,9.924737203145384,21.431422776490972,4.825416020365362,-64.07093808032636,0.0,-76.06673290670966,0.0,0.0,0.0,-9.97869914557328,0.0,4.5927102929484445,0.0,0.0,0.0,0.0,0.0,0.0,0.0,0.0,0.0,0.0
28.61700000001199,40.248607317576905,139.9847351917469,3460.9585635539015,2276.5241504240958,2258.0335948788183,289.562587125464,4.716202666210151,0.0,9.975205555479235,21.358142521848837,4.716202666210151,-64.69556544645305,0.0,-76.12642176591676,0.0,0.0,0.0,-9.886830058982044,0.0,4.584121427026224,0.0,0.0,0.0,0.0,0.0,0.0,0.0,0.0,0.0,0.0
28.628000000012005,40.24860742766026,139.98473460631638,3460.848533965688,2276.5753313002765,2258.084640582115,289.5669094563504,4.6079909716759975,0.0,10.025578952343713,21.28612605888172,4.6079909716759975,-65.31538013616489,0.0,-76.18836277342966,0.0,0.0,0.0,-9.796437138858854,0.0,4.575452852425289,0.0,0.0,0.0,0.0,0.0,0.0,0.0,0.0,0.0,0.0
28.639000000012018,40.24860753471675,139.98473403426598,3460.7379508443146,2276.625326469186,2258.1345107381867,289.57107682594454,4.500764901189727,0.0,10.075856514965452,21.215355556408056,4.500764901189727,-65.93025435149566,0.0,-76.25268703194853,0.0,0.0,0.0,-9.707486618834308,0.0,4.56670424339452,0.0,0.0,0.0,0.0,0.0,0.0,0.0,0.0,0.0,0.0
28.65000000001203,40.248607638773635,139.98473347547497,3460.6268152492466,2276.6741466287644,2258.1832159538485,289.5750906278859,4.394508786679371,0.0,10.126037361141961,21.14581348748957,4.394508786679371,-66.54006796084286,0.0,-76.31953600157944,0.0,0.0,0.0,-9.619945365385673,0.0,4.557875299854233,0.0,0.0,0.0,0.0,0.0,0.0,0.0,0.0,0.0,0.0
28.661000000012045,40.24860773985772,139.9847329298246,3460.5151282496754,2276.7218022998313,2258.2307666606653,289.57895222991493,4.289207320871094,0.0,10.176120605523257,21.077482621139044,4.289207320871094,-67.14470845647834,0.0,-76.38906254159505,0.0,0.0,0.0,-9.533780832669738,0.0,4.5489657472685785,0.0,0.0,0.0,0.0,0.0,0.0,0.0,0.0,0.0,0.0
28.67200000001206,40.2486078379954,139.984732397198,3460.4028909245467,2276.7683038357063,2258.2771731235975,289.5826629821135,4.184845551093788,0.0,10.226105359892076,21.010346014309313,4.184845551093788,-67.74407088924727,0.0,-76.4614320803484,0.0,0.0,0.0,-9.448961015214143,0.0,4.539975336516787,0.0,0.0,0.0,0.0,0.0,0.0,0.0,0.0,0.0,0.0
28.683000000012072,40.24860793321263,139.98473187748024,3460.290104362594,2276.8136614225295,2258.322445442269,289.5862242094975,4.081408873617757,0.0,10.275990733442642,20.944387004153587,4.081408873617757,-68.33805778158448,0.0,-76.53682393209074,0.0,0.0,0.0,-9.36545439792054,0.0,4.530903843762938,0.0,0.0,0.0,0.0,0.0,0.0,0.0,0.0,0.0,0.0
28.694000000012085,40.24860802553497,139.9847313705581,3460.1767696623638,2276.8578850905237,2258.366593561618,289.5896372175364,3.9788830285605945,0.0,10.32577583305803,20.879589200547954,3.9788830285605945,-68.92657902000025,0.0,-76.61543278264381,0.0,0.0,0.0,-9.283229902735467,0.0,4.52175107032381,0.0,0.0,0.0,0.0,0.0,0.0,0.0,0.0,0.0,0.0
28.7050000000121,40.248608114987555,139.98473087632036,3460.062887932237,2276.9009846968943,2258.4096272547167,289.59290329167203,3.877254095400911,0.0,10.375459763586031,20.815936478866924,3.877254095400911,-69.50955172819161,0.0,-76.69747036969993,0.0,0.0,0.0,-9.202256831225267,0.0,4.512516842534525,0.0,0.0,0.0,0.0,0.0,0.0,0.0,0.0,0.0,0.0
28.716000000012112,40.248608201595125,139.98473039465736,3459.948460290455,2276.942969954297,2258.451556151751,289.59602369512993,3.7765084891498812,0.0,10.42504162811354,20.7534129730035,3.7765084891498812,-70.08690012191875,0.0,-76.7831673881129,0.0,0.0,0.0,-9.122504802144373,0.0,4.503201011611649,0.0,0.0,0.0,0.0,0.0,0.0,0.0,0.0,0.0,0.0
28.727000000012126,40.24860828538203,139.98472992546124,3459.8334878651317,2276.983850421795,2258.4923897306135,289.5989996712112,3.6766329572414733,0.0,10.474520528239404,20.692003068625308,3.6766329572414733,-70.65855534674758,0.0,-76.87277565607003,0.0,0.0,0.0,-9.043943682905322,0.0,4.493803453513437,0.0,0.0,0.0,0.0,0.0,0.0,0.0,0.0,0.0,0.0
28.73800000001214,40.248608366372245,139.9847294686258,3459.717971794273,2277.0236355073966,2258.5321373194083,289.6018324436961,3.577614577215439,0.0,10.523895564345741,20.63169139665891,3.577614577215439,-71.2244552997007,0.0,-76.96657058472003,0.0,0.0,0.0,-8.966543513634544,0.0,4.484324068796931,0.0,0.0,0.0,0.0,0.0,0.0,0.0,0.0,0.0,0.0
28.749000000012153,40.24860844458937,139.9847290240466,3459.6019132257866,2277.062334466625,2258.57080809456,289.60452322034695,3.4794407552831,0.0,10.573165835867647,20.572462826994375,3.4794407552831,-71.78454443577456,0.0,-77.06485400194616,0.0,0.0,0.0,-8.89027442221918,0.0,4.474762782471699,0.0,0.0,0.0,0.0,0.0,0.0,0.0,0.0,0.0,0.0
28.760000000012166,40.24860852005664,139.98472859162058,3459.485313317489,2277.099956429447,2258.6084111089426,289.6070731852493,3.3820992258853284,0.0,10.62233044156127,20.514302462402853,3.3820992258853284,-72.3387735601718,0.0,-77.16795739086862,0.0,0.0,0.0,-8.81510652840255,0.0,4.4651195438499,0.0,0.0,0.0,0.0,0.0,0.0,0.0,0.0,0.0,0.0
28.77100000001218,40.248608592796934,139.9847281712465,3459.3681732371133,2277.136510366611,2258.6449552567206,289.6094835083858,3.2855780523758074,0.0,10.671388479770231,20.457195632659772,3.2855780523758074,-72.88709960695978,0.0,-77.27624561577747,0.0,0.0,0.0,-8.741009834548894,0.0,4.455394326392513,0.0,0.0,0.0,0.0,0.0,0.0,0.0,0.0,0.0,0.0
28.782000000012193,40.24860866283279,139.98472776282455,3459.2504941623133,2277.1720051223233,2258.6804493068626,289.61175534112755,3.1898656289916945,0.0,10.720339048690319,20.40112788886682,3.1898656289916945,-73.42948540469612,0.0,-77.3901212231032,0.0,0.0,0.0,-8.667954100148291,0.0,4.445587127551492,0.0,0.0,0.0,0.0,0.0,0.0,0.0,0.0,0.0,0.0
28.793000000012206,40.248608730186376,139.9847273662565,3459.1322772806616,2277.20644939967,2258.7149018884625,289.61388981615727,3.094950684309748,0.0,10.76918124663241,20.346084997965978,3.094950684309748,-73.96589942935339,0.0,-77.51002942346133,0.0,0.0,0.0,-8.595908696434835,0.0,4.435697968607665,0.0,0.0,0.0,0.0,0.0,0.0,0.0,0.0,0.0,0.0
28.80400000001222,40.24860879487953,139.98472698144553,3459.013523789647,2277.239851774973,2258.7483215052944,289.61588804676603,3.000822286430505,0.0,10.817914172283597,20.292052937439138,3.000822286430505,-74.49631554462093,0.0,-77.63646388370248,0.0,0.0,0.0,-8.524842436602846,0.0,4.42572689450421,0.0,0.0,0.0,0.0,0.0,0.0,0.0,0.0,0.0,0.0
28.815000000012233,40.2486088569338,139.98472660829637,3458.8942348966693,2277.272220693053,2258.7807165298964,289.6177511357977,2.907469850188792,0.0,10.866536924966454,20.239017890187064,2.907469850188792,-75.02071272935312,0.0,-77.76997348649647,0.0,0.0,0.0,-8.454723375966527,0.0,4.41567397367555,0.0,0.0,0.0,0.0,0.0,0.0,0.0,0.0,0.0,0.0
28.826000000012247,40.24860891637037,139.984726246715,3458.7744118190317,2277.3035644807915,2258.812095218783,289.61948016363016,2.814883146758714,0.0,10.91504860489639,20.18696623958165,2.814883146758714,-75.53907479155383,0.0,-77.91117025089507,0.0,0.0,0.0,-8.385518574939576,0.0,4.40553929787152,0.0,0.0,0.0,0.0,0.0,0.0,0.0,0.0,0.0,0.0
28.83700000001226,40.248608973210104,139.98472589660912,3458.654055783926,2277.3338913202056,2258.8424656843154,289.62107619583435,2.723052316109683,0.0,10.963448313437034,20.135884564685625,2.723052316109683,-76.05139006782179,0.0,-78.06073865268924,0.0,0.0,0.0,-8.317193815803936,0.0,4.395322981976709,0.0,0.0,0.0,0.0,0.0,0.0,0.0,0.0,0.0,0.0
28.848000000012274,40.24860902747357,139.98472555788754,3458.5331680284235,2277.3632092873063,2258.8718359338545,289.62254028337827,2.6319678828823974,0.0,11.011735153353614,20.08575963563417,2.6319678828823974,-76.5576511066038,0.0,-78.21944664104214,0.0,0.0,0.0,-8.249713261744505,0.0,4.3850251638248565,0.0,0.0,0.0,0.0,0.0,0.0,0.0,0.0,0.0,0.0
28.859000000012287,40.24860907918104,139.9847252304604,3458.411749799454,2277.391526344038,2258.900213861989,289.6238734598555,2.5416207763976293,0.0,11.059908229064249,20.03657840917282,2.5416207763976293,-77.05785433287922,0.0,-78.38815872164427,0.0,0.0,0.0,-8.183039043344985,0.0,4.3746460040081905,0.0,0.0,0.0,0.0,0.0,0.0,0.0,0.0,0.0,0.0
28.8700000000123,40.24860912835248,139.9847249142393,3458.2898023537873,2277.4188503250384,2258.927607236593,289.62507674609463,2.452002355696268,0.0,11.107966646889137,19.98832802434659,2.452002355696268,-77.5519996909851,0.0,-78.56785157163498,0.0,0.0,0.0,-8.1171307533871,0.0,4.364185685681662,0.0,0.0,0.0,0.0,0.0,0.0,0.0,0.0,0.0,0.0
28.881000000012314,40.248609175007566,139.98472460913706,3458.167326958011,2277.4451889536344,2258.954023715398,289.62615114673423,2.363104440750185,0.0,11.155909515297541,19.940995798335074,2.363104440750185,-78.04009026112378,0.0,-78.75963277475385,0.0,0.0,0.0,-8.051944824974251,0.0,4.353644414362007,0.0,0.0,0.0,0.0,0.0,0.0,0.0,0.0,0.0,0.0
28.892000000012327,40.248609219165694,139.9847243150678,3458.0443248885076,2277.4705498376593,2258.979470841472,289.6270976525405,2.2749193512991415,0.0,11.203735945152514,19.894569222428657,2.2749193512991415,-78.52213184358656,0.0,-78.96476342622051,0.0,0.0,0.0,-7.987433760149781,0.0,4.343022417721588,0.0,0.0,0.0,0.0,0.0,0.0,0.0,0.0,0.0,0.0
