time_sec,lat_deg,lon_deg,alt_agl_m,down_range_m,local_x_m,local_y_m,u_mps,v_mps,w_mps,true_airspeed_mps,ground_speed_mps,pitch_deg,roll_deg,yaw_deg,p_rad_sec,q_rad_sec,r_rad_sec,ax_mps2,ay_mps2,az_mps2,alpha_deg,beta_deg,qbar_pa,total_aoa_deg,pressure_pa,temperature_k,gust_airspeed_mps,gust_aoa_deg,thrust_n,mach
26.98900000001,40.24851489660145,139.98515850394517,3470.6667306934437,2239.1157591929946,2220.900439884448,285.02740076611195,58.03181111833735,0.0,1.5832128677760542,72.21900435250095,58.03181111833735,-1.5627449544472964,0.0,-73.92352757102967,0.0,0.0,0.0,-128.2908918374305,0.0,7.010929541743263,0.0,0.0,0.0,0.0,0.0,0.0,0.0,0.0,0.0,0.0
27.000000000010015,40.24851646351105,139.98515137881512,3470.6488547370477,2239.7457649972935,2221.5256566934277,285.1049779925751,56.65007385156381,0.0,1.6598490940718054,70.83935219844665,56.65007385156381,-1.678288136209266,0.0,-73.92965240804524,0.0,0.0,0.0,-123.42333258680122,0.0,6.930964209637902,0.0,0.0,0.0,0.0,0.0,0.0,0.0,0.0,0.0,0.0
27.01100000001003,40.24851799282919,139.9851444218126,3470.630140942047,2240.360885597128,2222.1361098598704,285.1806567255037,55.32022660339768,0.0,1.7356327356828347,69.5117204642441,55.32022660339768,-1.797024825446807,0.0,-73.93583644915527,0.0,0.0,0.0,-118.82812865444926,0.0,6.8554525863009,0.0,0.0,0.0,0.0,0.0,0.0,0.0,0.0,0.0,0.0
27.022000000010042,40.24851948595329,139.98513762668767,3470.6105984016176,2240.961674334508,2222.732348206811,285.2545075387221,54.03939482410541,0.0,1.8106107924117854,68.23323654502201,54.03939482410541,-1.9189993372792564,0.0,-73.9420805924614,0.0,0.0,0.0,-114.48534082088742,0.0,6.784067543507897,0.0,0.0,0.0,0.0,0.0,0.0,0.0,0.0,0.0,0.0
27.033000000010055,40.248520944204095,139.98513098753307,3470.5902357127447,2241.548654208516,2223.3148904626296,285.3265971324022,52.804912355023674,0.0,1.8848268448155374,67.00123625267211,52.804912355023674,-2.044256680763223,0.0,-73.94838575433478,0.0,0.0,0.0,-110.37682254409201,0.0,6.716511310781416,0.0,0.0,0.0,0.0,0.0,0.0,0.0,0.0,0.0,0.0
27.04400000001007,40.248522368831196,139.9851244987599,3470.5690610119814,2242.122320033025,2223.884227400615,285.39698861243164,51.61430287191787,0.0,1.9583213580952816,65.8132452565493,51.61430287191787,-2.172842564254091,0.0,-73.95475286994042,0.0,0.0,0.0,-106.4860299225362,0.0,6.652512362857259,0.0,0.0,0.0,0.0,0.0,0.0,0.0,0.0,0.0,0.0
27.055000000010082,40.24852376101807,139.98511815507507,3470.5470820080577,2242.68314043089,2224.4408238163223,285.4657417490261,50.465263277042375,0.0,2.0311319540694464,64.6669624731292,50.465263277042375,-2.3048034003308344,0.0,-73.96118289377573,0.0,0.0,0.0,-102.79785475730935,0.0,6.591822685448371,0.0,0.0,0.0,0.0,0.0,0.0,0.0,0.0,0.0,0.0
27.066000000010096,40.24852512188663,139.98511195146057,3470.5243060116695,2243.2315596745148,2224.9851203548023,285.53291319825433,49.35564880521342,0.0,2.1032936550730397,63.56024516990305,49.35564880521342,-2.440186310241114,0.0,-73.96767680022403,0.0,0.0,0.0,-99.29847755879149,0.0,6.534215367648013,0.0,0.0,0.0,0.0,0.0,0.0,0.0,0.0,0.0,0.0
27.07700000001011,40.24852645250146,139.98510588315497,3470.500739962739,2243.767999315671,2225.5175351252547,285.59855672439994,48.28345964096724,0.0,2.1748391031068457,62.491095580554465,48.28345964096724,-2.5790391278210927,0.0,-73.97423558412392,0.0,0.0,0.0,-95.9752378199265,0.0,6.479482477118003,0.0,0.0,0.0,0.0,0.0,0.0,0.0,0.0,0.0,0.0
27.088000000010123,40.2485277538736,139.98509994563636,3470.4763904553947,2244.2928597037644,2226.038465207586,285.6627233881894,47.24682887088135,0.0,2.2457987571176807,61.45764885547268,47.24682887088135,-2.7214104028417716,0.0,-73.98086026135523,0.0,0.0,0.0,-92.81651927603161,0.0,6.427433180723238,0.0,0.0,0.0,0.0,0.0,0.0,0.0,0.0,0.0,0.0
27.099000000010136,40.24852902696412,139.9850941346062,3470.4512637609014,2244.806521411014,2226.5482880666373,285.7254617232161,46.24401161816513,0.0,2.316201070913776,60.4581621946876,46.24401161816513,-2.8673494037307803,0.0,-73.98755186944251,0.0,0.0,0.0,-89.81164820433986,0.0,6.377892078731033,0.0,0.0,0.0,0.0,0.0,0.0,0.0,0.0,0.0,0.0
27.11000000001015,40.24853027268733,139.98508844597507,3470.4253658487355,2245.309346490477,2227.0473627988995,285.7868179044607,45.2733752263164,0.0,2.3860726538969215,59.49100503000536,45.2733752263164,-3.016906119615686,0.0,-73.9943114681767,0.0,0.0,0.0,-86.95080309647246,0.0,6.330697725278785,0.0,0.0,0.0,0.0,0.0,0.0,0.0,0.0,0.0,0.0
27.121000000010163,40.24853149191378,139.9850828758494,3470.398702405992,2245.8016796626157,2227.5360313098886,285.8468358957602,44.333390375523834,0.0,2.455438416516488,58.55465014000848,44.333390375523834,-3.170131261631755,0.0,-74.00114014025606,0.0,0.0,0.0,-84.22493427298872,0.0,6.285701311677407,0.0,0.0,0.0,0.0,0.0,0.0,0.0,0.0,0.0,0.0
27.132000000010176,40.24853268547301,139.98507742051905,3470.3712788552652,2246.283849405698,2228.014619395273,285.90555759169905,43.42262303000742,0.0,2.524321702112806,57.64766559609899,43.42262303000742,-3.3270762634338964,0.0,-74.008038991947,0.0,0.0,0.0,-81.62569220857141,0.0,6.2427654923833895,0.0,0.0,0.0,0.0,0.0,0.0,0.0,0.0,0.0,0.0
27.14300000001019,40.248533854156015,139.98507207644602,3470.343100371164,2246.7561689548625,2228.483437732842,285.9630229367844,42.53972712699597,0.0,2.5927444066125327,56.76870745027172,42.53972712699597,-3.4877932808491776,0.0,-74.01500915376606,0.0,0.0,0.0,-79.1453635054054,0.0,6.201763336239884,0.0,0.0,0.0,0.0,0.0,0.0,0.0,0.0,0.0,0.0
27.154000000010203,40.2485349987177,139.9850668402539,3470.314171895565,2247.2189372409207,2228.9427828124562,286.0192700544436,41.68343792884494,0.0,2.660727087361712,55.9165130861099,41.68343792884494,-3.652335190602747,0.0,-74.02205178118362,0.0,0.0,0.0,-76.77681359591985,0.0,6.162577387938994,0.0,0.0,0.0,0.0,0.0,0.0,0.0,0.0,0.0,0.0
27.165000000010217,40.24853611987899,139.98506170871838,3470.284498151737,2247.6724397283365,2229.392937767158,286.07433535403646,40.852565969152764,0.0,2.728289062229026,55.08989516385235,40.852565969152764,-3.8207555880464414,0.0,-74.02916805535042,0.0,0.0,0.0,-74.51343537842546,0.0,6.1250988266612705,0.0,0.0,0.0,0.0,0.0,0.0,0.0,0.0,0.0,0.0
27.17600000001023,40.248537218328806,139.98505667875816,3470.2540836574285,2248.1169492209465,2229.8341731731953,286.1282536267761,40.045991531853545,0.0,2.795448499978743,54.28773609850153,40.045991531853545,-3.993108783815482,0.0,-74.03635918384799,0.0,0.0,0.0,-72.34910309369651,0.0,6.0892267105600055,0.0,0.0,0.0,0.0,0.0,0.0,0.0,0.0,0.0,0.0
27.187000000010244,40.24853829472596,139.98505174742647,3470.2229327369987,2248.552726609615,2230.2667477914365,286.1810581421221,39.26265960932553,0.0,2.862222502797225,53.50898301700472,39.26265960932553,-4.1694497993348225,0.0,-74.04362640146402,0.0,0.0,0.0,-70.27813084004235,0.0,6.054867297223567,0.0,0.0,0.0,0.0,0.0,0.0,0.0,0.0,0.0,0.0
27.198000000010257,40.248539349700906,139.98504691190365,3470.1910495326974,2248.980021533883,2230.6909092225824,286.23278074020897,38.5015752917105,0.0,2.9286271817560494,52.752643146696784,38.5015752917105,-4.349834361092622,0.0,-74.05097097099345,0.0,0.0,0.0,-68.29523520122802,0.0,6.0219334315069295,0.0,0.0,0.0,0.0,0.0,0.0,0.0,0.0,0.0,0.0
27.20900000001027,40.24854038385729,139.9850421694897,3470.1584380151444,2249.3990730380624,2231.10689455929,286.2834519047431,37.761799545015876,0.0,2.994677725906726,52.017779592570804,37.761799545015876,-4.534318893594142,0.0,-74.05839418406681,0.0,0.0,0.0,-66.39550152768813,0.0,5.990343993205869,0.0,0.0,0.0,0.0,0.0,0.0,0.0,0.0,0.0,0.0
27.220000000010284,40.24854139777348,139.98503751759782,3470.1251019930864,2249.810110144885,2231.5149309540707,286.333100844435,37.04244534027669,0.0,3.0603884656249307,51.30350746564837,37.04244534027669,-4.722960510905071,0.0,-74.06589736200665,0.0,0.0,0.0,-64.57435346845647,0.0,5.960023397980344,0.0,0.0,0.0,0.0,0.0,0.0,0.0,0.0,0.0,0.0
27.231000000010297,40.24854239200392,139.98503295374812,3470.091045122492,2250.213352410131,2231.9152361700344,286.3817555587277,36.342674100181355,0.0,3.1257729307546005,50.60899032884896,36.342674100181355,-4.915817006688838,0.0,-74.07348185671351,0.0,0.0,0.0,-62.82752540046866,0.0,5.930901145739979,0.0,0.0,0.0,0.0,0.0,0.0,0.0,0.0,0.0,0.0
27.24200000001031,40.24854336708049,139.9850284755617,3470.0562709150263,2250.6090104494433,2232.3080191030085,286.42944290806184,35.66169243319015,0.0,3.1908439040428402,49.93343693038336,35.66169243319015,-5.112946842637977,0.0,-74.08114905158234,0.0,0.0,0.0,-61.151037444529415,0.0,5.9029114114027275,0.0,0.0,0.0,0.0,0.0,0.0,0.0,0.0,0.0,0.0
27.253000000010324,40.248544323513634,139.9850240807554,3470.0207827459794,2250.997286402865,2232.6934802427104,286.4761886697655,34.99874912836717,0.0,3.2556134703043442,49.276098197888025,34.99874912836717,-5.314409135194895,0.0,-74.08890036245116,0.0,0.0,0.0,-59.541172794228544,0.0,5.875992673543683,0.0,0.0,0.0,0.0,0.0,0.0,0.0,0.0,0.0,0.0
27.264000000010338,40.24854526179358,139.98501976713678,3469.9845838616616,2251.378374379836,2233.071812113182,286.5220176020364,34.353132386959444,0.0,3.320093061707931,48.63626446933098,34.353132386959444,-5.520263640452782,0.0,-74.09673723858283,0.0,0.0,0.0,-57.994457116252406,0.0,5.850087376977729,0.0,0.0,0.0,0.0,0.0,0.0,0.0,0.0,0.0,0.0
27.27500000001035,40.2485461823913,139.98501553259916,3469.9476773863303,2251.7524608912545,2233.443199702748,286.56695348795864,33.724167269242976,0.0,3.384293499537099,48.013262939206065,33.724167269242976,-5.730570737122507,0.0,-74.10466116368177,0.0,0.0,0.0,-56.50763980855603,0.0,5.825141625778567,0.0,0.0,0.0,0.0,0.0,0.0,0.0,0.0,0.0,0.0
27.286000000010365,40.24854708575957,139.98501137511744,3469.910066328678,2252.119725231868,2233.8078208422244,286.6110191925232,33.11121333735469,0.0,3.4482250327404675,47.40645530073181,33.11121333735469,-5.945391407446524,0.0,-74.11267365694695,0.0,0.0,0.0,-55.07767692731116,0.0,5.801104903637156,0.0,0.0,0.0,0.0,0.0,0.0,0.0,0.0,0.0,0.0
27.297000000010378,40.248547972333846,139.9850072927439,3469.87175358791,2252.480339842009,2234.165846563968,286.6542367066637,32.5136624767778,0.0,3.511897373556079,46.815235566720226,32.5136624767778,-6.164787215935953,0.0,-74.1207762741625,0.0,0.0,0.0,-53.701715614927025,0.0,5.777929818812749,0.0,0.0,0.0,0.0,0.0,0.0,0.0,0.0,0.0,0.0
27.30800000001039,40.2485488425332,139.98500328360424,3469.8327419594484,2252.8344706604976,2234.51744145163,286.6966271943677,31.93093688087894,0.0,3.575319730465157,46.23902805351154,31.93093688087894,-6.3888202858020025,0.0,-74.1289706088281,0.0,0.0,0.0,-52.37707988016682,0.0,5.755571871236376,0.0,0.0,0.0,0.0,0.0,0.0,0.0,0.0,0.0,0.0
27.319000000010405,40.24854969676103,139.98499934589407,3469.7930341402866,2253.1822774423126,2234.862763956059,286.73821102673026,31.36248718443288,0.0,3.6385008387057596,45.6772855139091,31.36248718443288,-6.617553272948103,0.0,-74.13725829333028,0.0,0.0,0.0,-51.10125759781444,0.0,5.733989239595835,0.0,0.0,0.0,0.0,0.0,0.0,0.0,0.0,0.0,0.0
27.33000000001042,40.248550535405926,139.98499547787537,3469.7526327340274,2253.523914059932,2235.201966693356,286.77900782684253,30.807790733441156,0.0,3.7014489885543043,45.129487406418704,30.807790733441156,-6.851049337384144,0.0,-74.14564100015689,0.0,0.0,0.0,-49.871888609788115,0.0,5.713142586467668,0.0,0.0,0.0,0.0,0.0,0.0,0.0,0.0,0.0,0.0
27.341000000010432,40.248551358842334,139.98499167787338,3469.711540255614,2253.8595287899857,2235.5351967292754,286.8190365056301,30.266349979771405,0.0,3.764172051562955,44.59513828931794,30.266349979771405,-7.089372111919498,0.0,-74.15412044315636,0.0,0.0,0.0,-48.68675382231199,0.0,5.692994879769972,0.0,0.0,0.0,0.0,0.0,0.0,0.0,0.0,0.0,0.0
27.352000000010445,40.24855216743123,139.98498794427354,3469.6697591357897,2254.1892645763805,2235.8625958406747,286.8583152917188,29.73769099023576,0.0,3.8266775049229866,44.0737663291722,29.73769099023576,-7.3325856679867565,0.0,-74.16269837884374,0.0,0.0,0.0,-47.54376520496845,0.0,5.673511228993404,0.0,0.0,0.0,0.0,0.0,0.0,0.0,0.0,0.0,0.0
27.36300000001046,40.24855296152076,139.9849842755186,3469.6272917253,2254.513259289894,2236.184300772811,286.8968617659598,29.22136206070151,0.0,3.888972454108253,43.56492191438962,29.22136206070151,-7.580754478443573,0.0,-74.17137660775576,0.0,0.0,0.0,-46.44095660735468,0.0,5.654658734830009,0.0,0.0,0.0,0.0,0.0,0.0,0.0,0.0,0.0,0.0
27.374000000010472,40.24855374144684,139.98498067010613,3469.584140298852,2254.8316459480325,2236.5004434569933,286.9346928926264,28.716932426701078,0.0,3.9510636539386166,43.06817636528056,28.716932426701078,-7.833943377195652,0.0,-74.18015697585683,0.0,0.0,0.0,-45.37647531782628,0.0,5.636406350962856,0.0,0.0,0.0,0.0,0.0,0.0,0.0,0.0,0.0,0.0
27.385000000010486,40.248554507533754,139.9849771265857,3469.5403070588545,2255.1445529631337,2236.8111512571013,286.97182504763873,28.22399106279153,0.0,4.0129575281903165,42.58312073287107,28.22399106279153,-8.092217515479778,0.0,-74.18904137599854,0.0,0.0,0.0,-44.34857429656757,0.0,5.61872475690665,0.0,0.0,0.0,0.0,0.0,0.0,0.0,0.0,0.0,0.0
27.3960000000105,40.2485552600946,139.9849736435568,3469.495794138946,2255.4521043306295,2237.1165471565096,287.0082740410114,27.742145563617132,0.0,4.074660187868762,42.1093646794229,27.742145563617132,-8.35564231464194,0.0,-74.1980317494348,0.0,0.0,0.0,-43.35560502211254,0.0,5.601586240902095,0.0,0.0,0.0,0.0,0.0,0.0,0.0,0.0,0.0,0.0
27.407000000010513,40.24855599943191,139.98497021966637,3469.450603607334,2255.754419842838,2237.416749969084,287.0440551523069,27.271021100260878,0.0,4.136177448248887,41.64653543424495,27.271021100260878,-8.624283415242177,0.0,-74.20713008739526,0.0,0.0,0.0,-42.39601089655313,0.0,5.584964591967046,0.0,0.0,0.0,0.0,0.0,0.0,0.0,0.0,0.0,0.0
27.418000000010526,40.24855672583798,139.98496685360692,3469.40473746995,2256.0516152567766,2237.711874507054,287.0791831408858,26.810259446039982,0.0,4.197514844778853,41.19427681895076,26.810259446039982,-8.898206622314616,0.0,-74.21633843271967,0.0,0.0,0.0,-41.4683211601122,0.0,5.568835000296497,0.0,0.0,0.0,0.0,0.0,0.0,0.0,0.0,0.0,0.0
27.42900000001054,40.248557439595466,139.98496354411424,3469.3581976734395,2256.3438025005535,2238.002031784604,287.113672280931,26.359518066413347,0.0,4.2586776479344985,40.752248336829005,26.359518066413347,-9.177477846608701,0.0,-74.22565888155599,0.0,0.0,0.0,-40.5711452706041,0.0,5.553173965282879,0.0,0.0,0.0,0.0,0.0,0.0,0.0,0.0,0.0,0.0
27.440000000010553,40.248558140977686,139.98496028996578,3469.3109861079906,2256.6310898103916,2238.287329154375,287.1475363742627,25.91846926813192,0.0,4.319670877104359,40.32012432145773,25.91846926813192,-9.462163041635526,0.0,-74.23509358512497,0.0,0.0,0.0,-39.703167707627806,0.0,5.537959210498902,0.0,0.0,0.0,0.0,0.0,0.0,0.0,0.0,0.0,0.0
27.451000000010566,40.2485588302491,139.98495708997874,3469.2631046100196,2256.9135819079684,2238.567870482837,287.1807887770202,25.48679940318091,0.0,4.380499313578224,39.89759314011032,25.48679940318091,-9.752328136341898,0.0,-74.24464475155459,0.0,0.0,0.0,-38.86314316519805,0.0,5.523169605048457,0.0,0.0,0.0,0.0,0.0,0.0,0.0,0.0,0.0,0.0
27.46200000001058,40.24855950766564,139.9849539430083,3469.2145549647134,2257.191380146933,2238.8437562964527,287.21344241174756,25.064208123441063,0.0,4.441167512705986,39.484356447880366,25.064208123441063,-10.048038963234113,0.0,-74.25431464778728,0.0,0.0,0.0,-38.04989209997355,0.0,5.508785090747574,0.0,0.0,0.0,0.0,0.0,0.0,0.0,0.0,0.0,0.0
27.473000000010593,40.24856017347508,139.98495084794624,3469.165338908448,2257.4645826435444,2239.115083910248,287.245509791877,24.650407682338695,0.0,4.501679815287978,39.08012848879433,24.650407682338695,-10.349361181773645,0.0,-74.26410560156368,0.0,0.0,0.0,-37.26229660533137,0.0,5.494786614648134,0.0,0.0,0.0,0.0,0.0,0.0,0.0,0.0,0.0,0.0
27.484000000010607,40.24856082791737,139.98494780371914,3469.1154581310825,2257.7332844326825,2239.381947583645,287.2770030330842,24.245122280064265,0.0,4.562040358252842,38.68463544049179,24.245122280064265,-10.6563601968682,0.0,-74.27402000348619,0.0,0.0,0.0,-36.49929658430884,0.0,5.481156066462416,0.0,0.0,0.0,0.0,0.0,0.0,0.0,0.0,0.0,0.0
27.49500000001062,40.24856147122503,139.98494480928716,3469.0649142781435,2257.9975775767352,2239.644438627063,287.3079338780483,23.848087449221154,0.0,4.622253084674424,38.29761479933422,23.848087449221154,-10.96910107228373,0.0,-74.28406030916626,0.0,0.0,0.0,-35.75988619692153,0.0,5.467876220487256,0.0,0.0,0.0,0.0,0.0,0.0,0.0,0.0,0.0,0.0
27.506000000010633,40.248562103623364,139.98494186364246,3469.0137089528966,2258.2575513036145,2239.902645540074,287.3383137042012,23.459049478021957,0.0,4.682321753174949,37.91881480305969,23.459049478021957,-11.287648438806475,0.0,-74.29422904145962,0.0,0.0,0.0,-35.0431105596011,0.0,5.45493068166328,0.0,0.0,0.0,0.0,0.0,0.0,0.0,0.0,0.0,0.0
27.517000000010647,40.24856272533077,139.98493896580814,3468.9618437183253,2258.5132921034824,2240.1566541068532,287.3681535398413,23.077764868382147,0.0,4.74224994675797,37.54799388833287,23.077764868382147,-11.612066396988821,0.0,-74.30452879279318,0.0,0.0,0.0,-34.34806267650764,0.0,5.442303835437523,0.0,0.0,0.0,0.0,0.0,0.0,0.0,0.0,0.0,0.0
27.52800000001066,40.248563336559045,139.98493611483684,3468.909320099011,2258.7648838495566,2240.4065475159905,287.3974640795937,22.70399982647267,0.0,4.8020410811110645,37.18492018075182,22.70399982647267,-11.942418414318846,0.0,-74.31496222758851,0.0,0.0,0.0,-33.67388058428174,0.0,5.429980801127527,0.0,0.0,0.0,0.0,0.0,0.0,0.0,0.0,0.0,0.0
27.539000000010674,40.248563937513644,139.9849333098097,3468.8561395829283,2259.0124078948397,2240.6524064559453,287.4262557005234,22.337529783485838,0.0,4.861698412415141,36.82937101506571,22.337529783485838,-12.278767216661176,0.0,-74.32553208478629,0.0,0.0,0.0,-33.019744693434895,0.0,5.417947388511597,0.0,0.0,0.0,0.0,0.0,0.0,0.0,0.0,0.0,0.0
27.550000000010687,40.24856452839389,139.984930549835,3468.802303623149,2259.255943182417,2240.8943092257255,287.45453846622917,21.97813894454485,0.0,4.921225044694301,36.48113248353369,21.97813894454485,-12.621174673826136,0.0,-74.33624118047696,0.0,0.0,0.0,-32.384875311049726,0.0,5.40619005739418,0.0,0.0,0.0,0.0,0.0,0.0,0.0,0.0,0.0,0.0
27.5610000000107,40.248565109393276,139.98492783404748,3468.7478136394825,2259.495566324531,2241.13233181175,287.4823221491037,21.62561986384745,0.0,4.98062393673759,36.13999901051525,21.62561986384745,-12.9697016791355,0.0,-74.34709241064245,0.0,0.0,0.0,-31.768530330793176,0.0,5.394695879917062,0.0,0.0,0.0,0.0,0.0,0.0,0.0,0.0,0.0,0.0
27.572000000010714,40.2485656806996,139.9849251616069,3468.692671020026,2259.731351706912,2241.3665479930187,287.50961623049574,21.279773044281306,0.0,5.0398979086215885,35.805772951529725,21.279773044281306,-13.324408022866406,0.0,-74.35808875401482,0.0,0.0,0.0,-31.170003077450176,0.0,5.3834525054067885,0.0,0.0,0.0,0.0,0.0,0.0,0.0,0.0,0.0,0.0
27.583000000010728,40.24856624249525,139.98492253169746,3468.63687712266,2259.963371555156,2241.5970294054327,287.536429920953,20.940406559882348,0.0,5.0990496478605385,35.478264215155995,20.940406559882348,-13.685352259470271,0.0,-74.36923327505752,0.0,0.0,0.0,-30.588620294274712,0.0,5.372448127566613,0.0,0.0,0.0,0.0,0.0,0.0,0.0,0.0,0.0,0.0
27.59400000001074,40.248566794957426,139.98491994352656,3468.580433276465,2260.1916960435906,2241.8238456505815,287.56277216781837,20.607335699630422,0.0,5.158081715208755,35.15728990626674,20.607335699630422,-14.052591568481397,0.0,-74.38052912707559,0.0,0.0,0.0,-30.02374026244382,0.0,5.361671453837441,0.0,0.0,0.0,0.0,0.0,0.0,0.0,0.0,0.0,0.0
27.605000000010754,40.24856733825829,139.98491739632425,3468.5233407830883,2260.4163933397826,2242.047064339131,287.5886516667764,20.280382631188562,0.0,5.216996550138206,34.84267398920362,20.280382631188562,-14.426181609050161,0.0,-74.39197955546094,0.0,0.0,0.0,-29.474751042795397,0.0,5.351111676766885,0.0,0.0,0.0,0.0,0.0,0.0,0.0,0.0,0.0,0.0
27.616000000010768,40.248567872565125,139.98491488934212,3468.465600918042,2260.6375297019104,2242.2667511888308,287.61407686314953,19.959376083295773,0.0,5.2757964760124345,34.534246969603196,19.959376083295773,-14.806176368058098,0.0,-74.40358790108024,0.0,0.0,0.0,-28.941068830844785,0.0,5.34075844723891,0.0,0.0,0.0,0.0,0.0,0.0,0.0,0.0,0.0,0.0
27.62700000001078,40.24856839804061,139.98491242185264,3468.4072149319545,2260.8551695430483,2242.482970086577,287.6390559732985,19.64415104561723,0.0,5.3344837049764715,34.23184559367767,19.64415104561723,-15.19262800179816,0.0,-74.41535760381228,0.0,0.0,0.0,-28.42213641681398,0.0,5.330601849428651,0.0,0.0,0.0,0.0,0.0,0.0,0.0,0.0,0.0,0.0
27.638000000010795,40.24856891484287,139.9849099931483,3468.348184051764,2261.0693754999384,2242.6957831584527,287.66359697913686,19.33454848494316,0.0,5.393060342580975,33.935312563841606,19.33454848494316,-15.585586671231257,0.0,-74.42729220624265,0.0,0.0,0.0,-27.917421743080155,0.0,5.320632377357949,0.0,0.0,0.0,0.0,0.0,0.0,0.0,0.0,0.0,0.0
27.64900000001081,40.24856942312575,139.98490760254103,3468.2885094818635,2261.280208492638,2242.9052508270233,287.6877076502876,19.03041507670692,0.0,5.451528392157492,33.64449626965543,19.03041507670692,-15.985100370862027,0.0,-74.43939535752419,0.0,0.0,0.0,-27.426416552062193,0.0,5.310840912937257,0.0,0.0,0.0,0.0,0.0,0.0,0.0,0.0,0.0,0.0
27.66000000001082,40.24856992303893,139.9849052493615,3468.228192405203,2261.487727778839,2243.11143186566,287.7113955474919,18.73160295086679,0.0,5.509889758960559,33.35925053313011,18.73160295086679,-16.39121475131081,0.0,-74.45167081741157,0.0,0.0,0.0,-26.948635118121793,0.0,5.301218705388626,0.0,0.0,0.0,0.0,0.0,0.0,0.0,0.0,0.0,0.0
27.671000000010835,40.24857041472798,139.98490293295825,3468.1672339843426,2261.6919910348965,2243.314383480882,287.7346680175759,18.43796945126296,0.0,5.568146254091253,33.07943436750485,18.43796945126296,-16.803972935696724,0.0,-74.46412246047963,0.0,0.0,0.0,-26.483613057564785,0.0,5.291757351952874,0.0,0.0,0.0,0.0,0.0,0.0,0.0,0.0,0.0,0.0
27.68200000001085,40.24857089833466,139.98490065269732,3468.105635362467,2261.893054387883,2243.514161341147,287.7575322209238,18.14937690762394,0.0,5.626299598215758,32.80491174867198,18.14937690762394,-17.22341532998736,0.0,-74.47675428053492,0.0,0.0,0.0,-26.03090621129208,0.0,5.282448779791595,0.0,0.0,0.0,0.0,0.0,0.0,0.0,0.0,0.0,0.0
27.693000000010862,40.248571373996946,139.98489840796157,3468.0433976643544,2262.0909724765174,2243.7108196392396,287.7799951239993,17.865692419453634,0.0,5.684351425091603,32.535551398480486,17.865692419453634,-17.649579427515118,0.0,-74.48957039523131,0.0,0.0,0.0,-25.590089595074616,0.0,5.273285229001663,0.0,0.0,0.0,0.0,0.0,0.0,0.0,0.0,0.0,0.0
27.704000000010875,40.2485718418492,139.98489619814993,3467.980521997321,2262.2857985153255,2243.9044111553612,287.80206351177605,17.586787651083462,0.0,5.742303284913352,32.27122657920279,17.586787651083462,-18.082499607907373,0.0,-74.50257505090015,0.0,0.0,0.0,-25.16075641281386,0.0,5.26425923666615,0.0,0.0,0.0,0.0,0.0,0.0,0.0,0.0,0.0,0.0
27.71500000001089,40.24857230202227,139.984894022677,3467.9170094521146,2262.4775843316297,2244.0949872941505,287.8237439898827,17.31253863722258,0.0,5.800156647488699,32.011814898497974,17.31253863722258,-18.52220693072889,0.0,-74.51577262760729,0.0,0.0,0.0,-24.742517128504574,0.0,5.25536362187153,0.0,0.0,0.0,0.0,0.0,0.0,0.0,0.0,0.0,0.0
27.726000000010902,40.248572754643654,139.98489188097258,3467.8528611037787,2262.666380408177,2244.2825981259284,287.84504299809134,17.042825598384688,0.0,5.857912905255232,31.757198124250113,17.042825598384688,-18.968728924188422,0.0,-74.52916764444912,0.0,0.0,0.0,-24.33499859294173,0.0,5.246591471626177,0.0,0.0,0.0,0.0,0.0,0.0,0.0,0.0,0.0,0.0
27.737000000010916,40.248573199837544,139.98488977248098,3467.7880780124947,2262.852235942199,2244.467292446954,287.8659668047776,16.777532765611284,0.0,5.915573376147393,31.507262008701833,16.777532765611284,-19.422089369319227,0.0,-74.54276476510105,0.0,0.0,0.0,-23.937843221510644,0.0,5.237936127620185,0.0,0.0,0.0,0.0,0.0,0.0,0.0,0.0,0.0,0.0
27.74800000001093,40.24857363772503,139.98488769666085,3467.722661224376,2263.035198863658,2244.649117795054,287.8865215284705,16.516548213950124,0.0,5.97313930632256,31.26189612134201,16.516548213950124,-19.8823080801029,0.0,-74.55656880363259,0.0,0.0,0.0,-23.550708219673005,0.0,5.2293911737709795,0.0,0.0,0.0,0.0,0.0,0.0,0.0,0.0,0.0,0.0
27.759000000010943,40.2485740684241,139.98488565298416,3467.6566117722473,2263.2153159184672,2244.828120535371,287.90671312347047,16.259763704183236,0.0,6.030611872754579,31.02099369004228,16.259763704183236,-20.349400680069227,0.0,-74.5705847306039,0.0,0.0,0.0,-23.17326485301198,0.0,5.220950424503195,0.0,0.0,0.0,0.0,0.0,0.0,0.0,0.0,0.0,0.0
27.770000000010956,40.248574492049784,139.98488364093635,3467.5899306763886,2263.392632664101,2245.00434585354,287.92654739854805,16.007074532331938,0.0,6.08799218570254,30.78445144997,16.007074532331938,-20.823378375970197,0.0,-74.58481767946009,0.0,0.0,0.0,-22.80519775892956,0.0,5.21260791371521,0.0,0.0,0.0,0.0,0.0,0.0,0.0,0.0,0.0,0.0
27.78100000001097,40.24857490871428,139.9848816600155,3467.5226189452546,2263.567193535506,2245.177837821942,287.9460300184631,15.758379386497154,0.0,6.14528129106208,30.5521694998362,15.758379386497154,-21.30424772919384,0.0,-74.59927295324023,0.0,0.0,0.0,-22.446204297301172,0.0,5.20435788438807,0.0,0.0,0.0,0.0,0.0,0.0,0.0,0.0,0.0,0.0
27.792000000010983,40.24857531852704,139.98487970973213,3467.454677576171,2263.7390418711643,2245.3486394251668,287.9651665103427,15.513580210621518,0.0,6.202480172606023,30.32405116506534,15.513580210621518,-21.792010425653405,0.0,-74.61395603161931,0.0,0.0,0.0,-22.095993937586975,0.0,5.196194778795762,0.0,0.0,0.0,0.0,0.0,0.0,0.0,0.0,0.0,0.0
27.803000000010996,40.248575721594804,139.98487778960876,3467.3861075560044,2263.9082199426857,2245.5167925896217,287.9839622653985,15.272582074786476,0.0,6.259589754120743,30.100002867500287,15.272582074786476,-22.286663044957795,0.0,-74.62887257830253,0.0,0.0,0.0,-21.75428768007846,0.0,5.188113229278757,0.0,0.0,0.0,0.0,0.0,0.0,0.0,0.0,0.0,0.0
27.81400000001101,40.24857611802173,139.98487589917937,3467.3169098618077,2264.0747690086814,2245.6823382376156,288.00242254077034,15.03529305168185,0.0,6.316610901444249,29.879934001280322,15.03529305168185,-22.78819682974139,0.0,-74.64402844879264,0.0,0.0,0.0,-21.42081750912385,0.0,5.180108049545364,0.0,0.0,0.0,0.0,0.0,0.0,0.0,0.0,0.0,0.0
27.825000000011023,40.24857650790947,139.9848740379893,3467.247085461447,2264.238729322507,2245.845316293854,288.02055246971065,14.801624098908379,0.0,6.373544424411564,29.663756814552972,14.801624098908379,-23.296597456102653,0.0,-74.65942969855267,0.0,0.0,0.0,-21.09532587632791,0.0,5.172174226468011,0.0,0.0,0.0,0.0,0.0,0.0,0.0,0.0,0.0,0.0
27.836000000011037,40.24857689135724,139.98487220559477,3467.1766353142098,2264.400140173888,2246.005765727236,288.0383570629723,14.5714889467947,0.0,6.430391078712695,29.451386296701347,14.5714889467947,-23.811844806172797,0.0,-74.67508259158748,0.0,0.0,0.0,-20.777565211861816,0.0,5.16430691234379,0.0,0.0,0.0,0.0,0.0,0.0,0.0,0.0,0.0,0.0
27.84700000001105,40.248577268461894,139.98487040156238,3467.105560371382,2264.5590399326356,2246.163724594887,288.0558412090413,14.3448039914302,0.0,6.487151567668087,29.242740070788884,14.3448039914302,-24.33391274390552,0.0,-74.69099360946952,0.0,0.0,0.0,-20.46729746214843,0.0,5.156501417590744,0.0,0.0,0.0,0.0,0.0,0.0,0.0,0.0,0.0,0.0
27.858000000011064,40.248577639318015,139.984868625469,3467.0338615768246,2264.715466058488,2246.3192300509295,288.073009683159,14.121488192633311,0.0,6.543826543926232,29.037738290941203,14.121488192633311,-24.86276889524711,0.0,-74.70716946083574,0.0,0.0,0.0,-20.164293652307308,0.0,5.1487532038533566,0.0,0.0,0.0,0.0,0.0,0.0,0.0,0.0,0.0,0.0
27.869000000011077,40.24857800401796,139.98486687690158,3466.961539867509,2264.8694551235194,2246.4723183688143,288.0898671493915,13.901462976592077,0.0,6.60041661108776,28.836303544402355,13.901462976592077,-25.39837443391095,0.0,-74.72361709138494,0.0,0.0,0.0,-19.868333471854715,0.0,5.14105787749244,0.0,0.0,0.0,0.0,0.0,0.0,0.0,0.0,0.0,0.0
27.88000000001109,40.24857836265194,139.98486515545642,3466.8885961740566,2265.0210428658015,2246.6230249952755,288.106418161693,13.684652142929677,0.0,6.6569223252601075,28.638360758018365,13.684652142929677,-25.940683874041685,0.0,-74.74034369440602,0.0,0.0,0.0,-19.579204882255564,0.0,5.133411183436347,0.0,0.0,0.0,0.0,0.0,0.0,0.0,0.0,0.0,0.0
27.891000000011104,40.248578715308106,139.98486346073938,3466.8150314212485,2265.170264182128,2246.771384541909,288.1226671724479,13.47098177596245,0.0,6.713344196546608,28.443837108916043,13.47098177596245,-26.489644871110276,0.0,-74.75735672187083,0.0,0.0,0.0,-19.296703745018743,0.0,5.12580899937196,0.0,0.0,0.0,0.0,0.0,0.0,0.0,0.0,0.0,0.0
27.902000000011117,40.24857906207257,139.98486179236517,3466.7408465285243,2265.317153182873,2246.917430840887,288.13861852925186,13.26038015993186,0.0,6.76968269047361,28.252661939158692,13.26038015993186,-27.045198032430815,0.0,-74.77466389612698,0.0,0.0,0.0,-19.020633469114873,0.0,5.118247330255306,0.0,0.0,0.0,0.0,0.0,0.0,0.0,0.0,0.0,0.0
27.91300000001113,40.24857940302947,139.9848601499573,3466.666042410462,2265.461743197745,2247.061196950356,288.15427647806126,13.052777698004789,0.0,6.825938229359054,28.064766674173573,13.052777698004789,-27.607276738733074,0.0,-74.79227322222883,0.0,0.0,0.0,-18.750804676576152,0.0,5.1107223031230005,0.0,0.0,0.0,0.0,0.0,0.0,0.0,0.0,0.0,0.0
27.924000000011144,40.24857973826107,139.98485853314787,3466.590619977247,2265.6040668033966,2247.20271518076,288.1696451750408,12.848106834848561,0.0,6.8821111936256685,27.880084744757742,12.848106834848561,-28.175806978258567,0.0,-74.81019300094782,0.0,0.0,0.0,-18.48703488521326,0.0,5.103230162186952,0.0,0.0,0.0,0.0,0.0,0.0,0.0,0.0,0.0,0.0
27.935000000011158,40.24858006784777,139.98485694157714,3466.5145801351237,2265.7441558450537,2247.342017117821,288.18472867731685,12.646301982598489,0.0,6.938201923061831,27.69855151248042,12.646301982598489,-28.750707194873065,0.0,-74.82843184250592,0.0,0.0,0.0,-18.229148207453665,0.0,5.0957672641958665,0.0,0.0,0.0,0.0,0.0,0.0,0.0,0.0,0.0,0.0
27.94600000001117,40.24858039186817,139.9848553748935,3466.43792378684,2265.882041451877,2247.4791336365743,288.19953095437063,12.44729945004623,0.0,6.994210718032935,27.52010419831053,12.44729945004623,-29.33188815170228,0.0,-74.84699868107971,0.0,0.0,0.0,-17.976975064370418,0.0,5.088330074048144,0.0,0.0,0.0,0.0,0.0,0.0,0.0,0.0,0.0,0.0
27.957000000011185,40.248580710399146,139.98485383275306,3466.360651832067,2266.017754070962,2247.614094935621,288.21405588821705,12.251037374887133,0.0,7.050137840645921,27.34468181430783,12.251037374887133,-29.91925281180002,0.0,-74.86590279012611,0.0,0.0,0.0,-17.730351914030024,0.0,5.0809151606417995,0.0,0.0,0.0,0.0,0.0,0.0,0.0,0.0,0.0,0.0
27.968000000011198,40.248581023515875,139.9848523148195,3466.2827651678163,2266.1513234770578,2247.7469305469194,288.2283072734564,12.05745565887401,0.0,7.105983515869519,27.172225098225475,12.05745565887401,-30.51269623734735,0.0,-74.88515379858433,0.0,0.0,0.0,-17.48912099334419,0.0,5.073519192947835,0.0,0.0,0.0,0.0,0.0,0.0,0.0,0.0,0.0,0.0
27.97900000001121,40.24858133129189,139.98485082076385,3466.204264688846,2266.2827787958677,2247.8776693586124,288.24228882246797,11.866495905733446,0.0,7.161747932612568,27.00267645088034,11.866495905733446,-31.112105508856924,0.0,-74.90476170801293,0.0,0.0,0.0,-17.25313007266137,0.0,5.0661389362944504,0.0,0.0,0.0,0.0,0.0,0.0,0.0,0.0,0.0,0.0
27.990000000011225,40.248581633799105,139.98484935026437,3466.1251512880426,2266.412148511669,2248.0063396225496,288.2560041666215,11.678101361708777,0.0,7.2174312447626665,26.835979876155637,11.678101361708777,-31.717359665817987,0.0,-74.92473691072621,0.0,0.0,0.0,-17.022232222382428,0.0,5.058771248850196,0.0,0.0,0.0,0.0,0.0,0.0,0.0,0.0,0.0,0.0
28.00100000001124,40.24858193110791,139.98484790300608,3466.045425856808,2266.539460508934,2248.132968996077,288.2694568576655,11.492216858601608,0.0,7.273033572187284,26.67208092350788,11.492216858601608,-32.32832967016233,0.0,-74.94509020899771,0.0,0.0,0.0,-16.7962855909295,0.0,5.051413078294871,0.0,0.0,0.0,0.0,0.0,0.0,0.0,0.0,0.0,0.0
28.012000000011252,40.24858222328718,139.984846478681,3465.965089285424,2266.6647420576587,2248.257584526202,288.2826503758425,11.308788759190776,0.0,7.328555001699307,26.510926632857483,11.308788759190776,-32.94487839386154,0.0,-74.96583283540544,0.0,0.0,0.0,-16.575153193438275,0.0,5.04406145866778,0.0,0.0,0.0,0.0,0.0,0.0,0.0,0.0,0.0,0.0
28.023000000011265,40.24858251040431,139.98484507698754,3465.884142463409,2266.7880198548664,2248.380212692409,288.2955881223065,11.12776490491434,0.0,7.383995587988947,26.35246548174874,11.12776490491434,-33.56686063187844,0.0,-74.98697647439832,0.0,0.0,0.0,-16.358702710583152,0.0,5.036713507383417,0.0,0.0,0.0,0.0,0.0,0.0,0.0,0.0,0.0,0.0
28.03400000001128,40.24858279252529,139.9848436976305,3465.8025862798713,2266.9093200369784,2248.500879417921,288.30827342854946,10.94909456570655,0.0,7.439355354523774,26.19664733467153,10.94909456570655,-34.19412314159206,0.0,-75.00853328517077,0.0,0.0,0.0,-16.14680629698058,0.0,5.029366422405365,0.0,0.0,0.0,0.0,0.0,0.0,0.0,0.0,0.0,0.0
28.045000000011292,40.248583069714684,139.98484234032097,3465.7204216238415,2267.0286681837906,2248.6196100741117,288.32070955330283,10.772728391887568,0.0,7.494634294418552,26.043423394442556,10.772728391887568,-34.82650470969477,0.0,-75.03051592593822,0.0,0.0,0.0,-15.93934039864934,0.0,5.022017479569718,0.0,0.0,0.0,0.0,0.0,0.0,0.0,0.0,0.0,0.0
28.056000000011306,40.24858334203572,139.9848410047761,3465.6376493846046,2267.1460893350404,2248.7364294962913,288.33289968964476,10.59861836800926,0.0,7.549832371276516,25.892746155549926,10.59861836800926,-35.463836247423885,0.0,-75.05293757971532,0.0,0.0,0.0,-15.73618557903814,0.0,5.01466403004978,0.0,0.0,0.0,0.0,0.0,0.0,0.0,0.0,0.0,0.0
28.06700000001132,40.24858360955034,139.98483969071876,3465.554270452019,2267.2616080239673,2248.8513620177196,288.34484696361824,10.426717768565657,0.0,7.604949520003539,25.744569359369585,10.426717768565657,-36.10594091483645,0.0,-75.07581198170608,0.0,0.0,0.0,-15.537226353159793,0.0,5.0073034979543705,0.0,0.0,0.0,0.0,0.0,0.0,0.0,0.0,0.0,0.0
28.078000000011333,40.24858387231916,139.98483839787775,3465.470285716828,2267.375248263404,2248.9644314552957,288.3565544364977,10.256981115481464,0.0,7.6599856475966694,25.59884795116735,10.256981115481464,-36.75263427466902,0.0,-75.09915344842479,0.0,0.0,0.0,-15.342351029398705,0.0,4.999933378052441,0.0,0.0,0.0,0.0,0.0,0.0,0.0,0.0,0.0,0.0
28.089000000011346,40.24858413040159,139.98483712598744,3465.3856960709595,2267.4870335711767,2249.0756611346474,288.3680251088233,10.089364137296755,0.0,7.714940633908342,25.455538038804796,10.089364137296755,-37.40372447614125,0.0,-75.1229769086768,0.0,0.0,0.0,-15.151451558583766,0.0,4.992551233617139,0.0,0.0,0.0,0.0,0.0,0.0,0.0,0.0,0.0,0.0
28.10000000001136,40.24858438385581,139.98483587478736,3465.300502407824,2267.596987005094,2249.1850739260303,288.37926191551577,9.923823729970207,0.0,7.7698143323875755,25.314596853071418,9.923823729970207,-38.05901246886854,0.0,-75.14729793653909,0.0,0.0,0.0,-14.9644233899423,0.0,4.985154694382861,0.0,0.0,0.0,0.0,0.0,0.0,0.0,0.0,0.0,0.0
28.111000000011373,40.24858463273878,139.98483464402253,3465.214705622596,2267.705131140209,2249.2926922207234,288.3902677312168,9.76031791922739,0.0,7.82460657079933,25.175982709569666,9.76031791922739,-38.718292246842445,0.0,-75.17213278649261,0.0,0.0,0.0,-14.781165333572941,0.0,4.977741454609194,0.0,0.0,0.0,0.0,0.0,0.0,0.0,0.0,0.0,0.0
28.122000000011386,40.24858487710641,139.9848334334431,3465.1283066125,2267.811488095999,2249.398537957109,288.4010453805735,9.59880582438447,0.0,7.879317151923185,25.03965497208338,9.59880582438447,-39.381351122223265,0.0,-75.19749843087243,0.0,0.0,0.0,-14.601579429096208,0.0,4.970309271245949,0.0,0.0,0.0,0.0,0.0,0.0,0.0,0.0,0.0,0.0
28.1330000000114,40.24858511701337,139.98483224280432,3465.0413062770726,2267.9160795416346,2249.502632627986,288.41159762266545,9.43924762358133,0.0,7.933945854232414,24.905574017363477,9.43924762358133,-40.04797002846723,0.0,-75.22341259981542,0.0,0.0,0.0,-14.425570820160212,0.0,4.96285596219388,0.0,0.0,0.0,0.0,0.0,0.0,0.0,0.0,0.0,0.0
28.144000000011413,40.24858535251332,139.98483107186604,3464.95370551843,2268.018926736301,2249.6049973194376,288.42192716486807,9.281604520361505,0.0,7.988492432554474,24.77370120126844,9.281604520361505,-40.717923852084425,0.0,-75.24989382390254,0.0,0.0,0.0,-14.253047634497747,0.0,4.9553794046559005,0.0,0.0,0.0,0.0,0.0,0.0,0.0,0.0,0.0,0.0
28.155000000011427,40.248585583658844,139.98482992039317,3464.8655052415247,2268.1200504958592,2249.705652676947,288.43203666501756,9.125838711539647,0.0,8.042956618713866,24.64399882620005,9.125838711539647,-41.39098179209475,0.0,-75.27696147970933,0.0,0.0,0.0,-14.083920869247013,0.0,4.947877533573936,0.0,0.0,0.0,0.0,0.0,0.0,0.0,0.0,0.0,0.0
28.16600000001144,40.24858581050145,139.98482878815517,3464.776706354394,2268.219471228821,2249.804618942942,288.44192872145976,8.971913356300236,0.0,8.097338122158305,24.5164301097781,8.971913356300236,-42.06690774602201,0.0,-75.30463583849944,0.0,0.0,0.0,-13.918104281264498,0.0,4.940348340146825,0.0,0.0,0.0,0.0,0.0,0.0,0.0,0.0,0.0,0.0
28.177000000011454,40.24858603309167,139.98482767492578,3464.687309768402,2268.3172089656164,2249.9019159851296,288.451605882176,8.819792546474195,0.0,8.151636630569055,24.390959154700532,8.819792546474195,-42.7454607210416,0.0,-75.33293811831638,0.0,0.0,0.0,-13.755514282172829,0.0,4.932789870424848,0.0,0.0,0.0,0.0,0.0,0.0,0.0,0.0,0.0,0.0
28.188000000011467,40.248586251479054,139.9848265804835,3464.597316398475,2268.4132833170993,2249.9975632536925,288.46107065236447,8.669441277942745,0.0,8.205851810456211,24.267550919738035,8.669441277942745,-43.426395268679265,0.0,-75.36189053975362,0.0,0.0,0.0,-13.596069837900215,0.0,4.92520022397682,0.0,0.0,0.0,0.0,0.0,0.0,0.0,0.0,0.0,0.0
28.19900000001148,40.24858646571217,139.984825504611,3464.5067271633347,2268.507713526965,2250.0915798356486,288.4703254826257,8.520825423120558,0.0,8.25998330773978,24.146171191814837,8.520825423120558,-44.109461941250515,0.0,-75.39151638570941,0.0,0.0,0.0,-13.439692372480634,0.0,4.917577552625743,0.0,0.0,0.0,0.0,0.0,0.0,0.0,0.0,0.0,0.0
28.210000000011494,40.24858667583866,139.98482444709498,3464.4155429857155,2268.6005184737505,2250.183984455968,288.4793727759947,8.37391170447261,0.0,8.314030748317206,24.026786559129825,8.37391170447261,-44.79440776803334,0.0,-75.42184006546252,0.0,0.0,0.0,-13.286305675895822,0.0,4.9099200592493935,0.0,0.0,0.0,0.0,0.0,0.0,0.0,0.0,0.0,0.0
28.221000000011507,40.24858688190525,139.98482340772654,3464.3237647925844,2268.691716655497,2250.274795461369,288.48821489370937,8.228667669021542,0.0,8.367993738618104,23.909364385274102,8.228667669021542,-45.48097674898598,0.0,-75.45288718343743,0.0,0.0,0.0,-13.135835815751202,0.0,4.902225996642222,0.0,0.0,0.0,0.0,0.0,0.0,0.0,0.0,0.0,0.0
28.23200000001152,40.24858708395776,139.98482238630044,3464.2313935153534,2268.7813262405184,2250.364030872667,288.4968541461196,8.085061663804542,0.0,8.4218718661468,23.79387278430361,8.085061663804542,-46.16891036365766,0.0,-75.48468461306419,0.0,0.0,0.0,-12.988211052587806,0.0,4.8944936664353085,0.0,0.0,0.0,0.0,0.0,0.0,0.0,0.0,0.0,0.0
28.243000000011534,40.24858728204121,139.98482138261554,3464.1384300900813,2268.869365038063,2250.4517083531177,288.50529280891186,7.943062812240899,0.0,8.475664700013334,23.68028059672721,7.943062812240899,-46.857948092796406,0.0,-75.5172605761788,0.0,0.0,0.0,-12.843361758641924,0.0,4.88672141807111,0.0,0.0,0.0,0.0,0.0,0.0,0.0,0.0,0.0,0.0
28.254000000011548,40.248587476199674,139.9848203964744,3464.044875457676,2268.9558505269833,2250.537845239702,288.51353310454067,7.802640991373374,0.0,8.529371791453507,23.56855736637253,7.802640991373374,-47.54782795003675,0.0,-75.5506447284544,0.0,0.0,0.0,-12.701220339872611,0.0,4.878907647830062,0.0,0.0,0.0,0.0,0.0,0.0,0.0,0.0,0.0,0.0
28.26500000001156,40.248587666476446,139.9848194276833,3463.950730564085,2269.040799855324,2250.6224585407094,288.52157721782714,7.663766809948467,0.0,8.582992674338508,23.45867331809381,7.663766809948467,-48.238287020952086,0.0,-75.58486825140473,0.0,0.0,0.0,-12.561721161085577,0.0,4.871050797906077,0.0,0.0,0.0,0.0,0.0,0.0,0.0,0.0,0.0,0.0
28.276000000011575,40.24858785291404,139.98481847605214,3463.8559963604844,2269.124229857433,2250.7055649529275,288.52942729643905,7.526411587302528,0.0,8.63652686567464,23.350599336287573,7.526411587302528,-48.9290620066846,0.0,-75.6199639515566,0.0,0.0,0.0,-12.424800473988668,0.0,4.8631493555283045,0.0,0.0,0.0,0.0,0.0,0.0,0.0,0.0,0.0,0.0
28.287000000011588,40.248588035554135,139.9848175413943,3463.760673803463,2269.2061570515157,2250.7871808602813,288.53708544229846,7.390547333022387,0.0,8.689973866093673,23.244306944183606,7.390547333022387,-49.619889769319975,0.0,-75.65596636745155,0.0,0.0,0.0,-12.290396348021435,0.0,4.855201852126471,0.0,0.0,0.0,0.0,0.0,0.0,0.0,0.0,0.0,0.0
28.2980000000116,40.24858821443764,139.9848166235267,3463.6647638551976,2269.2865976469407,2250.867322340089,288.54455372019925,7.256146727350906,0.0,8.74333316033426,23.13976828388024,7.256146727350906,-50.31050787615561,0.0,-75.69291188520667,0.0,0.0,0.0,-12.158448603806612,0.0,4.847206862537384,0.0,0.0,0.0,0.0,0.0,0.0,0.0,0.0,0.0,0.0
28.309000000011615,40.24858838960475,139.98481572226964,3463.568267483629,2269.3655675548357,2250.946005173339,288.55183416098595,7.12318310230949,0.0,8.79660421771483,23.036956097094368,7.12318310230949,-51.00065514002013,0.0,-75.7308388634437,0.0,0.0,0.0,-12.028898749077038,0.0,4.839163004250237,0.0,0.0,0.0,0.0,0.0,0.0,0.0,0.0,0.0,0.0
28.32000000001163,40.248588561094905,139.9848148374465,3463.4711856626213,2269.443082410161,2251.0232448679317,288.55892875386746,6.991630423511171,0.0,8.849786492598433,22.935843706598032,6.991630423511171,-51.69007215283857,0.0,-75.76978776848405,0.0,0.0,0.0,-11.901689916935865,0.0,4.831068936688472,0.0,0.0,0.0,0.0,0.0,0.0,0.0,0.0,0.0,0.0
28.33100000001164,40.24858872894683,139.98481396888405,3463.3735193721295,2269.5191575471017,2251.0990566329347,288.5658394536988,6.861463272639413,0.0,8.9028794248499,22.83640499831462,6.861463272639413,-52.37850180970061,0.0,-75.80980132080663,0.0,0.0,0.0,-11.776766806312022,0.0,4.822923360526049,0.0,0.0,0.0,0.0,0.0,0.0,0.0,0.0,0.0,0.0
28.342000000011655,40.24858889319854,139.98481311641214,3463.2752695983563,2269.5938080323995,2251.173455412463,288.5725681788169,6.732656830569299,0.0,8.95588244028564,22.738614404049105,6.732656830569299,-53.06568982077813,0.0,-75.8509246538777,0.0,0.0,0.0,-11.654075624475949,0.0,4.814725017036141,0.0,0.0,0.0,0.0,0.0,0.0,0.0,0.0,0.0,0.0
28.35300000001167,40.24858905388737,139.9848122798637,3463.1764373339,2269.667048656532,2251.246455876397,288.5791168141141,6.605186861109211,0.0,9.008794951116487,22.642446884827717,6.605186861109211,-53.75138520855151,0.0,-75.89320548658876,0.0,0.0,0.0,-11.533564031483158,0.0,4.806472687470268,0.0,0.0,0.0,0.0,0.0,0.0,0.0,0.0,0.0,0.0
28.364000000011682,40.248589211050025,139.9848114590745,3463.077023577906,2269.738893955678,2251.318072442457,288.58548721154494,6.479029695342578,0.0,9.06161635638389,22.547877914823637,6.479029695342578,-54.435340787940035,0.0,-75.9366943106808,0.0,0.0,0.0,-11.415181086414826,0.0,4.7981651924660484,0.0,0.0,0.0,0.0,0.0,0.0,0.0,0.0,0.0,0.0
28.375000000011696,40.24858936472249,139.98481065388341,3462.9770293362053,2269.8093581985763,2251.3883192634175,288.5916811865455,6.3541622165506535,0.0,9.114346042389737,22.454883465846503,6.3541622165506535,-55.11731362708783,0.0,-75.98144459469567,0.0,0.0,0.0,-11.29887719528551,0.0,4.789801391481806,0.0,0.0,0.0,0.0,0.0,0.0,0.0,0.0,0.0,0.0
28.38600000001171,40.24858951494017,139.9848098641321,3462.8764556214555,2269.878455401224,2251.4572102407647,288.5977005270825,6.230561845698805,0.0,9.166983383120115,22.36343999237411,6.230561845698805,-55.79706548673092,0.0,-76.0275130061787,0.0,0.0,0.0,-11.184604060487922,0.0,4.781380182256363,0.0,0.0,0.0,0.0,0.0,0.0,0.0,0.0,0.0,0.0
28.397000000011722,40.24858966173781,139.98480908966502,3462.775303453272,2269.94619933437,2251.524759033245,288.603546985892,6.108206527470083,0.0,9.219527740663281,22.273524417106092,6.108206527470083,-56.474363236261446,0.0,-76.07495965406459,0.0,0.0,0.0,-11.072314631643776,0.0,4.7729005002923985,0.0,0.0,0.0,0.0,0.0,0.0,0.0,0.0,0.0,0.0
28.408000000011736,40.248589805149564,139.98480833032926,3462.673573858356,2270.0126035347803,2251.5909790675173,288.6092222860003,5.9870747168314615,0.0,9.271978465622086,22.185114117019925,5.9870747168314615,-57.148979244806796,0.0,-76.12384835341699,0.0,0.0,0.0,-10.961963057727345,0.0,4.764361318361854,0.0,0.0,0.0,0.0,0.0,0.0,0.0,0.0,0.0,0.0
28.41900000001175,40.248589945209005,139.9848075859747,3462.5712678706177,2270.077681293881,2251.655883526358,288.61472812339264,5.86714536611946,0.0,9.324334897521062,22.098186909910552,5.86714536611946,-57.82069174585449,0.0,-76.17424691496096,0.0,0.0,0.0,-10.853504640325234,0.0,4.755761646031946,0.0,0.0,0.0,0.0,0.0,0.0,0.0,0.0,0.0,0.0
28.430000000011763,40.24859008194909,139.9848068564538,3462.4683865313,2270.1414456728644,2251.7194853647316,288.6200661604634,5.7483979126335045,0.0,9.376596365208426,22.01272104139585,5.7483979126335045,-58.48928517417259,0.0,-76.22622746215791,0.0,0.0,0.0,-10.746895787890729,0.0,4.747100529210394,0.0,0.0,0.0,0.0,0.0,0.0,0.0,0.0,0.0,0.0
28.441000000011776,40.24859021540223,139.98480614162145,3462.364930889087,2270.20390951672,2251.781797323079,288.6252380327212,5.6308122667269025,0.0,9.428762187253186,21.928695172370638,5.6308122667269025,-59.154550473998725,0.0,-76.27986677892532,0.0,0.0,0.0,-10.642093970845039,0.0,4.738377049708515,0.0,0.0,0.0,0.0,0.0,0.0,0.0,0.0,0.0,0.0
28.45200000001179,40.248590345600284,139.9848054413351,3462.2609020002214,2270.265085446621,2251.8428319197924,288.63024534757795,5.514368800387009,0.0,9.48083167233756,21.846088366892996,5.514368800387009,-59.81628537769475,0.0,-76.33524669150901,0.0,0.0,0.0,-10.53905767736924,0.0,4.729590324820925,0.0,0.0,0.0,0.0,0.0,0.0,0.0,0.0,0.0,0.0
28.463000000011803,40.24859047257454,139.98480475545475,3462.156300928604,2270.3249858599183,2251.902601451214,288.6350896843491,5.39904833629791,0.0,9.532804119644835,21.76488008048706,5.39904833629791,-60.474294654286446,0.0,-76.39245448848213,0.0,0.0,0.0,-10.4377463697204,0.0,4.720739506920695,0.0,0.0,0.0,0.0,0.0,0.0,0.0,0.0,0.0,0.0
28.474000000011817,40.248590596355776,139.98480408384256,3462.0511287459044,2270.3836229546546,2251.9611180162315,288.63977259516315,5.284832137380862,0.0,9.584678819242875,21.685050148847267,5.284832137380862,-61.12839032752502,0.0,-76.45158338338135,0.0,0.0,0.0,-10.33812044089272,0.0,4.711823783068746,0.0,0.0,0.0,0.0,0.0,0.0,0.0,0.0,0.0,0.0
28.48500000001183,40.24859071697425,139.98480342636321,3461.9453865316495,2270.441008713559,2252.0183934997026,288.6442956083874,5.171701896809782,0.0,9.636455052463418,21.606578776929666,5.171701896809782,-61.77839186331791,0.0,-76.51273302511031,0.0,0.0,0.0,-10.24014117142836,0.0,4.702842374636412,0.0,0.0,0.0,0.0,0.0,0.0,0.0,0.0,0.0,0.0
28.496000000011843,40.24859083445971,139.98480278288346,3461.8390753733256,2270.497154931861,2252.074439601078,288.64866022409507,5.059639728501301,0.0,9.68813209227728,21.52944652841633,5.059639728501301,-62.424126326576506,0.0,-76.57601006195743,0.0,0.0,0.0,-10.143770686163927,0.0,4.693794536940153,0.0,0.0,0.0,0.0,0.0,0.0,0.0,0.0,0.0,0.0
28.507000000011857,40.248590948841404,139.98480215327245,3461.7321963664617,2270.552073194114,2252.129267810553,288.6528679178422,4.948628158081429,0.0,9.739709203665623,21.453634315539745,4.948628158081429,-63.065428507718416,0.0,-76.64152876590626,0.0,0.0,0.0,-10.04897191067483,0.0,4.684679558887365,0.0,0.0,0.0,0.0,0.0,0.0,0.0,0.0,0.0,0.0
28.51800000001187,40.24859106014809,139.9848015374015,3461.6247506147206,2270.605774893846,2252.1828894287596,288.656920141553,4.8386501143335705,0.0,9.79118564398738,21.379123389254268,4.8386501143335705,-63.70214101923621,0.0,-76.70941172488287,0.0,0.0,0.0,-9.955708527151904,0.0,4.675496762632411,0.0,0.0,0.0,0.0,0.0,0.0,0.0,0.0,0.0,0.0
28.529000000011884,40.24859116840804,139.98480093514394,3461.5167392299772,2270.658271242611,2252.2353155761953,288.6608183212257,4.729688921135791,0.0,9.842560663342955,21.305895329742516,4.729688921135791,-64.3341143629056,0.0,-76.77979061171177,0.0,0.0,0.0,-9.863944929410696,0.0,4.666245503241903,0.0,0.0,0.0,0.0,0.0,0.0,0.0,0.0,0.0,0.0
28.540000000011897,40.24859127364909,139.98480034637524,3461.4081633323967,2270.7095732662374,2252.2865571889347,288.6645638608146,4.621728289898714,0.0,9.8938335049343,21.233932037244937,4.621728289898714,-64.96120696834842,0.0,-76.85280703986768,0.0,0.0,0.0,-9.773646176692685,0.0,4.656925168368429,0.0,0.0,0.0,0.0,0.0,0.0,0.0,0.0,0.0,0.0
28.55100000001191,40.248591375898606,139.984799770973,3461.299024050508,2270.7596918001955,2252.336625013867,288.6681581429852,4.514752312519446,0.0,9.945003405421426,21.163215723201183,4.514752312519446,-65.58328520379155,0.0,-76.92861351765335,0.0,0.0,0.0,-9.684777945868642,0.0,4.647535177931865,0.0,0.0,0.0,0.0,0.0,0.0,0.0,0.0,0.0,0.0
28.562000000011924,40.24859147518349,139.98479920881667,3461.1893225212757,2270.8086375192856,2252.385529639454,288.6716025226401,4.408745454871533,0.0,9.99606959527548,21.09372890169251,4.408745454871533,-66.20022335996813,0.0,-77.00737451424602,0.0,0.0,0.0,-9.59730648159442,0.0,4.638074983807544,0.0,0.0,0.0,0.0,0.0,0.0,0.0,0.0,0.0,0.0
28.573000000011938,40.24859157153022,139.9847986597878,3461.079059890163,2270.856420906739,2252.433281463204,288.6748983376776,4.3036925508562796,0.0,10.047031299128413,21.0254543811748,4.3036925508562796,-66.81190360819397,0.0,-77.0892676531917,0.0,0.0,0.0,-9.511198543897635,0.0,4.628544069520484,0.0,0.0,0.0,0.0,0.0,0.0,0.0,0.0,0.0,0.0
28.58400000001195,40.24859166496485,139.9847981237697,3460.9682373111978,2270.90305229318,2252.4798907319687,288.6780469010058,4.199578797046933,0.0,10.097887736119318,20.958375256492058,4.199578797046933,-67.41821593371697,0.0,-77.17448505145035,0.0,0.0,0.0,-9.42642135258618,0.0,4.618941949945027,0.0,0.0,0.0,0.0,0.0,0.0,0.0,0.0,0.0,0.0
28.595000000011964,40.24859175551302,139.98479760064762,3460.8568559470245,2270.9485418389713,2252.525367523364,288.6810495066907,4.096389747964573,0.0,10.148638120237493,20.89247490116082,4.096389747964573,-68.01905804548049,0.0,-77.26323482509065,0.0,0.0,0.0,-9.342942527763622,0.0,4.609268171009194,0.0,0.0,0.0,0.0,0.0,0.0,0.0,0.0,0.0,0.0
28.606000000011978,40.24859184319995,139.98479709030866,3460.744916968967,2270.9928995381797,2252.5697217501597,288.683907426857,3.994111312032994,0.0,10.19928166066228,20.827736959916205,3.994111312032994,-68.61433526346372,0.0,-77.35574278629298,0.0,0.0,0.0,-9.260730025607288,0.0,4.5995223094031505,0.0,0.0,0.0,0.0,0.0,0.0,0.0,0.0,0.0,0.0
28.61700000001199,40.24859192805046,139.98479659264171,3460.632421557075,2271.0361352266455,2252.6129631680615,288.68662191446003,3.892729748270049,0.0,10.249817562099716,20.76414534151054,3.892729748270049,-69.20396038475981,0.0,-77.45225436057154,0.0,0.0,0.0,-9.17975206840729,0.0,4.589703972291161,0.0,0.0,0.0,0.0,0.0,0.0,0.0,0.0,0.0,0.0
28.628000000012005,40.24859201008898,139.98479610753745,3460.519370900169,2271.07825858385,2252.6551013778453,288.68919420134625,3.7922316637849804,0.0,10.300245025116045,20.701684211756106,3.7922316637849804,-69.78785352952778,0.0,-77.55303675821744,0.0,0.0,0.0,-9.099977067671393,0.0,4.579812797026474,0.0,0.0,0.0,0.0,0.0,0.0,0.0,0.0,0.0,0.0
28.639000000012018,40.24859208933955,139.98479563488823,3460.405766195888,2271.1192791386675,2252.696145830746,288.6916255014042,3.692604012165606,0.0,10.35056324646808,20.640337986803598,3.692604012165606,-70.36594196790303,0.0,-77.65838144008603,0.0,0.0,0.0,-9.02137353886288,0.0,4.569848450868628,0.0,0.0,0.0,0.0,0.0,0.0,0.0,0.0,0.0,0.0
28.65000000001203,40.24859216582586,139.98479517458802,3460.2916086507275,2271.1592062784075,2252.7361058378738,288.6939170082711,3.593834092856591,0.0,10.400771419430503,20.58009132664834,3.593834092856591,-70.93815992887501,0.0,-77.76860692523697,0.0,0.0,0.0,-8.94391000604528,0.0,4.559810630702658,0.0,0.0,0.0,0.0,0.0,0.0,0.0,0.0,0.0,0.0
28.661000000012045,40.2485922395712,139.98479472653256,3460.1768994800764,2271.198049232597,2252.7749905535206,288.69606989797836,3.4959095516509295,0.0,10.450868734120059,20.520929128856533,3.4959095516509295,-71.50444839203465,0.0,-77.88406199688296,0.0,0.0,0.0,-8.867554894343872,0.0,4.549699062759719,0.0,0.0,0.0,0.0,0.0,0.0,0.0,0.0,0.0,0.0
28.67200000001206,40.248592310598504,139.9847942906191,3460.0616399082496,2271.235817096375,2252.8128089991333,288.6980853259545,3.3988183824421405,0.0,10.500854377816701,20.462836522504137,3.3988183824421405,-72.0647548629564,0.0,-78.00512937398602,0.0,0.0,0.0,-8.792276407680781,0.0,4.5395135023387,0.0,0.0,0.0,0.0,0.0,0.0,0.0,0.0,0.0,0.0
28.683000000012072,40.24859237893036,139.98479386674654,3459.9458311685175,2271.272518822334,2252.8495700543913,288.69996443244247,3.302548930415642,0.0,10.55072753528165,20.405798862321188,3.302548930415642,-72.61903313280779,0.0,-78.13222992913397,0.0,0.0,0.0,-8.718042388673913,0.0,4.529253733528434,0.0,0.0,0.0,0.0,0.0,0.0,0.0,0.0,0.0,0.0
28.694000000012085,40.248592444589,139.98479345481533,3459.829474503131,2271.3081632217268,2252.885282458974,288.701708338216,3.207089896895754,0.0,10.600487389072441,20.349801723034606,3.207089896895754,-73.16724302256463,0.0,-78.26582754964262,0.0,0.0,0.0,-8.644820156877216,0.0,4.518919568930052,0.0,0.0,0.0,0.0,0.0,0.0,0.0,0.0,0.0,0.0
28.7050000000121,40.24859250759632,139.9847930547274,3459.7125711633457,2271.342758977389,2252.919954825229,288.70331814737773,3.1124303461115446,0.0,10.650133119854877,20.294830893902915,3.1124303461115446,-73.70935011194892,0.0,-78.40643475893741,0.0,0.0,0.0,-8.572576320639813,0.0,4.508510849379154,0.0,0.0,0.0,0.0,0.0,0.0,0.0,0.0,0.0,0.0
28.716000000012112,40.2485925679739,139.9847926663862,3459.5951224094383,2271.376314634688,2252.9535956287555,288.704794949652,3.018559714202705,0.0,10.699663906711937,20.24087237343628,3.018559714202705,-74.24532545288588,0.0,-78.55461924017685,0.0,0.0,0.0,-8.501276556717508,0.0,4.498027443667493,0.0,0.0,0.0,0.0,0.0,0.0,0.0,0.0,0.0,0.0
28.727000000012126,40.24859262574298,139.98479228969666,3459.4771295107244,2271.408838612446,2252.9862132199555,288.70613981615224,2.9254678208588736,0.0,10.749078927449638,20.187912364295762,2.9254678208588736,-74.77514526688662,0.0,-78.71101143509304,0.0,0.0,0.0,-8.430885350309296,0.0,4.48746924826377,0.0,0.0,0.0,0.0,0.0,0.0,0.0,0.0,0.0,0.0
28.73800000001214,40.24859268092448,139.98479192456503,3459.3585937455687,2271.440339208464,2253.0178158293056,288.70735380174955,2.8331448840762685,0.0,10.798377358899778,20.135937268365762,2.8331448840762685,-75.29879062528336,0.0,-78.87631342984113,0.0,0.0,0.0,-8.361365686313222,0.0,4.476836187033325,0.0,0.0,0.0,0.0,0.0,0.0,0.0,0.0,0.0,0.0
28.749000000012153,40.248592733539,139.98479157089903,3459.2395164013974,2271.4708245919046,2253.048411559823,288.70843794386354,2.741581538629514,0.0,10.84755837721963,20.084933681993714,2.741581538629514,-75.81624711065466,0.0,-79.0513093885073,0.0,0.0,0.0,-8.292678680167043,0.0,4.466128210956421,0.0,0.0,0.0,0.0,0.0,0.0,0.0,0.0,0.0,0.0
28.760000000012166,40.24859278360685,139.98479122860778,3459.119898774699,2271.5003028099213,2253.0780083929544,288.7093932687375,2.650768859001092,0.0,10.896621158188484,20.03488839139156,2.650768859001092,-76.32750445704399,0.0,-79.23687785677987,0.0,0.0,0.0,-8.224783133477086,0.0,4.455345297844873,0.0,0.0,0.0,0.0,0.0,0.0,0.0,0.0,0.0,0.0
28.77100000001218,40.24859283114803,139.98479089760167,3458.99974217103,2271.5287817926173,2253.1066141946158,288.710220783273,2.5606983876953278,0.0,10.945564877501107,19.98578836819354,2.5606983876953278,-76.83255616565789,0.0,-79.43400633707951,0.0,0.0,0.0,-8.15763499549287,0.0,4.4444874520568,0.0,0.0,0.0,0.0,0.0,0.0,0.0,0.0,0.0,0.0
28.782000000012193,40.248592876182265,139.9847905777925,3458.8790479050153,2271.55626935085,2253.134236711784,288.7109214843806,2.471362170100805,0.0,10.994388711058011,19.937620765164944,2.471362170100805,-77.33139909156915,0.0,-79.64380863746022,0.0,0.0,0.0,-8.091186706010761,0.0,4.433554704209297,0.0,0.0,0.0,0.0,0.0,0.0,0.0,0.0,0.0,0.0
28.793000000012206,40.248592918728974,139.98479026909322,3458.757817300339,2271.582773188363,2253.1608835858146,288.7114963504625,2.3827527973717353,0.0,11.043091835252595,19.890372912056907,2.3827527973717353,-77.82403299547111,0.0,-79.86754562697884,0.0,0.0,0.0,-8.02538638800439,0.0,4.4225471108888135,0.0,0.0,0.0,0.0,0.0,0.0,0.0,0.0,0.0,0.0
28.80400000001222,40.24859295880729,139.98478997141822,3458.636051689742,2271.608300886448,2253.186562336248,288.71194634718165,2.2948634591985098,0.0,11.091673427255024,19.844032311602156,2.2948634591985098,-78.31046005262186,0.0,-80.10665019973463,0.0,0.0,0.0,-7.960176848504994,0.0,4.411464754359128,0.0,0.0,0.0,0.0,0.0,0.0,0.0,0.0,0.0,0.0
28.815000000012233,40.24859299643606,139.984789684683,3458.51375241501,2271.6328599243625,2253.2112803820182,288.7122724225,2.2076880088628013,0.0,11.14013266529294,19.79858663564711,2.2076880088628013,-78.79068430863576,0.0,-80.36275747179913,0.0,0.0,0.0,-7.895494333027621,0.0,4.400307742266702,0.0,0.0,0.0,0.0,0.0,0.0,0.0,0.0,0.0,0.0
28.826000000012247,40.24859303163388,139.9847894088043,3458.3909208269615,2271.656457672279,2253.2350450331605,288.7124755160013,2.1212210436682097,0.0,11.188468728928875,19.75402372141559,2.1212210436682097,-79.26471106851669,0.0,-80.63774152837367,0.0,0.0,0.0,-7.8312669607761105,0.0,4.389076207343338,0.0,0.0,0.0,0.0,0.0,0.0,0.0,0.0,0.0,0.0
28.83700000001226,40.24859306441908,139.98478914370003,3458.2675582854276,2271.6791013964594,2253.2578634969673,288.71255655150856,2.035458004767198,0.0,11.236680799334392,19.710331567899804,2.035458004767198,-79.73254620099125,0.0,-80.93376042875065,0.0,0.0,0.0,-7.767412742954823,0.0,4.377770307105977,0.0,0.0,0.0,0.0,0.0,0.0,0.0,0.0,0.0,0.0
28.848000000012274,40.24859309480971,139.98478888928932,3458.1436661592397,2271.7007982571627,2253.279742875733,288.71251643824235,1.95039530165917,0.0,11.284768059560912,19.667498332374183,1.95039530165917,-80.19419533437879,0.0,-81.25331170080746,0.0,0.0,0.0,-7.703837051824392,0.0,4.366390223553584,0.0,0.0,0.0,0.0,0.0,0.0,0.0,0.0,0.0,0.0
28.859000000012287,40.24859312282359,139.98478864549242,3458.019245826198,2271.7215553148317,2253.300690172386,288.71235607553473,1.8660304683431752,0.0,11.33272969480718,19.62551232702796,1.8660304683431752,-80.6496629123283,0.0,-81.599301267396,0.0,0.0,0.0,-7.6404293592915815,0.0,4.354936162860996,0.0,0.0,0.0,0.0,0.0,0.0,0.0,0.0,0.0,0.0
28.8700000000123,40.24859314847829,139.98478841223064,3457.8942986730563,2271.7413795340644,2253.320712294893,288.7120763497294,1.7823623604611225,0.0,11.38056489268335,19.584362015712397,1.7823623604611225,-81.09895106689598,0.0,-81.97512972002221,0.0,0.0,0.0,-7.577058994246895,0.0,4.343408355069703,0.0,0.0,0.0,0.0,0.0,0.0,0.0,0.0,0.0,0.0
28.881000000012314,40.248593171791114,139.98478818942647,3457.768826095485,2271.7602777783136,2253.339816051113,288.71167813259353,1.699391406042712,0.0,11.428272843471644,19.544036010798767,1.699391406042712,-81.54205825134905,0.0,-82.38480120154397,0.0,0.0,0.0,-7.513569567541354,0.0,4.331807053775483,0.0,0.0,0.0,0.0,0.0,0.0,0.0,0.0,0.0,0.0
28.892000000012327,40.248593192779126,139.98478797700344,3457.642829498048,2271.778256815627,2253.3580081541863,288.7111622844687,1.6171199270785042,0.0,11.475852740383552,19.504523070143264,1.6171199270785042,-81.97897755384948,0.0,-82.83306204318914,0.0,0.0,0.0,-7.449771566943234,0.0,4.32013253581288,0.0,0.0,0.0,0.0,0.0,0.0,0.0,0.0,0.0,0.0
