time_sec,lat_deg,lon_deg,alt_agl_m,u_mps,v_mps,w_mps,true_airspeed_mps,ground_speed_mps,pitch_deg,roll_deg,yaw_deg,p_rad_sec,q_rad_sec,r_rad_sec,ax_mps2,ay_mps2,az_mps2,alpha_deg,beta_deg,qbar_pa,thrust_n,mach
26.983000000,40.248505338,139.985150820,3464.071451,71.615991,0.000000,1.574287,85.801508,71.615991,-1.259292,0.000000,-73.707212,0.000000,0.000000,0.000000,-181.220518,0.000000,6.501755,0.000000,0.000000,0.000000,0.000000,0.000000
26.994000000,40.248507293,139.985142053,3464.053706,69.671874,0.000000,1.645372,83.859087,69.671874,-1.352847,0.000000,-73.712131,0.000000,0.000000,0.000000,-173.087403,0.000000,6.430132,0.000000,0.000000,0.000000,0.000000,0.000000
27.005000000,40.248509196,139.985133522,3464.035184,67.813959,0.000000,1.715698,82.002976,67.813959,-1.449278,0.000000,-73.717096,0.000000,0.000000,0.000000,-165.490470,0.000000,6.363213,0.000000,0.000000,0.000000,0.000000,0.000000
27.016000000,40.248511047,139.985125215,3464.015893,66.036631,0.000000,1.785314,80.227562,66.036631,-1.548626,0.000000,-73.722107,0.000000,0.000000,0.000000,-158.383600,0.000000,6.300593,0.000000,0.000000,0.000000,0.000000,0.000000
27.027000000,40.248512850,139.985117125,3463.995841,64.334751,0.000000,1.854265,78.527706,64.334751,-1.650930,0.000000,-73.727165,0.000000,0.000000,0.000000,-151.725529,0.000000,6.241907,0.000000,0.000000,0.000000,0.000000,0.000000
27.038000000,40.248514606,139.985109240,3463.975033,62.703606,0.000000,1.922592,76.898701,62.703606,-1.756229,0.000000,-73.732271,0.000000,0.000000,0.000000,-145.479248,0.000000,6.186832,0.000000,0.000000,0.000000,0.000000,0.000000
27.049000000,40.248516318,139.985101554,3463.953478,61.138871,0.000000,1.990334,75.336222,61.138871,-1.864566,0.000000,-73.737425,0.000000,0.000000,0.000000,-139.611490,0.000000,6.135074,0.000000,0.000000,0.000000,0.000000,0.000000
27.060000000,40.248517987,139.985094058,3463.931180,59.636564,0.000000,2.057525,73.836289,59.636564,-1.975981,0.000000,-73.742628,0.000000,0.000000,0.000000,-134.092278,0.000000,6.086369,0.000000,0.000000,0.000000,0.000000,0.000000
27.071000000,40.248519614,139.985086744,3463.908147,58.193016,0.000000,2.124197,72.395236,58.193016,-2.090517,0.000000,-73.747882,0.000000,0.000000,0.000000,-128.894551,0.000000,6.040480,0.000000,0.000000,0.000000,0.000000,0.000000
27.082000000,40.248521202,139.985079606,3463.884384,56.804840,0.000000,2.190380,71.009678,56.804840,-2.208217,0.000000,-73.753186,0.000000,0.000000,0.000000,-123.993820,0.000000,5.997192,0.000000,0.000000,0.000000,0.000000,0.000000
27.093000000,40.248522752,139.985072636,3463.859895,55.468904,0.000000,2.256102,69.676485,55.468904,-2.329123,0.000000,-73.758541,0.000000,0.000000,0.000000,-119.367890,0.000000,5.956308,0.000000,0.000000,0.000000,0.000000,0.000000
27.104000000,40.248524265,139.985065829,3463.834685,54.182307,0.000000,2.321388,68.392758,54.182307,-2.453281,0.000000,-73.763949,0.000000,0.000000,0.000000,-114.996598,0.000000,5.917651,0.000000,0.000000,0.000000,0.000000,0.000000
27.115000000,40.248525743,139.985059178,3463.808760,52.942362,0.000000,2.386260,67.155812,52.942362,-2.580734,0.000000,-73.769410,0.000000,0.000000,0.000000,-110.861602,0.000000,5.881059,0.000000,0.000000,0.000000,0.000000,0.000000
27.126000000,40.248527187,139.985052679,3463.782124,51.746569,0.000000,2.450742,65.963151,51.746569,-2.711529,0.000000,-73.774925,0.000000,0.000000,0.000000,-106.946180,0.000000,5.846386,0.000000,0.000000,0.000000,0.000000,0.000000
27.137000000,40.248528598,139.985046325,3463.754781,50.592607,0.000000,2.514854,64.812454,50.592607,-2.845712,0.000000,-73.780494,0.000000,0.000000,0.000000,-103.235064,0.000000,5.813497,0.000000,0.000000,0.000000,0.000000,0.000000
27.148000000,40.248529977,139.985040111,3463.726735,49.478313,0.000000,2.578613,63.701562,49.478313,-2.983330,0.000000,-73.786119,0.000000,0.000000,0.000000,-99.714293,0.000000,5.782268,0.000000,0.000000,0.000000,0.000000,0.000000
27.159000000,40.248531326,139.985034033,3463.697989,48.401671,0.000000,2.642039,62.628459,48.401671,-3.124429,0.000000,-73.791800,0.000000,0.000000,0.000000,-96.371078,0.000000,5.752587,0.000000,0.000000,0.000000,0.000000,0.000000
27.170000000,40.248532645,139.985028087,3463.668548,47.360799,0.000000,2.705147,61.591268,47.360799,-3.269059,0.000000,-73.797538,0.000000,0.000000,0.000000,-93.193687,0.000000,5.724350,0.000000,0.000000,0.000000,0.000000,0.000000
27.181000000,40.248533935,139.985022267,3463.638414,46.353939,0.000000,2.767952,60.588231,46.353939,-3.417269,0.000000,-73.803335,0.000000,0.000000,0.000000,-90.171340,0.000000,5.697462,0.000000,0.000000,0.000000,0.000000,0.000000
27.192000000,40.248535198,139.985016571,3463.607591,45.379445,0.000000,2.830469,59.617706,45.379445,-3.569107,0.000000,-73.809190,0.000000,0.000000,0.000000,-87.294123,0.000000,5.671836,0.000000,0.000000,0.000000,0.000000,0.000000
27.203000000,40.248536434,139.985010993,3463.576083,44.435777,0.000000,2.892712,58.678154,44.435777,-3.724626,0.000000,-73.815106,0.000000,0.000000,0.000000,-84.552899,0.000000,5.647390,0.000000,0.000000,0.000000,0.000000,0.000000
27.214000000,40.248537644,139.985005530,3463.543891,43.521489,0.000000,2.954692,57.768131,43.521489,-3.883874,0.000000,-73.821083,0.000000,0.000000,0.000000,-81.939241,0.000000,5.624050,0.000000,0.000000,0.000000,0.000000,0.000000
27.225000000,40.248538828,139.985000179,3463.511018,42.635226,0.000000,3.016422,56.886286,42.635226,-4.046905,0.000000,-73.827122,0.000000,0.000000,0.000000,-79.445365,0.000000,5.601746,0.000000,0.000000,0.000000,0.000000,0.000000
27.236000000,40.248539989,139.984994936,3463.477469,41.775714,0.000000,3.077912,56.031345,41.775714,-4.213771,0.000000,-73.833223,0.000000,0.000000,0.000000,-77.064071,0.000000,5.580417,0.000000,0.000000,0.000000,0.000000,0.000000
27.247000000,40.248541125,139.984989798,3463.443244,40.941755,0.000000,3.139173,55.202114,40.941755,-4.384525,0.000000,-73.839389,0.000000,0.000000,0.000000,-74.788694,0.000000,5.560001,0.000000,0.000000,0.000000,0.000000,0.000000
27.258000000,40.248542239,139.984984762,3463.408347,40.132221,0.000000,3.200215,54.397466,40.132221,-4.559221,0.000000,-73.845620,0.000000,0.000000,0.000000,-72.613054,0.000000,5.540445,0.000000,0.000000,0.000000,0.000000,0.000000
27.269000000,40.248543330,139.984979825,3463.372779,39.346050,0.000000,3.261047,53.616342,39.346050,-4.737913,0.000000,-73.851917,0.000000,0.000000,0.000000,-70.531416,0.000000,5.521697,0.000000,0.000000,0.000000,0.000000,0.000000
27.280000000,40.248544400,139.984974984,3463.336544,38.582241,0.000000,3.321677,52.857742,38.582241,-4.920656,0.000000,-73.858281,0.000000,0.000000,0.000000,-68.538451,0.000000,5.503710,0.000000,0.000000,0.000000,0.000000,0.000000
27.291000000,40.248545448,139.984970236,3463.299642,37.839847,0.000000,3.382114,52.120724,37.839847,-5.107507,0.000000,-73.864714,0.000000,0.000000,0.000000,-66.629203,0.000000,5.486439,0.000000,0.000000,0.000000,0.000000,0.000000
27.302000000,40.248546476,139.984965579,3463.262077,37.117977,0.000000,3.442364,51.404396,37.117977,-5.298521,0.000000,-73.871216,0.000000,0.000000,0.000000,-64.799059,0.000000,5.469845,0.000000,0.000000,0.000000,0.000000,0.000000
27.313000000,40.248547484,139.984961011,3463.223851,36.415785,0.000000,3.502436,50.707916,36.415785,-5.493756,0.000000,-73.877789,0.000000,0.000000,0.000000,-63.043717,0.000000,5.453887,0.000000,0.000000,0.000000,0.000000,0.000000
27.324000000,40.248548473,139.984956528,3463.184964,35.732474,0.000000,3.562336,50.030489,35.732474,-5.693270,0.000000,-73.884434,0.000000,0.000000,0.000000,-61.359167,0.000000,5.438531,0.000000,0.000000,0.000000,0.000000,0.000000
27.335000000,40.248549443,139.984952129,3463.145420,35.067288,0.000000,3.622071,49.371360,35.067288,-5.897121,0.000000,-73.891152,0.000000,0.000000,0.000000,-59.741660,0.000000,5.423743,0.000000,0.000000,0.000000,0.000000,0.000000
27.346000000,40.248550395,139.984947811,3463.105220,34.419510,0.000000,3.681646,48.729816,34.419510,-6.105368,0.000000,-73.897944,0.000000,0.000000,0.000000,-58.187697,0.000000,5.409492,0.000000,0.000000,0.000000,0.000000,0.000000
27.357000000,40.248551328,139.984943573,3463.064365,33.788460,0.000000,3.741068,48.105179,33.788460,-6.318071,0.000000,-73.904812,0.000000,0.000000,0.000000,-56.694001,0.000000,5.395748,0.000000,0.000000,0.000000,0.000000,0.000000
27.368000000,40.248552244,139.984939412,3463.022857,33.173496,0.000000,3.800341,47.496807,33.173496,-6.535289,0.000000,-73.911757,0.000000,0.000000,0.000000,-55.257504,0.000000,5.382483,0.000000,0.000000,0.000000,0.000000,0.000000
27.379000000,40.248553144,139.984935326,3462.980699,32.574005,0.000000,3.859471,46.904091,32.574005,-6.757083,0.000000,-73.918781,0.000000,0.000000,0.000000,-53.875333,0.000000,5.369672,0.000000,0.000000,0.000000,0.000000,0.000000
27.390000000,40.248554026,139.984931313,3462.937891,31.989405,0.000000,3.918463,46.326452,31.989405,-6.983515,0.000000,-73.925884,0.000000,0.000000,0.000000,-52.544792,0.000000,5.357290,0.000000,0.000000,0.000000,0.000000,0.000000
27.401000000,40.248554893,139.984927373,3462.894434,31.419144,0.000000,3.977321,45.763339,31.419144,-7.214645,0.000000,-73.933068,0.000000,0.000000,0.000000,-51.263350,0.000000,5.345314,0.000000,0.000000,0.000000,0.000000,0.000000
27.412000000,40.248555743,139.984923502,3462.850331,30.862697,0.000000,4.036049,45.214229,30.862697,-7.450537,0.000000,-73.940336,0.000000,0.000000,0.000000,-50.028629,0.000000,5.333724,0.000000,0.000000,0.000000,0.000000,0.000000
27.423000000,40.248556579,139.984919699,3462.805583,30.319563,0.000000,4.094652,44.678623,30.319563,-7.691253,0.000000,-73.947687,0.000000,0.000000,0.000000,-48.838396,0.000000,5.322498,0.000000,0.000000,0.000000,0.000000,0.000000
27.434000000,40.248557399,139.984915962,3462.760191,29.789266,0.000000,4.153134,44.156046,29.789266,-7.936854,0.000000,-73.955124,0.000000,0.000000,0.000000,-47.690546,0.000000,5.311617,0.000000,0.000000,0.000000,0.000000,0.000000
27.445000000,40.248558205,139.984912291,3462.714156,29.271350,0.000000,4.211498,43.646048,29.271350,-8.187406,0.000000,-73.962648,0.000000,0.000000,0.000000,-46.583100,0.000000,5.301064,0.000000,0.000000,0.000000,0.000000,0.000000
27.456000000,40.248558996,139.984908683,3462.667480,28.765384,0.000000,4.269748,43.148196,28.765384,-8.442970,0.000000,-73.970262,0.000000,0.000000,0.000000,-45.514192,0.000000,5.290821,0.000000,0.000000,0.000000,0.000000,0.000000
27.467000000,40.248559773,139.984905138,3462.620164,28.270953,0.000000,4.327887,42.662080,28.270953,-8.703612,0.000000,-73.977965,0.000000,0.000000,0.000000,-44.482064,0.000000,5.280872,0.000000,0.000000,0.000000,0.000000,0.000000
27.478000000,40.248560537,139.984901653,3462.572209,27.787663,0.000000,4.385919,42.187307,27.787663,-8.969394,0.000000,-73.985761,0.000000,0.000000,0.000000,-43.485055,0.000000,5.271202,0.000000,0.000000,0.000000,0.000000,0.000000
27.489000000,40.248561287,139.984898227,3462.523616,27.315138,0.000000,4.443845,41.723502,27.315138,-9.240381,0.000000,-73.993651,0.000000,0.000000,0.000000,-42.521599,0.000000,5.261796,0.000000,0.000000,0.000000,0.000000,0.000000
27.500000000,40.248562024,139.984894859,3462.474387,26.853018,0.000000,4.501670,41.270307,26.853018,-9.516637,0.000000,-74.001637,0.000000,0.000000,0.000000,-41.590216,0.000000,5.252642,0.000000,0.000000,0.000000,0.000000,0.000000
27.511000000,40.248562749,139.984891548,3462.424522,26.400957,0.000000,4.559395,40.827381,26.400957,-9.798226,0.000000,-74.009720,0.000000,0.000000,0.000000,-40.689504,0.000000,5.243724,0.000000,0.000000,0.000000,0.000000,0.000000
27.522000000,40.248563461,139.984888292,3462.374023,25.958626,0.000000,4.617024,40.394395,25.958626,-10.085213,0.000000,-74.017903,0.000000,0.000000,0.000000,-39.818142,0.000000,5.235032,0.000000,0.000000,0.000000,0.000000,0.000000
27.533000000,40.248564160,139.984885091,3462.322890,25.525711,0.000000,4.674558,39.971037,25.525711,-10.377661,0.000000,-74.026187,0.000000,0.000000,0.000000,-38.974875,0.000000,5.226554,0.000000,0.000000,0.000000,0.000000,0.000000
27.544000000,40.248564848,139.984881942,3462.271125,25.101910,0.000000,4.732000,39.557006,25.101910,-10.675635,0.000000,-74.034574,0.000000,0.000000,0.000000,-38.158516,0.000000,5.218278,0.000000,0.000000,0.000000,0.000000,0.000000
27.555000000,40.248565524,139.984878846,3462.218729,24.686933,0.000000,4.789353,39.152015,24.686933,-10.979198,0.000000,-74.043067,0.000000,0.000000,0.000000,-37.367940,0.000000,5.210194,0.000000,0.000000,0.000000,0.000000,0.000000
27.566000000,40.248566188,139.984875801,3462.165702,24.280502,0.000000,4.846617,38.755790,24.280502,-11.288414,0.000000,-74.051667,0.000000,0.000000,0.000000,-36.602081,0.000000,5.202292,0.000000,0.000000,0.000000,0.000000,0.000000
27.577000000,40.248566841,139.984872805,3462.112046,23.882353,0.000000,4.903796,38.368066,23.882353,-11.603345,0.000000,-74.060377,0.000000,0.000000,0.000000,-35.859927,0.000000,5.194562,0.000000,0.000000,0.000000,0.000000,0.000000
27.588000000,40.248567484,139.984869859,3462.057762,23.492231,0.000000,4.960891,37.988591,23.492231,-11.924053,0.000000,-74.069199,0.000000,0.000000,0.000000,-35.140516,0.000000,5.186994,0.000000,0.000000,0.000000,0.000000,0.000000
27.599000000,40.248568115,139.984866960,3462.002850,23.109890,0.000000,5.017903,37.617121,23.109890,-12.250601,0.000000,-74.078135,0.000000,0.000000,0.000000,-34.442938,0.000000,5.179581,0.000000,0.000000,0.000000,0.000000,0.000000
27.610000000,40.248568736,139.984864108,3461.947312,22.735096,0.000000,5.074835,37.253424,22.735096,-12.583050,0.000000,-74.087187,0.000000,0.000000,0.000000,-33.766323,0.000000,5.172314,0.000000,0.000000,0.000000,0.000000,0.000000
27.621000000,40.248569346,139.984861302,3461.891147,22.367623,0.000000,5.131687,36.897276,22.367623,-12.921459,0.000000,-74.096358,0.000000,0.000000,0.000000,-33.109849,0.000000,5.165184,0.000000,0.000000,0.000000,0.000000,0.000000
27.632000000,40.248569946,139.984858542,3461.834358,22.007255,0.000000,5.188462,36.548462,22.007255,-13.265888,0.000000,-74.105651,0.000000,0.000000,0.000000,-32.472730,0.000000,5.158185,0.000000,0.000000,0.000000,0.000000,0.000000
27.643000000,40.248570536,139.984855826,3461.776945,21.653783,0.000000,5.245161,36.206775,21.653783,-13.616396,0.000000,-74.115067,0.000000,0.000000,0.000000,-31.854221,0.000000,5.151308,0.000000,0.000000,0.000000,0.000000,0.000000
27.654000000,40.248571117,139.984853153,3461.718908,21.307006,0.000000,5.301785,35.872018,21.307006,-13.973038,0.000000,-74.124609,0.000000,0.000000,0.000000,-31.253611,0.000000,5.144547,0.000000,0.000000,0.000000,0.000000,0.000000
27.665000000,40.248571687,139.984850523,3461.660249,20.966732,0.000000,5.358335,35.543998,20.966732,-14.335871,0.000000,-74.134281,0.000000,0.000000,0.000000,-30.670222,0.000000,5.137895,0.000000,0.000000,0.000000,0.000000,0.000000
27.676000000,40.248572249,139.984847934,3461.600968,20.632775,0.000000,5.414812,35.222533,20.632775,-14.704949,0.000000,-74.144084,0.000000,0.000000,0.000000,-30.103409,0.000000,5.131346,0.000000,0.000000,0.000000,0.000000,0.000000
27.687000000,40.248572801,139.984845387,3461.541067,20.304957,0.000000,5.471218,34.907445,20.304957,-15.080324,0.000000,-74.154022,0.000000,0.000000,0.000000,-29.552557,0.000000,5.124894,0.000000,0.000000,0.000000,0.000000,0.000000
27.698000000,40.248573343,139.984842880,3461.480545,19.983105,0.000000,5.527554,34.598564,19.983105,-15.462048,0.000000,-74.164098,0.000000,0.000000,0.000000,-29.017080,0.000000,5.118532,0.000000,0.000000,0.000000,0.000000,0.000000
27.709000000,40.248573877,139.984840412,3461.419405,19.667054,0.000000,5.583820,34.295727,19.667054,-15.850169,0.000000,-74.174315,0.000000,0.000000,0.000000,-28.496415,0.000000,5.112254,0.000000,0.000000,0.000000,0.000000,0.000000
27.720000000,40.248574403,139.984837984,3461.357645,19.356645,0.000000,5.640017,33.998775,19.356645,-16.244734,0.000000,-74.184675,0.000000,0.000000,0.000000,-27.990030,0.000000,5.106056,0.000000,0.000000,0.000000,0.000000,0.000000
27.731000000,40.248574919,139.984835593,3461.295268,19.051722,0.000000,5.696147,33.707556,19.051722,-16.645787,0.000000,-74.195181,0.000000,0.000000,0.000000,-27.497412,0.000000,5.099933,0.000000,0.000000,0.000000,0.000000,0.000000
27.742000000,40.248575427,139.984833240,3461.232274,18.752139,0.000000,5.752210,33.421922,18.752139,-17.053371,0.000000,-74.205839,0.000000,0.000000,0.000000,-27.018074,0.000000,5.093878,0.000000,0.000000,0.000000,0.000000,0.000000
27.753000000,40.248575927,139.984830924,3461.168664,18.457751,0.000000,5.808207,33.141734,18.457751,-17.467525,0.000000,-74.216649,0.000000,0.000000,0.000000,-26.551548,0.000000,5.087887,0.000000,0.000000,0.000000,0.000000,0.000000
27.764000000,40.248576419,139.984828644,3461.104438,18.168419,0.000000,5.864138,32.866853,18.168419,-17.888286,0.000000,-74.227617,0.000000,0.000000,0.000000,-26.097389,0.000000,5.081956,0.000000,0.000000,0.000000,0.000000,0.000000
27.775000000,40.248576903,139.984826400,3461.039597,17.884012,0.000000,5.920004,32.597149,17.884012,-18.315687,0.000000,-74.238745,0.000000,0.000000,0.000000,-25.655168,0.000000,5.076080,0.000000,0.000000,0.000000,0.000000,0.000000
27.786000000,40.248577378,139.984824191,3460.974142,17.604400,0.000000,5.975806,32.332493,17.604400,-18.749759,0.000000,-74.250038,0.000000,0.000000,0.000000,-25.224478,0.000000,5.070254,0.000000,0.000000,0.000000,0.000000,0.000000
27.797000000,40.248577846,139.984822016,3460.908074,17.329458,0.000000,6.031544,32.072763,17.329458,-19.190529,0.000000,-74.261499,0.000000,0.000000,0.000000,-24.804926,0.000000,5.064474,0.000000,0.000000,0.000000,0.000000,0.000000
27.808000000,40.248578307,139.984819875,3460.841393,17.059066,0.000000,6.087219,31.817840,17.059066,-19.638021,0.000000,-74.273132,0.000000,0.000000,0.000000,-24.396137,0.000000,5.058737,0.000000,0.000000,0.000000,0.000000,0.000000
27.819000000,40.248578759,139.984817767,3460.774100,16.793108,0.000000,6.142831,31.567610,16.793108,-20.092254,0.000000,-74.284941,0.000000,0.000000,0.000000,-23.997753,0.000000,5.053037,0.000000,0.000000,0.000000,0.000000,0.000000
27.830000000,40.248579205,139.984815692,3460.706195,16.531472,0.000000,6.198380,31.321962,16.531472,-20.553244,0.000000,-74.296930,0.000000,0.000000,0.000000,-23.609428,0.000000,5.047373,0.000000,0.000000,0.000000,0.000000,0.000000
27.841000000,40.248579643,139.984813649,3460.637680,16.274048,0.000000,6.253867,31.080787,16.274048,-21.021002,0.000000,-74.309105,0.000000,0.000000,0.000000,-23.230833,0.000000,5.041739,0.000000,0.000000,0.000000,0.000000,0.000000
27.852000000,40.248580074,139.984811638,3460.568555,16.020732,0.000000,6.309293,30.843984,16.020732,-21.495536,0.000000,-74.321469,0.000000,0.000000,0.000000,-22.861650,0.000000,5.036132,0.000000,0.000000,0.000000,0.000000,0.000000
27.863000000,40.248580498,139.984809658,3460.498821,15.771423,0.000000,6.364657,30.611450,15.771423,-21.976848,0.000000,-74.334026,0.000000,0.000000,0.000000,-22.501575,0.000000,5.030549,0.000000,0.000000,0.000000,0.000000,0.000000
27.874000000,40.248580915,139.984807708,3460.428477,15.526021,0.000000,6.419959,30.383090,15.526021,-22.464936,0.000000,-74.346782,0.000000,0.000000,0.000000,-22.150317,0.000000,5.024986,0.000000,0.000000,0.000000,0.000000,0.000000
27.885000000,40.248581325,139.984805789,3460.357526,15.284431,0.000000,6.475201,30.158810,15.284431,-22.959790,0.000000,-74.359742,0.000000,0.000000,0.000000,-21.807595,0.000000,5.019440,0.000000,0.000000,0.000000,0.000000,0.000000
27.896000000,40.248581729,139.984803900,3460.285968,15.046562,0.000000,6.530381,29.938518,15.046562,-23.461400,0.000000,-74.372911,0.000000,0.000000,0.000000,-21.473139,0.000000,5.013908,0.000000,0.000000,0.000000,0.000000,0.000000
27.907000000,40.248582126,139.984802040,3460.213803,14.812323,0.000000,6.585501,29.722125,14.812323,-23.969745,0.000000,-74.386294,0.000000,0.000000,0.000000,-21.146692,0.000000,5.008387,0.000000,0.000000,0.000000,0.000000,0.000000
27.918000000,40.248582516,139.984800208,3460.141032,14.581629,0.000000,6.640560,29.509548,14.581629,-24.484802,0.000000,-74.399896,0.000000,0.000000,0.000000,-20.828004,0.000000,5.002874,0.000000,0.000000,0.000000,0.000000,0.000000
27.929000000,40.248582900,139.984798405,3460.067656,14.354394,0.000000,6.695559,29.300704,14.354394,-25.006541,0.000000,-74.413723,0.000000,0.000000,0.000000,-20.516836,0.000000,4.997366,0.000000,0.000000,0.000000,0.000000,0.000000
27.940000000,40.248583278,139.984796631,3459.993675,14.130539,0.000000,6.750497,29.095511,14.130539,-25.534924,0.000000,-74.427782,0.000000,0.000000,0.000000,-20.212958,0.000000,4.991860,0.000000,0.000000,0.000000,0.000000,0.000000
27.951000000,40.248583649,139.984794883,3459.919090,13.909983,0.000000,6.805374,28.893892,13.909983,-26.069910,0.000000,-74.442078,0.000000,0.000000,0.000000,-19.916150,0.000000,4.986354,0.000000,0.000000,0.000000,0.000000,0.000000
27.962000000,40.248584015,139.984793163,3459.843902,13.692652,0.000000,6.860191,28.695773,13.692652,-26.611448,0.000000,-74.456617,0.000000,0.000000,0.000000,-19.626197,0.000000,4.980845,0.000000,0.000000,0.000000,0.000000,0.000000
27.973000000,40.248584374,139.984791470,3459.768112,13.478469,0.000000,6.914947,28.501079,13.478469,-27.159482,0.000000,-74.471406,0.000000,0.000000,0.000000,-19.342895,0.000000,4.975330,0.000000,0.000000,0.000000,0.000000,0.000000
27.984000000,40.248584727,139.984789803,3459.691719,13.267364,0.000000,6.969643,28.309740,13.267364,-27.713950,0.000000,-74.486452,0.000000,0.000000,0.000000,-19.066046,0.000000,4.969807,0.000000,0.000000,0.000000,0.000000,0.000000
27.995000000,40.248585075,139.984788162,3459.614725,13.059267,0.000000,7.024278,28.121688,13.059267,-28.274781,0.000000,-74.501762,0.000000,0.000000,0.000000,-18.795460,0.000000,4.964273,0.000000,0.000000,0.000000,0.000000,0.000000
28.006000000,40.248585417,139.984786547,3459.537130,12.854109,0.000000,7.078851,27.936854,12.854109,-28.841897,0.000000,-74.517343,0.000000,0.000000,0.000000,-18.530955,0.000000,4.958726,0.000000,0.000000,0.000000,0.000000,0.000000
28.017000000,40.248585753,139.984784956,3459.458936,12.651825,0.000000,7.133364,27.755175,12.651825,-29.415214,0.000000,-74.533202,0.000000,0.000000,0.000000,-18.272352,0.000000,4.953164,0.000000,0.000000,0.000000,0.000000,0.000000
28.028000000,40.248586083,139.984783391,3459.380142,12.452352,0.000000,7.187815,27.576588,12.452352,-29.994639,0.000000,-74.549348,0.000000,0.000000,0.000000,-18.019483,0.000000,4.947585,0.000000,0.000000,0.000000,0.000000,0.000000
28.039000000,40.248586408,139.984781851,3459.300750,12.255626,0.000000,7.242205,27.401030,12.255626,-30.580073,0.000000,-74.565788,0.000000,0.000000,0.000000,-17.772182,0.000000,4.941985,0.000000,0.000000,0.000000,0.000000,0.000000
28.050000000,40.248586727,139.984780335,3459.220760,12.061588,0.000000,7.296533,27.228443,12.061588,-31.171408,0.000000,-74.582532,0.000000,0.000000,0.000000,-17.530292,0.000000,4.936364,0.000000,0.000000,0.000000,0.000000,0.000000
28.061000000,40.248587041,139.984778842,3459.140172,11.870180,0.000000,7.350800,27.058769,11.870180,-31.768528,0.000000,-74.599587,0.000000,0.000000,0.000000,-17.293659,0.000000,4.930719,0.000000,0.000000,0.000000,0.000000,0.000000
28.072000000,40.248587350,139.984777373,3459.058988,11.681343,0.000000,7.405003,26.891952,11.681343,-32.371310,0.000000,-74.616963,0.000000,0.000000,0.000000,-17.062136,0.000000,4.925048,0.000000,0.000000,0.000000,0.000000,0.000000
28.083000000,40.248587653,139.984775928,3458.977208,11.495023,0.000000,7.459145,26.727937,11.495023,-32.979624,0.000000,-74.634669,0.000000,0.000000,0.000000,-16.835581,0.000000,4.919350,0.000000,0.000000,0.000000,0.000000,0.000000
28.094000000,40.248587951,139.984774505,3458.894833,11.311167,0.000000,7.513223,26.566670,11.311167,-33.593330,0.000000,-74.652715,0.000000,0.000000,0.000000,-16.613855,0.000000,4.913621,0.000000,0.000000,0.000000,0.000000,0.000000
28.105000000,40.248588244,139.984773105,3458.811863,11.129720,0.000000,7.567239,26.408101,11.129720,-34.212283,0.000000,-74.671111,0.000000,0.000000,0.000000,-16.396827,0.000000,4.907861,0.000000,0.000000,0.000000,0.000000,0.000000
28.116000000,40.248588532,139.984771728,3458.728300,10.950634,0.000000,7.621190,26.252178,10.950634,-34.836327,0.000000,-74.689869,0.000000,0.000000,0.000000,-16.184367,0.000000,4.902067,0.000000,0.000000,0.000000,0.000000,0.000000
28.127000000,40.248588815,139.984770372,3458.644143,10.773858,0.000000,7.675078,26.098854,10.773858,-35.465301,0.000000,-74.708999,0.000000,0.000000,0.000000,-15.976353,0.000000,4.896238,0.000000,0.000000,0.000000,0.000000,0.000000
28.138000000,40.248589093,139.984769039,3458.559395,10.599344,0.000000,7.728902,25.948079,10.599344,-36.099036,0.000000,-74.728512,0.000000,0.000000,0.000000,-15.772663,0.000000,4.890372,0.000000,0.000000,0.000000,0.000000,0.000000
28.149000000,40.248589366,139.984767727,3458.474054,10.427046,0.000000,7.782660,25.799808,10.427046,-36.737355,0.000000,-74.748422,0.000000,0.000000,0.000000,-15.573182,0.000000,4.884467,0.000000,0.000000,0.000000,0.000000,0.000000
28.160000000,40.248589635,139.984766436,3458.388122,10.256916,0.000000,7.836354,25.653995,10.256916,-37.380073,0.000000,-74.768739,0.000000,0.000000,0.000000,-15.377798,0.000000,4.878522,0.000000,0.000000,0.000000,0.000000,0.000000
28.171000000,40.248589899,139.984765166,3458.301601,10.088913,0.000000,7.889982,25.510597,10.088913,-38.027000,0.000000,-74.789478,0.000000,0.000000,0.000000,-15.186402,0.000000,4.872535,0.000000,0.000000,0.000000,0.000000,0.000000
28.182000000,40.248590158,139.984763917,3458.214490,9.922991,0.000000,7.943543,25.369571,9.922991,-38.677939,0.000000,-74.810652,0.000000,0.000000,0.000000,-14.998890,0.000000,4.866505,0.000000,0.000000,0.000000,0.000000,0.000000
28.193000000,40.248590412,139.984762688,3458.126790,9.759109,0.000000,7.997039,25.230874,9.759109,-39.332684,0.000000,-74.832275,0.000000,0.000000,0.000000,-14.815160,0.000000,4.860429,0.000000,0.000000,0.000000,0.000000,0.000000
28.204000000,40.248590662,139.984761480,3458.038501,9.597225,0.000000,8.050467,25.094466,9.597225,-39.991024,0.000000,-74.854363,0.000000,0.000000,0.000000,-14.635114,0.000000,4.854307,0.000000,0.000000,0.000000,0.000000,0.000000
28.215000000,40.248590907,139.984760291,3457.949626,9.437301,0.000000,8.103827,24.960307,9.437301,-40.652745,0.000000,-74.876930,0.000000,0.000000,0.000000,-14.458656,0.000000,4.848137,0.000000,0.000000,0.000000,0.000000,0.000000
28.226000000,40.248591148,139.984759122,3457.860164,9.279297,0.000000,8.157119,24.828359,9.279297,-41.317622,0.000000,-74.899993,0.000000,0.000000,0.000000,-14.285694,0.000000,4.841917,0.000000,0.000000,0.000000,0.000000,0.000000
28.237000000,40.248591384,139.984757973,3457.770117,9.123174,0.000000,8.210343,24.698583,9.123174,-41.985428,0.000000,-74.923569,0.000000,0.000000,0.000000,-14.116139,0.000000,4.835647,0.000000,0.000000,0.000000,0.000000,0.000000
28.248000000,40.248591617,139.984756843,3457.679484,8.968897,0.000000,8.263497,24.570942,8.968897,-42.655932,0.000000,-74.947677,0.000000,0.000000,0.000000,-13.949905,0.000000,4.829325,0.000000,0.000000,0.000000,0.000000,0.000000
28.259000000,40.248591844,139.984755732,3457.588267,8.816429,0.000000,8.316581,24.445402,8.816429,-43.328896,0.000000,-74.972333,0.000000,0.000000,0.000000,-13.786907,0.000000,4.822949,0.000000,0.000000,0.000000,0.000000,0.000000
28.270000000,40.248592068,139.984754640,3457.496466,8.665735,0.000000,8.369595,24.321925,8.665735,-44.004079,0.000000,-74.997559,0.000000,0.000000,0.000000,-13.627064,0.000000,4.816518,0.000000,0.000000,0.000000,0.000000,0.000000
28.281000000,40.248592287,139.984753566,3457.404083,8.516780,0.000000,8.422538,24.200479,8.516780,-44.681237,0.000000,-75.023374,0.000000,0.000000,0.000000,-13.470298,0.000000,4.810032,0.000000,0.000000,0.000000,0.000000,0.000000
28.292000000,40.248592503,139.984752511,3457.311118,8.369532,0.000000,8.475409,24.081029,8.369532,-45.360121,0.000000,-75.049800,0.000000,0.000000,0.000000,-13.316532,0.000000,4.803488,0.000000,0.000000,0.000000,0.000000,0.000000
28.303000000,40.248592714,139.984751474,3457.217571,8.223958,0.000000,8.528208,23.963543,8.223958,-46.040482,0.000000,-75.076859,0.000000,0.000000,0.000000,-13.165692,0.000000,4.796886,0.000000,0.000000,0.000000,0.000000,0.000000
28.314000000,40.248592921,139.984750455,3457.123445,8.080026,0.000000,8.580934,23.847989,8.080026,-46.722066,0.000000,-75.104576,0.000000,0.000000,0.000000,-13.017706,0.000000,4.790225,0.000000,0.000000,0.000000,0.000000,0.000000
28.325000000,40.248593124,139.984749454,3457.028738,7.937705,0.000000,8.633586,23.734335,7.937705,-47.404620,0.000000,-75.132974,0.000000,0.000000,0.000000,-12.872505,0.000000,4.783502,0.000000,0.000000,0.000000,0.000000,0.000000
28.336000000,40.248593323,139.984748470,3456.933453,7.796964,0.000000,8.686164,23.622552,7.796964,-48.087887,0.000000,-75.162080,0.000000,0.000000,0.000000,-12.730019,0.000000,4.776719,0.000000,0.000000,0.000000,0.000000,0.000000
28.347000000,40.248593518,139.984747504,3456.837590,7.657775,0.000000,8.738667,23.512608,7.657775,-48.771613,0.000000,-75.191921,0.000000,0.000000,0.000000,-12.590184,0.000000,4.769872,0.000000,0.000000,0.000000,0.000000,0.000000
28.358000000,40.248593709,139.984746555,3456.741151,7.520109,0.000000,8.791094,23.404475,7.520109,-49.455540,0.000000,-75.222527,0.000000,0.000000,0.000000,-12.452937,0.000000,4.762962,0.000000,0.000000,0.000000,0.000000,0.000000
28.369000000,40.248593897,139.984745623,3456.644134,7.383937,0.000000,8.843445,23.298125,7.383937,-50.139413,0.000000,-75.253927,0.000000,0.000000,0.000000,-12.318213,0.000000,4.755987,0.000000,0.000000,0.000000,0.000000,0.000000
28.380000000,40.248594081,139.984744707,3456.546543,7.249233,0.000000,8.895718,23.193529,7.249233,-50.822977,0.000000,-75.286154,0.000000,0.000000,0.000000,-12.185954,0.000000,4.748947,0.000000,0.000000,0.000000,0.000000,0.000000
28.391000000,40.248594260,139.984743808,3456.448377,7.115968,0.000000,8.947914,23.090660,7.115968,-51.505978,0.000000,-75.319241,0.000000,0.000000,0.000000,-12.056101,0.000000,4.741839,0.000000,0.000000,0.000000,0.000000,0.000000
28.402000000,40.248594437,139.984742926,3456.349637,6.984118,0.000000,9.000032,22.989491,6.984118,-52.188165,0.000000,-75.353225,0.000000,0.000000,0.000000,-11.928597,0.000000,4.734665,0.000000,0.000000,0.000000,0.000000,0.000000
28.413000000,40.248594609,139.984742060,3456.250324,6.853657,0.000000,9.052069,22.889997,6.853657,-52.869288,0.000000,-75.388141,0.000000,0.000000,0.000000,-11.803386,0.000000,4.727422,0.000000,0.000000,0.000000,0.000000,0.000000
28.424000000,40.248594778,139.984741210,3456.150440,6.724559,0.000000,9.104027,22.792150,6.724559,-53.549102,0.000000,-75.424031,0.000000,0.000000,0.000000,-11.680415,0.000000,4.720109,0.000000,0.000000,0.000000,0.000000,0.000000
28.435000000,40.248594943,139.984740377,3456.049984,6.596801,0.000000,9.155904,22.695927,6.596801,-54.227364,0.000000,-75.460937,0.000000,0.000000,0.000000,-11.559631,0.000000,4.712727,0.000000,0.000000,0.000000,0.000000,0.000000
28.446000000,40.248595105,139.984739558,3455.948958,6.470359,0.000000,9.207700,22.601303,6.470359,-54.903835,0.000000,-75.498902,0.000000,0.000000,0.000000,-11.440984,0.000000,4.705274,0.000000,0.000000,0.000000,0.000000,0.000000
28.457000000,40.248595263,139.984738756,3455.847363,6.345209,0.000000,9.259412,22.508253,6.345209,-55.578279,0.000000,-75.537975,0.000000,0.000000,0.000000,-11.324423,0.000000,4.697749,0.000000,0.000000,0.000000,0.000000,0.000000
28.468000000,40.248595418,139.984737969,3455.745200,6.221329,0.000000,9.311042,22.416754,6.221329,-56.250468,0.000000,-75.578204,0.000000,0.000000,0.000000,-11.209900,0.000000,4.690152,0.000000,0.000000,0.000000,0.000000,0.000000
28.479000000,40.248595569,139.984737197,3455.642469,6.098697,0.000000,9.362588,22.326783,6.098697,-56.920176,0.000000,-75.619644,0.000000,0.000000,0.000000,-11.097369,0.000000,4.682481,0.000000,0.000000,0.000000,0.000000,0.000000
28.490000000,40.248595717,139.984736440,3455.539172,5.977291,0.000000,9.414049,22.238318,5.977291,-57.587183,0.000000,-75.662350,0.000000,0.000000,0.000000,-10.986784,0.000000,4.674738,0.000000,0.000000,0.000000,0.000000,0.000000
28.501000000,40.248595861,139.984735699,3455.435309,5.857090,0.000000,9.465424,22.151335,5.857090,-58.251277,0.000000,-75.706382,0.000000,0.000000,0.000000,-10.878099,0.000000,4.666919,0.000000,0.000000,0.000000,0.000000,0.000000
28.512000000,40.248596002,139.984734972,3455.330881,5.738074,0.000000,9.516713,22.065813,5.738074,-58.912248,0.000000,-75.751804,0.000000,0.000000,0.000000,-10.771272,0.000000,4.659026,0.000000,0.000000,0.000000,0.000000,0.000000
28.523000000,40.248596140,139.984734260,3455.225890,5.620221,0.000000,9.567914,21.981730,5.620221,-59.569897,0.000000,-75.798683,0.000000,0.000000,0.000000,-10.666259,0.000000,4.651058,0.000000,0.000000,0.000000,0.000000,0.000000
28.534000000,40.248596275,139.984733563,3455.120336,5.503513,0.000000,9.619028,21.899067,5.503513,-60.224028,0.000000,-75.847092,0.000000,0.000000,0.000000,-10.563021,0.000000,4.643013,0.000000,0.000000,0.000000,0.000000,0.000000
28.545000000,40.248596406,139.984732880,3455.014221,5.387931,0.000000,9.670052,21.817801,5.387931,-60.874455,0.000000,-75.897109,0.000000,0.000000,0.000000,-10.461515,0.000000,4.634892,0.000000,0.000000,0.000000,0.000000,0.000000
28.556000000,40.248596534,139.984732211,3454.907544,5.273454,0.000000,9.720987,21.737913,5.273454,-61.520995,0.000000,-75.948815,0.000000,0.000000,0.000000,-10.361703,0.000000,4.626693,0.000000,0.000000,0.000000,0.000000,0.000000
28.567000000,40.248596658,139.984731556,3454.800308,5.160066,0.000000,9.771831,21.659383,5.160066,-62.163476,0.000000,-76.002299,0.000000,0.000000,0.000000,-10.263547,0.000000,4.618417,0.000000,0.000000,0.000000,0.000000,0.000000
28.578000000,40.248596780,139.984730916,3454.692514,5.047747,0.000000,9.822584,21.582192,5.047747,-62.801732,0.000000,-76.057654,0.000000,0.000000,0.000000,-10.167007,0.000000,4.610063,0.000000,0.000000,0.000000,0.000000,0.000000
28.589000000,40.248596899,139.984730289,3454.584161,4.936481,0.000000,9.873244,21.506320,4.936481,-63.435603,0.000000,-76.114983,0.000000,0.000000,0.000000,-10.072049,0.000000,4.601630,0.000000,0.000000,0.000000,0.000000,0.000000
28.600000000,40.248597014,139.984729676,3454.475252,4.826250,0.000000,9.923811,21.431748,4.826250,-64.064940,0.000000,-76.174393,0.000000,0.000000,0.000000,-9.978636,0.000000,4.593118,0.000000,0.000000,0.000000,0.000000,0.000000
28.611000000,40.248597126,139.984729077,3454.365787,4.717038,0.000000,9.974284,21.358459,4.717038,-64.689600,0.000000,-76.236002,0.000000,0.000000,0.000000,-9.886732,0.000000,4.584527,0.000000,0.000000,0.000000,0.000000,0.000000
28.622000000,40.248597235,139.984728491,3454.255768,4.608827,0.000000,10.024661,21.286433,4.608827,-65.309445,0.000000,-76.299934,0.000000,0.000000,0.000000,-9.796303,0.000000,4.575856,0.000000,0.000000,0.000000,0.000000,0.000000
28.633000000,40.248597342,139.984727918,3454.145195,4.501603,0.000000,10.074943,21.215654,4.501603,-65.924349,0.000000,-76.366326,0.000000,0.000000,0.000000,-9.707315,0.000000,4.567106,0.000000,0.000000,0.000000,0.000000,0.000000
28.644000000,40.248597445,139.984727359,3454.034069,4.395349,0.000000,10.125129,21.146103,4.395349,-66.534191,0.000000,-76.435322,0.000000,0.000000,0.000000,-9.619735,0.000000,4.558275,0.000000,0.000000,0.000000,0.000000,0.000000
28.655000000,40.248597545,139.984726813,3453.922392,4.290050,0.000000,10.175216,21.077764,4.290050,-67.138858,0.000000,-76.507081,0.000000,0.000000,0.000000,-9.533530,0.000000,4.549363,0.000000,0.000000,0.000000,0.000000,0.000000
28.666000000,40.248597642,139.984726280,3453.810165,4.185691,0.000000,10.225205,21.010619,4.185691,-67.738246,0.000000,-76.581774,0.000000,0.000000,0.000000,-9.448668,0.000000,4.540371,0.000000,0.000000,0.000000,0.000000,0.000000
28.677000000,40.248597737,139.984725760,3453.697388,4.082258,0.000000,10.275095,20.944651,4.082258,-68.332256,0.000000,-76.659584,0.000000,0.000000,0.000000,-9.365118,0.000000,4.531297,0.000000,0.000000,0.000000,0.000000,0.000000
28.688000000,40.248597828,139.984725253,3453.584063,3.979736,0.000000,10.324885,20.879845,3.979736,-68.920799,0.000000,-76.740714,0.000000,0.000000,0.000000,-9.282847,0.000000,4.522143,0.000000,0.000000,0.000000,0.000000,0.000000
28.699000000,40.248597917,139.984724758,3453.470191,3.878111,0.000000,10.374573,20.816184,3.878111,-69.503791,0.000000,-76.825380,0.000000,0.000000,0.000000,-9.201826,0.000000,4.512907,0.000000,0.000000,0.000000,0.000000,0.000000
28.710000000,40.248598003,139.984724276,3453.355773,3.777371,0.000000,10.424159,20.753653,3.777371,-70.081157,0.000000,-76.913822,0.000000,0.000000,0.000000,-9.122023,0.000000,4.503589,0.000000,0.000000,0.000000,0.000000,0.000000
28.721000000,40.248598086,139.984723807,3453.240810,3.677501,0.000000,10.473642,20.692235,3.677501,-70.652826,0.000000,-77.006299,0.000000,0.000000,0.000000,-9.043408,0.000000,4.494190,0.000000,0.000000,0.000000,0.000000,0.000000
28.732000000,40.248598166,139.984723349,3453.125304,3.578489,0.000000,10.523021,20.631916,3.578489,-71.218738,0.000000,-77.103095,0.000000,0.000000,0.000000,-8.965951,0.000000,4.484709,0.000000,0.000000,0.000000,0.000000,0.000000
28.743000000,40.248598243,139.984722905,3453.009255,3.480322,0.000000,10.572296,20.572679,3.480322,-71.778837,0.000000,-77.204520,0.000000,0.000000,0.000000,-8.889622,0.000000,4.475146,0.000000,0.000000,0.000000,0.000000,0.000000
28.754000000,40.248598318,139.984722472,3452.892665,3.382988,0.000000,10.621465,20.514511,3.382988,-72.333072,0.000000,-77.310918,0.000000,0.000000,0.000000,-8.814391,0.000000,4.465501,0.000000,0.000000,0.000000,0.000000,0.000000
28.765000000,40.248598390,139.984722051,3452.775534,3.286475,0.000000,10.670527,20.457397,3.286475,-72.881400,0.000000,-77.422663,0.000000,0.000000,0.000000,-8.740226,0.000000,4.455774,0.000000,0.000000,0.000000,0.000000,0.000000
28.776000000,40.248598459,139.984721642,3452.657865,3.190771,0.000000,10.719482,20.401322,3.190771,-73.423785,0.000000,-77.540171,0.000000,0.000000,0.000000,-8.667098,0.000000,4.445965,0.000000,0.000000,0.000000,0.000000,0.000000
28.787000000,40.248598526,139.984721245,3452.539657,3.095866,0.000000,10.768328,20.346272,3.095866,-73.960194,0.000000,-77.663902,0.000000,0.000000,0.000000,-8.594975,0.000000,4.436074,0.000000,0.000000,0.000000,0.000000,0.000000
28.798000000,40.248598590,139.984720860,3452.420913,3.001749,0.000000,10.817065,20.292233,3.001749,-74.490601,0.000000,-77.794362,0.000000,0.000000,0.000000,-8.523826,0.000000,4.426102,0.000000,0.000000,0.000000,0.000000,0.000000
28.809000000,40.248598651,139.984720487,3452.301633,2.908408,0.000000,10.865692,20.239191,2.908408,-75.014985,0.000000,-77.932120,0.000000,0.000000,0.000000,-8.453617,0.000000,4.416047,0.000000,0.000000,0.000000,0.000000,0.000000
28.820000000,40.248598710,139.984720125,3452.181820,2.815834,0.000000,10.914208,20.187132,2.815834,-75.533328,0.000000,-78.077804,0.000000,0.000000,0.000000,-8.384316,0.000000,4.405911,0.000000,0.000000,0.000000,0.000000,0.000000
28.831000000,40.248598766,139.984719774,3452.061473,2.724017,0.000000,10.962611,20.136044,2.724017,-76.045619,0.000000,-78.232121,0.000000,0.000000,0.000000,-8.315886,0.000000,4.395693,0.000000,0.000000,0.000000,0.000000,0.000000
28.842000000,40.248598819,139.984719435,3451.940594,2.632947,0.000000,11.010902,20.085912,2.632947,-76.551850,0.000000,-78.395862,0.000000,0.000000,0.000000,-8.248293,0.000000,4.385394,0.000000,0.000000,0.000000,0.000000,0.000000
28.853000000,40.248598870,139.984719107,3451.819185,2.542617,0.000000,11.059079,20.036724,2.542617,-77.052017,0.000000,-78.569917,0.000000,0.000000,0.000000,-8.181495,0.000000,4.375014,0.000000,0.000000,0.000000,0.000000,0.000000
28.864000000,40.248598919,139.984718791,3451.697247,2.453016,0.000000,11.107142,19.988468,2.453016,-77.546119,0.000000,-78.755292,0.000000,0.000000,0.000000,-8.115452,0.000000,4.364552,0.000000,0.000000,0.000000,0.000000,0.000000
28.875000000,40.248598965,139.984718485,3451.574780,2.364137,0.000000,11.155089,19.941129,2.364137,-78.034159,0.000000,-78.953129,0.000000,0.000000,0.000000,-8.050118,0.000000,4.354009,0.000000,0.000000,0.000000,0.000000,0.000000
28.886000000,40.248599008,139.984718191,3451.451787,2.275973,0.000000,11.202919,19.894696,2.275973,-78.516142,0.000000,-79.164725,0.000000,0.000000,0.000000,-7.985445,0.000000,4.343386,0.000000,0.000000,0.000000,0.000000,0.000000
28.897000000,40.248599049,139.984717908,3451.328269,2.188516,0.000000,11.250632,19.849157,2.188516,-78.992074,0.000000,-79.391567,0.000000,0.000000,0.000000,-7.921376,0.000000,4.332682,0.000000,0.000000,0.000000,0.000000,0.000000
28.908000000,40.248599087,139.984717635,3451.204226,2.101761,0.000000,11.298227,19.804499,2.101761,-79.461966,0.000000,-79.635358,0.000000,0.000000,0.000000,-7.857853,0.000000,4.321898,0.000000,0.000000,0.000000,0.000000,0.000000
28.919000000,40.248599123,139.984717373,3451.079661,2.015702,0.000000,11.345703,19.760710,2.015702,-79.925826,0.000000,-79.898067,0.000000,0.000000,0.000000,-7.794805,0.000000,4.311034,0.000000,0.000000,0.000000,0.000000,0.000000
28.930000000,40.248599157,139.984717122,3450.954574,1.930333,0.000000,11.393059,19.717778,1.930333,-80.383666,0.000000,-80.181978,0.000000,0.000000,0.000000,-7.732152,0.000000,4.300091,0.000000,0.000000,0.000000,0.000000,0.000000
28.941000000,40.248599188,139.984716882,3450.828967,1.845651,0.000000,11.440294,19.675692,1.845651,-80.835494,0.000000,-80.489755,0.000000,0.000000,0.000000,-7.669803,0.000000,4.289068,0.000000,0.000000,0.000000,0.000000,0.000000
28.952000000,40.248599217,139.984716652,3450.702841,1.761653,0.000000,11.487407,19.634440,1.761653,-81.281320,0.000000,-80.824523,0.000000,0.000000,0.000000,-7.607649,0.000000,4.277967,0.000000,0.000000,0.000000,0.000000,0.000000
28.963000000,40.248599244,139.984716432,3450.576197,1.678338,0.000000,11.534398,19.594011,1.678338,-81.721150,0.000000,-81.189976,0.000000,0.000000,0.000000,-7.545559,0.000000,4.266787,0.000000,0.000000,0.000000,0.000000,0.000000
28.974000000,40.248599268,139.984716223,3450.449037,1.595707,0.000000,11.581265,19.554394,1.595707,-82.154985,0.000000,-81.590507,0.000000,0.000000,0.000000,-7.483376,0.000000,4.255529,0.000000,0.000000,0.000000,0.000000,0.000000
28.985000000,40.248599289,139.984716024,3450.321363,1.513760,0.000000,11.628008,19.515577,1.513760,-82.582822,0.000000,-82.031384,0.000000,0.000000,0.000000,-7.420906,0.000000,4.244193,0.000000,0.000000,0.000000,0.000000,0.000000
28.996000000,40.248599309,139.984715836,3450.193175,1.432502,0.000000,11.674625,19.477549,1.432502,-83.004648,0.000000,-82.518972,0.000000,0.000000,0.000000,-7.357908,0.000000,4.232780,0.000000,0.000000,0.000000,0.000000,0.000000
29.007000000,40.248599326,139.984715658,3450.064475,1.351942,0.000000,11.721117,19.440300,1.351942,-83.420443,0.000000,-83.061034,0.000000,0.000000,0.000000,-7.294077,0.000000,4.221290,0.000000,0.000000,0.000000,0.000000,0.000000
29.018000000,40.248599341,139.984715489,3449.935264,1.272089,0.000000,11.767482,19.403819,1.272089,-83.830167,0.000000,-83.667134,0.000000,0.000000,0.000000,-7.229021,0.000000,4.209723,0.000000,0.000000,0.000000,0.000000,0.000000
29.029000000,40.248599354,139.984715331,3449.805545,1.192961,0.000000,11.813719,19.368095,1.192961,-84.233763,0.000000,-84.349179,0.000000,0.000000,0.000000,-7.162230,0.000000,4.198081,0.000000,0.000000,0.000000,0.000000,0.000000
29.040000000,40.248599364,139.984715183,3449.675317,1.114579,0.000000,11.859828,19.333118,1.114579,-84.631146,0.000000,-85.122172,0.000000,0.000000,0.000000,-7.093025,0.000000,4.186364,0.000000,0.000000,0.000000,0.000000,0.000000
29.051000000,40.248599372,139.984715044,3449.544583,1.036976,0.000000,11.905807,19.298878,1.036976,-85.022194,0.000000,-86.005270,0.000000,0.000000,0.000000,-7.020487,0.000000,4.174571,0.000000,0.000000,0.000000,0.000000,0.000000
29.062000000,40.248599378,139.984714916,3449.413344,0.960194,0.000000,11.951656,19.265364,0.960194,-85.406730,0.000000,-87.023289,0.000000,0.000000,0.000000,-6.943349,0.000000,4.162705,0.000000,0.000000,0.000000,0.000000,0.000000
29.073000000,40.248599382,139.984714797,3449.281601,0.884294,0.000000,11.997374,19.232566,0.884294,-85.784506,0.000000,-88.208907,0.000000,0.000000,0.000000,-6.859824,0.000000,4.150765,0.000000,0.000000,0.000000,0.000000,0.000000
29.084000000,40.248599383,139.984714688,3449.149356,0.809358,0.000000,12.042961,19.200476,0.809358,-86.155166,0.000000,-89.605920,0.000000,0.000000,0.000000,-6.767326,0.000000,4.138752,0.000000,0.000000,0.000000,0.000000,0.000000
29.095000000,40.248599383,139.984714588,3449.016611,0.735506,0.000000,12.088415,19.169081,0.735506,-86.518196,0.000000,-91.274215,0.000000,0.000000,0.000000,-6.662019,0.000000,4.126666,0.000000,0.000000,0.000000,0.000000,0.000000
29.106000000,40.248599380,139.984714498,3448.883366,0.662907,0.000000,12.133735,19.138374,0.662907,-86.872846,0.000000,-93.297468,0.000000,0.000000,0.000000,-6.538037,0.000000,4.114508,0.000000,0.000000,0.000000,0.000000,0.000000
29.117000000,40.248599375,139.984714418,3448.749624,0.591815,0.000000,12.178921,19.108344,0.591815,-87.217994,0.000000,-95.795370,0.000000,0.000000,0.000000,-6.386115,0.000000,4.102279,0.000000,0.000000,0.000000,0.000000,0.000000
29.128000000,40.248599368,139.984714347,3448.615385,0.522612,0.000000,12.223973,19.078982,0.522612,-87.551921,0.000000,-98.943291,0.000000,0.000000,0.000000,-6.191115,0.000000,4.089980,0.000000,0.000000,0.000000,0.000000,0.000000
29.139000000,40.248599359,139.984714285,3448.480652,0.455901,0.000000,12.268888,19.050279,0.455901,-87.871918,0.000000,-103.003936,0.000000,0.000000,0.000000,-5.927428,0.000000,4.077611,0.000000,0.000000,0.000000,0.000000,0.000000
29.150000000,40.248599347,139.984714233,3448.345425,0.392659,0.000000,12.313667,19.022225,0.392659,-88.173567,0.000000,-108.376219,0.000000,0.000000,0.000000,-5.550516,0.000000,4.065172,0.000000,0.000000,0.000000,0.000000,0.000000
29.161000000,40.248599334,139.984714189,3448.209707,0.334521,0.000000,12.358309,18.994812,0.334521,-88.449469,0.000000,-115.658768,0.000000,0.000000,0.000000,-4.982445,0.000000,4.052665,0.000000,0.000000,0.000000,0.000000,0.000000
29.172000000,40.248599319,139.984714155,3448.073499,0.284243,0.000000,12.402813,18.968029,0.284243,-88.687145,0.000000,-125.677512,0.000000,0.000000,0.000000,-4.094732,0.000000,4.040090,0.000000,0.000000,0.000000,0.000000,0.000000
29.183000000,40.248599301,139.984714130,3447.936801,0.246245,0.000000,12.447178,18.941869,0.246245,-88.866653,0.000000,-139.257570,0.000000,0.000000,0.000000,-2.723888,0.000000,4.027448,0.000000,0.000000,0.000000,0.000000,0.000000
29.194000000,40.248599282,139.984714114,3447.799617,0.226320,0.000000,12.491404,18.916322,0.226320,-88.962023,0.000000,-156.294983,0.000000,0.000000,0.000000,-0.826454,0.000000,4.014739,0.000000,0.000000,0.000000,0.000000,0.000000
29.205000000,40.248599260,139.984714108,3447.661947,0.228783,0.000000,12.535490,18.891380,0.228783,-88.954423,0.000000,-174.555445,0.000000,0.000000,0.000000,1.256280,0.000000,4.001965,0.000000,0.000000,0.000000,0.000000,0.000000
29.216000000,40.248599236,139.984714110,3447.523793,0.252581,0.000000,12.579434,18.867034,0.252581,-88.849718,0.000000,169.245915,0.000000,0.000000,0.000000,2.980575,0.000000,3.989127,0.000000,0.000000,0.000000,0.000000,0.000000
29.227000000,40.248599211,139.984714121,3447.385156,0.292219,0.000000,12.623237,18.843275,0.292219,-88.673880,0.000000,156.711721,0.000000,0.000000,0.000000,4.138763,0.000000,3.976224,0.000000,0.000000,0.000000,0.000000,0.000000
29.238000000,40.248599183,139.984714140,3447.246038,0.341955,0.000000,12.666898,18.820096,0.341955,-88.453620,0.000000,147.546096,0.000000,0.000000,0.000000,4.846757,0.000000,3.963258,0.000000,0.000000,0.000000,0.000000,0.000000
29.249000000,40.248599154,139.984714169,3447.106441,0.397786,0.000000,12.710416,18.797487,0.397786,-88.207453,0.000000,140.868585,0.000000,0.000000,0.000000,5.271361,0.000000,3.950229,0.000000,0.000000,0.000000,0.000000,0.000000
29.260000000,40.248599122,139.984714206,3446.966366,0.457284,0.000000,12.753790,18.775441,0.457284,-87.946552,0.000000,135.911416,0.000000,0.000000,0.000000,5.528524,0.000000,3.937139,0.000000,0.000000,0.000000,0.000000,0.000000
29.271000000,40.248599088,139.984714252,3446.825815,0.519018,0.000000,12.797020,18.753950,0.519018,-87.677486,0.000000,132.137741,0.000000,0.000000,0.000000,5.686234,0.000000,3.923988,0.000000,0.000000,0.000000,0.000000,0.000000
29.282000000,40.248599053,139.984714307,3446.684789,0.582125,0.000000,12.840104,18.733005,0.582125,-87.404188,0.000000,129.192527,0.000000,0.000000,0.000000,5.783114,0.000000,3.910778,0.000000,0.000000,0.000000,0.000000,0.000000
29.293000000,40.248599016,139.984714370,3446.543290,0.646071,0.000000,12.883043,18.712598,0.646071,-87.129083,0.000000,126.841442,0.000000,0.000000,0.000000,5.841460,0.000000,3.897508,0.000000,0.000000,0.000000,0.000000,0.000000
29.304000000,40.248598976,139.984714441,3446.401320,0.710510,0.000000,12.925836,18.692722,0.710510,-86.853721,0.000000,124.927162,0.000000,0.000000,0.000000,5.874544,0.000000,3.884180,0.000000,0.000000,0.000000,0.000000,0.000000
29.315000000,40.248598935,139.984714521,3446.258880,0.775213,0.000000,12.968482,18.673368,0.775213,-86.579119,0.000000,123.341596,0.000000,0.000000,0.000000,5.890550,0.000000,3.870794,0.000000,0.000000,0.000000,0.000000,0.000000
29.326000000,40.248598892,139.984714610,3446.115971,0.840023,0.000000,13.010980,18.654530,0.840023,-86.305962,0.000000,122.008676,0.000000,0.000000,0.000000,5.894697,0.000000,3.857353,0.000000,0.000000,0.000000,0.000000,0.000000
29.337000000,40.248598847,139.984714706,3445.972596,0.904830,0.000000,13.053330,18.636199,0.904830,-86.034718,0.000000,120.873620,0.000000,0.000000,0.000000,5.890417,0.000000,3.843855,0.000000,0.000000,0.000000,0.000000,0.000000
29.348000000,40.248598800,139.984714811,3445.828756,0.969554,0.000000,13.095531,18.618368,0.969554,-85.765715,0.000000,119.896132,0.000000,0.000000,0.000000,5.880033,0.000000,3.830303,0.000000,0.000000,0.000000,0.000000,0.000000
29.359000000,40.248598751,139.984714925,3445.684453,1.034139,0.000000,13.137583,18.601030,1.034139,-85.499181,0.000000,119.045996,0.000000,0.000000,0.000000,5.865154,0.000000,3.816698,0.000000,0.000000,0.000000,0.000000,0.000000
29.370000000,40.248598701,139.984715046,3445.539688,1.098541,0.000000,13.179484,18.584177,1.098541,-85.235277,0.000000,118.300154,0.000000,0.000000,0.000000,5.846922,0.000000,3.803040,0.000000,0.000000,0.000000,0.000000,0.000000
29.381000000,40.248598648,139.984715176,3445.394463,1.162728,0.000000,13.221236,18.567802,1.162728,-84.974114,0.000000,117.640733,0.000000,0.000000,0.000000,5.826165,0.000000,3.789329,0.000000,0.000000,0.000000,0.000000,0.000000
29.392000000,40.248598594,139.984715314,3445.248780,1.226675,0.000000,13.262836,18.551897,1.226675,-84.715766,0.000000,117.053680,0.000000,0.000000,0.000000,5.803491,0.000000,3.775568,0.000000,0.000000,0.000000,0.000000,0.000000
29.403000000,40.248598538,139.984715459,3445.102640,1.290365,0.000000,13.304284,18.536456,1.290365,-84.460284,0.000000,116.527806,0.000000,0.000000,0.000000,5.779354,0.000000,3.761757,0.000000,0.000000,0.000000,0.000000,0.000000
29.414000000,40.248598480,139.984715613,3444.956045,1.353783,0.000000,13.345580,18.521472,1.353783,-84.207697,0.000000,116.054096,0.000000,0.000000,0.000000,5.754101,0.000000,3.747897,0.000000,0.000000,0.000000,0.000000,0.000000
29.425000000,40.248598420,139.984715775,3444.808996,1.416919,0.000000,13.386724,18.506937,1.416919,-83.958019,0.000000,115.625210,0.000000,0.000000,0.000000,5.727996,0.000000,3.733989,0.000000,0.000000,0.000000,0.000000,0.000000
29.436000000,40.248598359,139.984715945,3444.661496,1.479764,0.000000,13.427714,18.492845,1.479764,-83.711254,0.000000,115.235115,0.000000,0.000000,0.000000,5.701246,0.000000,3.720034,0.000000,0.000000,0.000000,0.000000,0.000000
29.447000000,40.248598295,139.984716122,3444.513546,1.542312,0.000000,13.468550,18.479189,1.542312,-83.467395,0.000000,114.878806,0.000000,0.000000,0.000000,5.674012,0.000000,3.706033,0.000000,0.000000,0.000000,0.000000,0.000000
29.458000000,40.248598230,139.984716308,3444.365148,1.604558,0.000000,13.509233,18.465962,1.604558,-83.226430,0.000000,114.552100,0.000000,0.000000,0.000000,5.646422,0.000000,3.691987,0.000000,0.000000,0.000000,0.000000,0.000000
29.469000000,40.248598163,139.984716501,3444.216303,1.666500,0.000000,13.549760,18.453158,1.666500,-82.988341,0.000000,114.251473,0.000000,0.000000,0.000000,5.618579,0.000000,3.677897,0.000000,0.000000,0.000000,0.000000,0.000000
29.480000000,40.248598095,139.984716702,3444.067013,1.728135,0.000000,13.590132,18.440769,1.728135,-82.753105,0.000000,113.973937,0.000000,0.000000,0.000000,5.590564,0.000000,3.663763,0.000000,0.000000,0.000000,0.000000,0.000000
29.491000000,40.248598024,139.984716911,3443.917280,1.789461,0.000000,13.630348,18.428791,1.789461,-82.520697,0.000000,113.716942,0.000000,0.000000,0.000000,5.562444,0.000000,3.649588,0.000000,0.000000,0.000000,0.000000,0.000000
29.502000000,40.248597952,139.984717127,3443.767106,1.850477,0.000000,13.670409,18.417215,1.850477,-82.291088,0.000000,113.478297,0.000000,0.000000,0.000000,5.534272,0.000000,3.635372,0.000000,0.000000,0.000000,0.000000,0.000000
29.513000000,40.248597879,139.984717351,3443.616492,1.911184,0.000000,13.710312,18.406037,1.911184,-82.064247,0.000000,113.256113,0.000000,0.000000,0.000000,5.506093,0.000000,3.621115,0.000000,0.000000,0.000000,0.000000,0.000000
29.524000000,40.248597803,139.984717582,3443.465440,1.971581,0.000000,13.750059,18.395248,1.971581,-81.840144,0.000000,113.048749,0.000000,0.000000,0.000000,5.477942,0.000000,3.606820,0.000000,0.000000,0.000000,0.000000,0.000000
29.535000000,40.248597726,139.984717821,3443.313952,2.031668,0.000000,13.789648,18.384844,2.031668,-81.618745,0.000000,112.854775,0.000000,0.000000,0.000000,5.449850,0.000000,3.592486,0.000000,0.000000,0.000000,0.000000,0.000000
29.546000000,40.248597647,139.984718068,3443.162029,2.091448,0.000000,13.829079,18.374819,2.091448,-81.400016,0.000000,112.672939,0.000000,0.000000,0.000000,5.421839,0.000000,3.578116,0.000000,0.000000,0.000000,0.000000,0.000000
29.557000000,40.248597566,139.984718321,3443.009673,2.150919,0.000000,13.868352,18.365165,2.150919,-81.183922,0.000000,112.502140,0.000000,0.000000,0.000000,5.393931,0.000000,3.563709,0.000000,0.000000,0.000000,0.000000,0.000000
29.568000000,40.248597484,139.984718583,3442.856886,2.210085,0.000000,13.907466,18.355878,2.210085,-80.970427,0.000000,112.341406,0.000000,0.000000,0.000000,5.366142,0.000000,3.549268,0.000000,0.000000,0.000000,0.000000,0.000000
29.579000000,40.248597400,139.984718851,3442.703670,2.268946,0.000000,13.946421,18.346951,2.268946,-80.759497,0.000000,112.189874,0.000000,0.000000,0.000000,5.338485,0.000000,3.534792,0.000000,0.000000,0.000000,0.000000,0.000000
29.590000000,40.248597315,139.984719127,3442.550027,2.327503,0.000000,13.985217,18.338378,2.327503,-80.551096,0.000000,112.046780,0.000000,0.000000,0.000000,5.310971,0.000000,3.520284,0.000000,0.000000,0.000000,0.000000,0.000000
29.601000000,40.248597227,139.984719411,3442.395958,2.385759,0.000000,14.023853,18.330153,2.385759,-80.345188,0.000000,111.911438,0.000000,0.000000,0.000000,5.283610,0.000000,3.505744,0.000000,0.000000,0.000000,0.000000,0.000000
29.612000000,40.248597138,139.984719701,3442.241464,2.443715,0.000000,14.062328,18.322272,2.443715,-80.141737,0.000000,111.783239,0.000000,0.000000,0.000000,5.256409,0.000000,3.491173,0.000000,0.000000,0.000000,0.000000,0.000000
29.623000000,40.248597048,139.984719999,3442.086548,2.501373,0.000000,14.100644,18.314728,2.501373,-79.940707,0.000000,111.661631,0.000000,0.000000,0.000000,5.229374,0.000000,3.476573,0.000000,0.000000,0.000000,0.000000,0.000000
29.634000000,40.248596956,139.984720304,3441.931212,2.558734,0.000000,14.138798,18.307515,2.558734,-79.742063,0.000000,111.546122,0.000000,0.000000,0.000000,5.202510,0.000000,3.461943,0.000000,0.000000,0.000000,0.000000,0.000000
29.645000000,40.248596862,139.984720616,3441.775457,2.615801,0.000000,14.176792,18.300629,2.615801,-79.545770,0.000000,111.436265,0.000000,0.000000,0.000000,5.175820,0.000000,3.447287,0.000000,0.000000,0.000000,0.000000,0.000000
29.656000000,40.248596767,139.984720935,3441.619286,2.672575,0.000000,14.214624,18.294063,2.672575,-79.351793,0.000000,111.331656,0.000000,0.000000,0.000000,5.149307,0.000000,3.432603,0.000000,0.000000,0.000000,0.000000,0.000000
29.667000000,40.248596670,139.984721261,3441.462699,2.729059,0.000000,14.252294,18.287812,2.729059,-79.160097,0.000000,111.231928,0.000000,0.000000,0.000000,5.122974,0.000000,3.417894,0.000000,0.000000,0.000000,0.000000,0.000000
29.678000000,40.248596571,139.984721594,3441.305698,2.785254,0.000000,14.289803,18.281872,2.785254,-78.970648,0.000000,111.136750,0.000000,0.000000,0.000000,5.096821,0.000000,3.403160,0.000000,0.000000,0.000000,0.000000,0.000000
29.689000000,40.248596471,139.984721934,3441.148286,2.841163,0.000000,14.327149,18.276236,2.841163,-78.783411,0.000000,111.045817,0.000000,0.000000,0.000000,5.070851,0.000000,3.388403,0.000000,0.000000,0.000000,0.000000,0.000000
29.700000000,40.248596370,139.984722281,3440.990464,2.896787,0.000000,14.364333,18.270899,2.896787,-78.598353,0.000000,110.958853,0.000000,0.000000,0.000000,5.045063,0.000000,3.373623,0.000000,0.000000,0.000000,0.000000,0.000000
29.711000000,40.248596266,139.984722635,3440.832234,2.952129,0.000000,14.401354,18.265857,2.952129,-78.415442,0.000000,110.875604,0.000000,0.000000,0.000000,5.019457,0.000000,3.358822,0.000000,0.000000,0.000000,0.000000,0.000000
29.722000000,40.248596161,139.984722996,3440.673598,3.007190,0.000000,14.438212,18.261104,3.007190,-78.234644,0.000000,110.795838,0.000000,0.000000,0.000000,4.994034,0.000000,3.344000,0.000000,0.000000,0.000000,0.000000,0.000000
29.733000000,40.248596055,139.984723364,3440.514557,3.061972,0.000000,14.474907,18.256636,3.061972,-78.055926,0.000000,110.719341,0.000000,0.000000,0.000000,4.968792,0.000000,3.329160,0.000000,0.000000,0.000000,0.000000,0.000000
29.744000000,40.248595947,139.984723738,3440.355114,3.116478,0.000000,14.511439,18.252447,3.116478,-77.879257,0.000000,110.645918,0.000000,0.000000,0.000000,4.943731,0.000000,3.314300,0.000000,0.000000,0.000000,0.000000,0.000000
29.755000000,40.248595838,139.984724120,3440.195270,3.170710,0.000000,14.547807,18.248532,3.170710,-77.704606,0.000000,110.575387,0.000000,0.000000,0.000000,4.918851,0.000000,3.299424,0.000000,0.000000,0.000000,0.000000,0.000000
29.766000000,40.248595727,139.984724508,3440.035027,3.224668,0.000000,14.584011,18.244886,3.224668,-77.531942,0.000000,110.507582,0.000000,0.000000,0.000000,4.894149,0.000000,3.284531,0.000000,0.000000,0.000000,0.000000,0.000000
29.777000000,40.248595614,139.984724902,3439.874386,3.278357,0.000000,14.620051,18.241506,3.278357,-77.361233,0.000000,110.442348,0.000000,0.000000,0.000000,4.869625,0.000000,3.269623,0.000000,0.000000,0.000000,0.000000,0.000000
29.788000000,40.248595500,139.984725304,3439.713350,3.331776,0.000000,14.655928,18.238385,3.331776,-77.192450,0.000000,110.379542,0.000000,0.000000,0.000000,4.845277,0.000000,3.254701,0.000000,0.000000,0.000000,0.000000,0.000000
29.799000000,40.248595385,139.984725712,3439.551921,3.384929,0.000000,14.691640,18.235520,3.384929,-77.025564,0.000000,110.319032,0.000000,0.000000,0.000000,4.821103,0.000000,3.239766,0.000000,0.000000,0.000000,0.000000,0.000000
29.810000000,40.248595268,139.984726126,3439.390099,3.437816,0.000000,14.727187,18.232906,3.437816,-76.860544,0.000000,110.260695,0.000000,0.000000,0.000000,4.797103,0.000000,3.224818,0.000000,0.000000,0.000000,0.000000,0.000000
29.821000000,40.248595150,139.984726547,3439.227888,3.490441,0.000000,14.762571,18.230538,3.490441,-76.697363,0.000000,110.204417,0.000000,0.000000,0.000000,4.773274,0.000000,3.209860,0.000000,0.000000,0.000000,0.000000,0.000000
