time_sec,lat_deg,lon_deg,alt_agl_m,down_range_m,local_x_m,local_y_m,u_mps,v_mps,w_mps,true_airspeed_mps,ground_speed_mps,pitch_deg,roll_deg,yaw_deg,p_rad_sec,q_rad_sec,r_rad_sec,ax_mps2,ay_mps2,az_mps2,alpha_deg,beta_deg,qbar_pa,total_aoa_deg,pressure_pa,temperature_k,gust_airspeed_mps,gust_aoa_deg,thrust_n,mach
26.98800000001,40.24851492814695,139.98515911494297,3470.4761831488995,2239.0669199659974,2220.849712595191,285.0389905817735,58.44962679234063,0.0,1.585910670285225,72.63684824419305,58.44962679234063,-1.5542220627190995,0.0,-73.92131131071955,0.0,0.0,0.0,-91.65848747138949,0.0,7.817313631215343,0.0,0.0,2284.7116316807887,0.0,66030.44776177446,265.60420338363934,0.0,0.0,0.0,0.2223282016993698
26.999000000010014,40.248516512650895,139.98515191131813,3470.458224268648,2239.7038766645273,2221.481822957109,285.1174589836131,57.456417304405306,0.0,1.671422652765849,71.64581907429269,57.456417304405306,-1.6662797358960444,0.0,-73.925621677341,0.0,0.0,0.0,-89.16847017968016,0.0,7.73806391623048,0.0,0.0,2222.797609642231,0.0,66030.5993972482,265.6043194337836,0.0,0.0,0.0,0.2192947934720636
27.010000000010027,40.24851806997117,139.98514482926845,3470.4393299034114,2240.3300696536808,2222.1032575227755,285.1945544731452,56.48999067678113,0.0,1.7560821143323413,70.68170837177728,56.48999067678113,-1.7805579391071604,0.0,-73.92996149985693,0.0,0.0,0.0,-86.77884097337201,0.0,7.661992018105483,0.0,0.0,2163.381654649834,0.0,66030.75897680054,265.60444156348234,0.0,0.0,0.0,0.2163437765984495
27.02100000001004,40.24851960083542,139.9851378655396,3470.4195092256496,2240.9457870581255,2222.714302063658,285.27031379943196,55.549274881101844,0.0,1.8399229856417603,69.74344520972924,55.549274881101844,-1.8970777852590441,0.0,-73.93433110375312,0.0,0.0,0.0,-84.48428128488192,0.0,7.588928789624445,0.0,0.0,2106.331645792256,0.0,66030.92642237183,265.60456971295935,0.0,0.0,0.0,0.21347187323648922
27.032000000010054,40.24852110594237,139.9851310170065,3470.398771045457,2241.5513055574984,2223.315230999998,285.34477224920454,54.63325428080934,0.0,1.9229774037620977,68.83001507958389,54.63325428080934,-2.01586057330011,0.0,-73.93873081940274,0.0,0.0,0.0,-82.27982034183127,0.0,7.518716119527842,0.0,0.0,2051.5240916545,0.0,66031.10165899378,265.6047038248029,0.0,0.0,0.0,0.21067597822577505
27.043000000010068,40.24852258596332,139.98512428066675,3470.3771238295867,2242.1468909688824,2223.9063079780076,285.41796372522225,53.74096596937977,0.0,2.0052758283633376,67.94045622740146,53.74096596937977,-2.1369277863283154,0.0,-73.9431609821732,0.0,0.0,0.0,-80.16080822228962,0.0,7.4512060772941835,0.0,0.0,1998.8434625507282,0.0,66031.28461462668,265.6048438438416,0.0,0.0,0.0,0.2079531478738758
27.05400000001008,40.24852404154362,139.9851176536341,3470.3545757192474,2242.732798830481,2224.4877864488253,285.48992082034664,52.87149639028003,0.0,2.086847148966464,67.07385627200874,52.87149639028003,-2.2603010894770375,0.0,-73.94762193253507,0.0,0.0,0.0,-78.12289131472279,0.0,7.386260134244461,0.0,0.0,1948.1815822833923,0.0,66031.47522000791,265.6049897170278,0.0,0.0,0.0,0.20530058960540434
27.065000000010095,40.24852547330388,139.98511113313276,3470.3311345467796,2243.309274893869,2225.059910157162,285.56067487708947,52.02397821368269,0.0,2.1677187840430143,66.22934908002595,52.02397821368269,-2.3860023275685758,0.0,-73.95211401617337,0.0,0.0,0.0,-76.16198994043137,0.0,7.323748453282347,0.0,0.0,1899.4370734398096,0.0,66031.673408509,265.60514139332895,0.0,0.0,0.0,0.202715652397337
27.076000000010108,40.24852688184135,139.98510471649158,3470.306807851274,2243.8765556533485,2225.6229136659285,285.6302560582793,51.19758744746554,0.0,2.2479167726784652,65.4061118752932,51.19758744746554,-2.5140535225244274,0.0,-73.95663758410089,0.0,0.0,0.0,-74.27427792337996,0.0,7.263549240443193,0.0,0.0,1852.5148509068395,0.0,66031.87911600257,265.60529882362545,0.0,0.0,0.0,0.20019581793176253
27.08700000001012,40.24852826773095,139.98509840113923,3470.281602893235,2244.434868760798,2226.177022767849,285.69869339879193,50.39154076224258,0.0,2.327465859442291,64.60336256243362,50.39154076224258,-2.644476870521151,0.0,-73.96119299277414,0.0,0.0,0.0,-72.45616391608839,0.0,7.205548152179685,0.0,0.0,1807.3256588716586,0.0,66032.09228073749,265.60546196061495,0.0,0.0,0.0,0.19773869240404274
27.098000000010135,40.248529631526445,139.98509218459884,3470.255526668339,2244.9844335056596,2226.7224549618004,285.7660148646422,49.605093012150284,0.0,2.4063895730447644,63.82035724626738,49.605093012150284,-2.77729473888027,0.0,-73.96578060421164,0.0,0.0,0.0,-70.70427431115316,0.0,7.149637752975001,0.0,0.0,1763.7856470927516,0.0,66032.31284322092,265.60563075872255,0.0,0.0,0.0,0.1953419989304164
27.10900000001015,40.24853097376148,139.98508606448394,3470.228585920368,2245.5254611776872,2227.259419811333,285.83224740912,48.83753493487509,0.0,2.4847102993046577,63.05638793055437,48.83753493487509,-2.912529662680319,0.0,-73.97040078611487,0.0,0.0,0.0,-69.01543758635431,0.0,7.095717018457838,0.0,0.0,1721.8159826796657,0.0,66032.54074610847,265.6058051740164,0.0,0.0,0.0,0.19300357050447725
27.12000000001016,40.24853229495048,139.98508003849363,3470.2007871533724,2246.0581554849737,2227.788119361335,285.8974170101035,48.08819101598157,0.0,2.5624493489020583,62.310780381117354,48.08819101598157,-3.0502043410787976,0.0,-73.97505391199175,0.0,0.0,0.0,-67.38666994751003,0.0,7.043690879708237,0.0,0.0,1681.3424940205587,0.0,66032.77593409974,265.60598516412784,0.0,0.0,0.0,0.19072134345677447
27.131000000010175,40.24853359558958,139.98507410440885,3470.1721366431093,2246.5827128940537,2228.308748474087,285.96154872334296,47.35641750400729,0.0,2.6396270203458614,61.582892139804805,47.35641750400729,-3.1903416333314127,0.0,-73.97974036128308,0.0,0.0,0.0,-65.8151621475577,0.0,6.993469804897176,0.0,0.0,1642.2953438503935,0.0,66033.01835384153,265.6061706881775,0.0,0.0,0.0,0.1884933513760901
27.14200000001019,40.24853487615751,139.98506826008852,3470.142640447829,2247.0993229650358,2228.821495161462,286.0246667267485,46.64160056405009,0.0,2.716262658545546,60.87211067701284,46.64160056405009,-3.332964554495661,0.0,-73.98446051949159,0.0,0.0,0.0,-64.29826737298856,0.0,6.944969414804748,0.0,0.0,1604.608728765371,0.0,66033.26795383506,265.6063617067041,0.0,0.0,0.0,0.18631771945480766
27.153000000010202,40.248536137116375,139.9850625034658,3470.1123044184283,2247.608168687047,2229.3265409183837,286.0867943572658,45.94315455870233,0.0,2.7923747093409936,60.17785167161533,45.94315455870233,-3.4780962708054224,0.0,-73.98921477831415,0.0,0.0,0.0,-62.83349009997922,0.0,6.89811012911723,0.0,0.0,1568.2206027663844,0.0,66033.52468434986,265.60655818159876,0.0,0.0,0.0,0.18419265922424052
27.164000000010216,40.24853737891242,139.98505683254487,3470.0811342080333,2248.1094267588173,2229.824061000569,286.1479541509758,45.260520446200275,0.0,2.8679807703119384,59.499557408164975,45.260520446200275,-3.6257600947028967,0.0,-73.99400353577684,0.0,0.0,0.0,-61.418475832495446,0.0,6.852816840719009,0.0,0.0,1533.0724226599707,0.0,66033.78849734202,265.6067600760422,0.0,0.0,0.0,0.18211646364889458
27.17500000001023,40.24853860197671,139.98505124539764,3470.0491352810454,2248.603267884598,2230.3142247184683,286.2081678774219,44.593164286567784,0.0,2.9430976381597356,58.83669528214009,44.593164286567784,-3.7759794795138455,0.0,-73.99882719637337,0.0,0.0,0.0,-60.051001643477456,0.0,6.809018615475429,0.0,0.0,1499.108913363584,0.0,66034.05934637637,265.60696735444554,0.0,0.0,0.0,0.18008750255142833
27.186000000010242,40.2485398067259,139.98504574016079,3470.0163129216803,2249.089857035318,2230.7971956954293,286.26745657960515,43.940575847353536,0.0,3.0177413529280983,58.188756404831956,43.940575847353536,-3.928778013751745,0.0,-74.00368617120652,0.0,0.0,0.0,-58.72896744806652,0.0,6.766648415251785,0.0,0.0,1466.277851356287,0.0,66034.33718655448,265.60717998239494,0.0,0.0,0.0,0.17810421834258494
27.197000000010256,40.248540993562756,139.9850403150327,3469.9826722420403,2249.5693537143443,2231.2731321328033,286.3258405960625,43.30226730129954,0.0,3.091927239306025,57.55525430020651,43.30226730129954,-4.084179415036124,0.0,-74.00858087813313,0.0,0.0,0.0,-57.450387944824115,0.0,6.725642842135771,0.0,0.0,1434.5298646887925,0.0,66034.62197444534,265.6073979265986,0.0,0.0,0.0,0.1761651220326324
27.20800000001027,40.24854216287685,139.98503496827118,3469.9482181897524,2250.0419121709483,2231.742187019664,286.3833396037286,42.67777200894517,0.0,3.1656699452349617,56.93572368674127,42.67777200894517,-4.242207523610005,0.0,-74.01351174191244,0.0,0.0,0.0,-56.213385167134106,0.0,6.685941902028487,0.0,0.0,1403.8182481211954,0.0,66034.9136680205,265.60762115483715,0.0,0.0,0.0,0.1742687895028892
27.219000000010283,40.2485433150451,139.98502969819037,3469.9129555551895,2250.5076816601004,2232.2045083924013,286.4399726360832,42.066643379773,0.0,3.2389834780231688,56.329719337840395,42.066643379773,-4.402886295441037,0.0,-74.01847919435802,0.0,0.0,0.0,-55.01618159254451,0.0,6.647488785945952,0.0,0.0,1374.0987920944453,0.0,66035.21222659183,265.60784963591624,0.0,0.0,0.0,0.17241385801775602
27.230000000010296,40.24854445043227,139.9850245031587,3469.8768889783187,2250.9668066331774,2232.6602395230093,286.49575811419146,41.46845380604698,0.0,3.311881238152955,55.73681501497547,41.46845380604698,-4.566239794890566,0.0,-74.02348367449348,0.0,0.0,0.0,-53.85709376278782,0.0,6.610229667530984,0.0,0.0,1345.3296243648672,0.0,66035.5176107543,265.6080833396223,0.0,0.0,0.0,0.17059902295934065
27.24100000001031,40.248545569391545,139.98501938159657,3469.840022955176,2251.4194269421287,2233.109519121436,286.55071387391655,40.882793663986114,0.0,3.3843760509508374,55.15660246819253,40.882793663986114,-4.732292186934609,0.0,-74.02852562871182,0.0,0.0,0.0,-52.73452637167169,0.0,6.574113515416967,0.0,0.0,1317.471063241249,0.0,66035.82978232935,265.6083222366797,0.0,0.0,0.0,0.16882303476827304
27.252000000010323,40.248546672264986,139.985014331974,3469.802361844022,2251.8656780402157,2233.552481534931,286.60485718960433,40.309270377363404,0.0,3.45648019627648,54.5886904990725,40.309270377363404,-4.901067728920335,0.0,-74.03360551093881,0.0,0.0,0.0,-51.6469667820325,0.0,6.53909191921154,0.0,0.0,1290.4854814630335,0.0,66036.14870431369,265.6085662987113,0.0,0.0,0.0,0.16708469607567225
27.263000000010337,40.24854775938402,139.9850093528088,3469.763909871166,2252.3056911591357,2233.9892569232925,286.65820479998166,39.74750753902475,0.0,3.5282054363734403,54.03270408163756,39.74750753902475,-5.072590761841445,0.0,-74.03872378280045,0.0,0.0,0.0,-50.592979936523136,0.0,6.505118927982318,0.0,0.0,1264.337179846726,0.0,66036.47434082869,265.6088154981997,0.0,0.0,0.0,0.16538285901247102
27.27400000001035,40.2485488310698,139.98500444266438,3469.7246711365055,2252.739593480487,2234.4199714298766,286.71077292271485,39.19714408619057,0.0,3.5995630420130524,53.48828353706404,39.19714408619057,-5.246885701115487,0.0,-74.0438809137945,0.0,0.0,0.0,-49.571203630232475,0.0,6.472150900228771,0.0,0.0,1238.9922699075025,0.0,66036.80665707379,265.60906980845175,0.0,0.0,0.0,0.1637164226834265
27.285000000010363,40.24854988763372,139.98499960014806,3469.684649618783,2253.167508309142,2234.844747352566,286.7625772841904,38.657833525736855,0.0,3.6705638170521766,52.955083758396725,38.657833525736855,-5.423977026845976,0.0,-74.04907738146636,0.0,0.0,0.0,-48.580344116026964,0.0,6.440146364416414,0.0,0.0,1214.4185647346064,0.0,66037.14561928119,265.6093292035638,0.0,0.0,0.0,0.16208433079417264
27.296000000010377,40.24855092937776,139.9849948239093,3469.6438491805816,2253.5895552157967,2235.2637032855446,286.8136331346987,38.12924320595739,0.0,3.7412181215158777,52.4327734817643,38.12924320595739,-5.603889273551862,0.0,-74.05431367158953,0.0,0.0,0.0,-47.61917201611571,0.0,6.40906588923222,0.0,0.0,1190.5854774637949,0.0,66037.49119467368,265.6095936583894,0.0,0.0,0.0,0.16048556942059916
27.30700000001039,40.2485519565948,139.98499011263795,3469.6022735730744,2254.0058501919902,2235.676954273474,286.8639552648571,37.611053631585094,0.0,3.811535893307313,51.9210346008727,37.611053631585094,-5.786647019346798,0.0,-74.05959027835027,0.0,0.0,0.0,-46.68651851568981,0.0,6.378871962794813,0.0,0.0,1167.4639267482387,0.0,66037.84335142377,265.6098631485081,0.0,0.0,0.0,0.1589191649106931
27.318000000010404,40.24855296956909,139.98498546506272,3469.55992644055,2254.4165057923396,2236.0846119520024,286.91355802820283,37.10295781910417,0.0,3.8815266686390704,51.41956152180603,37.10295781910417,-5.972274874550364,0.0,-74.06490770453752,0.0,0.0,0.0,-45.78127181660948,0.0,6.349528880120307,0.0,0.0,1145.026248681895,0.0,66038.20205861556,265.6101376501963,0.0,0.0,0.0,0.15738418190975048
27.329000000010417,40.24855396857651,139.98498087994963,3469.5168113247055,2254.821631267587,2236.4867846798556,286.96245535710966,36.60466068961443,0.0,3.951199601272885,50.928060555395525,36.60466068961443,-6.160797469713348,0.0,-74.07026646173716,0.0,0.0,0.0,-44.902373831028484,0.0,6.3210026382055275,0.0,0.0,1123.2461146767655,0.0,66038.56728620773,265.61041714039874,0.0,0.0,0.0,0.15587972150057403
27.34000000001043,40.24855495388494,139.9849763561006,3469.4729316687517,2255.221332690927,2236.8835776639144,287.0106607806169,36.11587849672051,0.0,4.020563480647993,50.44624934462762,36.11587849672051,-6.352239443039021,0.0,-74.07566707053174,0.0,0.0,0.0,-44.048817096578446,0.0,6.293260838145313,0.0,0.0,1102.09845483844,0.0,66038.93900499873,265.61070159670214,0.0,0.0,0.0,0.15440491945091595
27.351000000010444,40.24855592575452,139.98497189235212,3469.4282908213127,2255.6157130705196,2237.2750930711213,287.0581874363351,35.6363382871109,0.0,4.08962674897223,49.973856324755126,35.6363382871109,-6.546625427182301,0.0,-74.08111006070503,0.0,0.0,0.0,-43.219641896304786,0.0,6.266272593750379,0.0,0.0,1081.5593864231464,0.0,66039.31718659356,265.61099099730956,0.0,0.0,0.0,0.15295894456101639
27.362000000010458,40.248556884437974,139.98496748757375,3469.3828920401493,2256.0048724918156,2237.6614301701247,287.1050480848516,35.16577739166815,0.0,4.1583975173444365,49.510620213951775,35.16577739166815,-6.743980035408603,0.0,-74.0865959714522,0.0,0.0,0.0,-42.41393356796631,0.0,6.2400084461774,0.0,0.0,1061.6061469947508,0.0,66039.70180337198,265.61128532101617,0.0,0.0,0.0,0.15154099710462665
27.37300000001047,40.24855783018088,139.9849631406672,3469.33673849571,2256.3889081936527,2238.042685405396,287.1512551300234,34.7039429451129,0.0,4.226883580971559,49.05628953251156,34.7039429451129,-6.944327847094276,0.0,-74.0921253515953,0.0,0.0,0.0,-41.63081998860012,0.0,6.214440284123792,0.0,0.0,1042.2170319320753,0.0,66040.09282845832,265.61158454718617,0.0,0.0,0.0,0.15015030735740087
27.384000000010484,40.24855876322192,139.98495885056477,3469.2898332745162,2256.7679147007407,2238.418952530109,287.1968206243594,34.250591432332364,0.0,4.29509243353919,48.61062214874297,34.250591432332364,-7.147693392550527,0.0,-74.09769875980459,0.0,0.0,0.0,-40.869469221423465,0.0,6.1895412691768685,0.0,0.0,1023.3713359659098,0.0,66040.49023569252,265.6118886557306,0.0,0.0,0.0,0.14878613420699324
27.395000000010498,40.248559683793154,139.98495461622846,3469.2421793823996,2257.1419839129976,2238.790322694196,287.2417562847043,33.80548825967989,0.0,4.363031280789933,48.17338484984348,33.80548825967989,-7.354101137152801,0.0,-74.1033167648256,0.0,0.0,0.0,-40.12908731320748,0.0,6.165285765940764,0.0,0.0,1005.0492984514295,0.0,66040.89399960257,265.6121976270862,0.0,0.0,0.0,0.1474477638396136
27.40600000001051,40.24856059212026,139.984950436649,3469.1937797475907,2257.511205188379,2239.156884525499,287.2860735106178,33.36840734965629,0.0,4.430707053360063,47.744352936164546,33.36840734965629,-7.563575464757883,0.0,-74.10897994571246,0.0,0.0,0.0,-39.40891623122393,0.0,6.141649276595219,0.0,0.0,987.2320521056849,0.0,66041.30409537845,265.61251144219557,0.0,0.0,0.0,0.14613450849817458
27.417000000010525,40.24856148842277,139.9849463108445,3469.1446372236705,2257.8756654578046,2239.5187242452103,287.32978338771323,32.93913075749883,0.0,4.4981264189212915,47.32330983739209,32.93913075749883,-7.776140660391075,0.0,-74.1146888920671,0.0,0.0,0.0,-38.70823192974705,0.0,6.11860837956827,0.0,0.0,969.9015749616569,0.0,66041.72049884641,265.6128300824875,0.0,0.0,0.0,0.14484570530751723
27.428000000010538,40.24856237291425,139.9849422378596,3469.094754592395,2258.2354493013545,2239.875925743138,287.37289669976155,32.517448308308566,0.0,4.56529579367111,46.910046749272524,32.517448308308566,-7.991820892186205,0.0,-74.1204442042853,0.0,0.0,0.0,-38.02634253689429,0.0,6.096140672030261,0.0,0.0,953.0406453102431,0.0,66042.14318644561,265.61315352985895,0.0,0.0,0.0,0.14358071516252002
27.43900000001055,40.24856324580256,139.98493821676468,3469.0441345663976,2258.590639025568,2240.2285706535868,287.41542394470207,32.10315725344391,0.0,4.632221353212124,46.50436228961166,32.10315725344391,-8.210640192561527,0.0,-74.12624649380922,0.0,0.0,0.0,-37.362586653320136,0.0,6.074224715939939,0.0,0.0,936.6327994196432,0.0,66042.57213520445,265.6134817666571,0.0,0.0,0.0,0.142338921675198
27.450000000010565,40.248564107290036,139.98493424665463,3468.9927797917676,2258.941314761935,2240.576738453987,287.4573753398428,31.69606194499757,0.0,4.698909042857926,46.106062172362975,31.69606194499757,-8.432622438615057,0.0,-74.13209638338671,0.0,0.0,0.0,-36.71633175494565,0.0,6.052839987394421,0.0,0.0,920.6622918381969,0.0,66043.00732271904,265.6138147756628,0.0,0.0,0.0,0.1411197301771682
27.46100000001058,40.24856495757367,139.98493032664834,3468.940692850528,2259.2875545206643,2240.920506517821,287.4987608318977,31.29597352725621,0.0,4.76536458740047,45.71495889870409,31.29597352725621,-8.65779133172335,0.0,-74.13799450733788,0.0,0.0,0.0,-36.08697269251477,0.0,6.031966829054273,0.0,0.0,905.1140581017868,0.0,66043.44872713191,265.6141525400742,0.0,0.0,0.0,0.13992256677411183
27.472000000010592,40.24856579684533,139.98492645588775,3468.8878762630075,2259.629434270094,2241.259950192771,287.5395901118357,30.90270964411806,0.0,4.831593500371495,45.330871464076345,30.90270964411806,-8.886170376328472,0.0,-74.14394151182883,0.0,0.0,0.0,-35.47393028132643,0.0,6.011586405432588,0.0,0.0,889.9736796807689,0.0,66043.89632711181,265.6144950434915,0.0,0.0,0.0,0.13874687744909514
27.483000000010605,40.2485666252919,139.98492263353683,3468.834332490106,2259.967028026881,2241.5951428914436,287.5798726165299,30.516094161513987,0.0,4.897601092828307,44.95362508023228,30.516094161513987,-9.11778285789845,0.0,-74.14993805515311,0.0,0.0,0.0,-34.876649975000156,0.0,5.991680660853126,0.0,0.0,875.227351014013,0.0,66044.35010183431,265.614842269902,0.0,0.0,0.0,0.13759212721182573
27.49400000001062,40.24856744309545,139.98491885878124,3468.7800639354746,2260.3004078882586,2241.926156122467,287.6196175398476,30.135956903942002,0.0,4.963392481692194,44.58305091140081,30.135956903942002,-9.352651820047399,0.0,-74.15598480802082,0.0,0.0,0.0,-34.29460061760125,0.0,5.972232279897334,0.0,0.0,860.8618484892212,0.0,66044.81003096365,265.6151942036661,0.0,0.0,0.0,0.13645779929111937
27.505000000010632,40.24856825043342,139.9849151308273,3468.7250729476027,2260.6296441242303,2242.253059582323,287.65883384133076,29.76213340428513,0.0,5.02897259766584,44.2189858237396,29.76213340428513,-9.59080004080243,0.0,-74.16208245385586,0.0,0.0,0.0,-33.72727326887659,0.0,5.9532246501738175,0.0,0.0,846.8645012392687,0.0,66045.27609463439,265.61555082950343,0.0,0.0,0.0,0.13534339436803547
27.516000000010646,40.24856904747878,139.98491144890139,3468.669361821822,2260.954805224399,2242.5759212011335,287.697530257362,29.39446466613788,0.0,5.094346192754344,43.86127214729939,29.39446466613788,-9.832250008005406,0.0,-74.16823168910146,0.0,0.0,0.0,-33.174180097746955,0.0,5.934641827256029,0.0,0.0,833.2231636340717,0.0,66045.7482734346,265.61591213248,0.0,0.0,0.0,0.13424842984730861
27.52700000001066,40.24856983440013,139.98490781224928,3468.612932802225,2261.2759579655226,2242.8948072109197,287.73571529996485,29.032796937917873,0.0,5.159517847412831,43.50975744977674,29.032796937917873,-10.077023893838758,0.0,-74.17443322353436,0.0,0.0,0.0,-32.63485333956004,0.0,5.916468501645516,0.0,0.0,819.9261893563905,0.0,66046.22654838976,265.61627809799563,0.0,0.0,0.0,0.13317243916486132
27.538000000010673,40.24857061136189,139.98490422013552,3468.5557880835167,2261.5931674596795,2243.2097821921293,287.7733972726573,28.6769814980864,0.0,5.22449197734214,43.16429432137852,28.6769814980864,-10.325143528465878,0.0,-74.1806877805878,0.0,0.0,0.0,-32.10884431293819,0.0,5.898689967628613,0.0,0.0,806.962406958154,0.0,66046.71090094656,265.61664871177186,0.0,0.0,0.0,0.13211497112932663
27.549000000010686,40.248571378524446,139.98490067184278,3468.497929812784,2261.9064972159836,2243.5209091353645,287.81058427428997,28.326874450845914,0.0,5.289272839952667,42.824740170165896,28.326874450845914,-10.57663037277791,0.0,-74.18699609768377,0.0,0.0,0.0,-31.595722492360597,0.0,5.881292093903861,0.0,0.0,794.3210968014712,0.0,66047.20131295804,265.6170239598405,0.0,0.0,0.0,0.13107558929564642
27.5600000000107,40.248572136044224,139.98489716667143,3468.4393600911985,2262.21600917636,2243.828249476628,287.8472842054762,27.98233653172308,0.0,5.353864540515142,42.49095702728627,27.98233653172308,-10.831505490240277,0.0,-74.19335892657467,0.0,0.0,0.0,-31.095074632896907,0.0,5.86426129586657,0.0,0.0,781.9919692953785,0.0,66047.69776666924,265.61740382853236,0.0,0.0,0.0,0.1300538713689337
27.571000000010713,40.24857288407387,139.98489370393867,3468.380080975661,2262.5217637922865,2244.1318631739887,287.8835047740671,27.64323292248381,0.0,5.418271038015949,42.16281136153935,27.64323292248381,-11.089789517834067,0.0,-74.1997770336948,0.0,0.0,0.0,-30.606503943766903,0.0,5.847584509444962,0.0,0.0,769.9651443457565,0.0,66048.20024470266,265.6177883044667,0.0,0.0,0.0,0.12904940863690456
27.582000000010726,40.24857362276233,139.98489028297817,3468.320094480367,2262.8238200550436,2244.4318087375605,287.9192534992138,27.309433074862127,0.0,5.482496150733452,41.840173902758956,27.309433074862127,-11.351502636088911,0.0,-74.20625120052206,0.0,0.0,0.0,-30.129629307638446,0.0,5.831249166389761,0.0,0.0,758.2311319417572,0.0,66048.70873004568,265.61817737454106,0.0,0.0,0.0,0.1280618054292926
27.59300000001074,40.24857435225499,139.9848869031396,3468.2594025783333,2263.1222355427667,2244.7281432754035,287.9545377233154,26.980810542616915,0.0,5.546543561550749,41.52291947352452,26.980810542616915,-11.616664538206265,0.0,-74.21278222394996,0.0,0.0,0.0,-29.66408454279225,0.0,5.815243170926266,0.0,0.0,746.7808138074261,0.0,66049.22320603702,265.61857102592114,0.0,0.0,0.0,0.12709067860275874
27.604000000010753,40.24857507269379,139.98488356378806,3468.1980072028487,2263.4170664643816,2245.0209225376966,287.98936461303333,26.65724282146141,0.0,5.61041682301935,41.21092682874681,26.65724282146141,-11.885294398273802,0.0,-74.21937091667058,0.0,0.0,0.0,-29.20951770548449,0.0,5.799554877684075,0.0,0.0,735.6054260522607,0.0,66049.74365635446,265.61896924603144,0.0,0.0,0.0,0.12613565704990193
27.615000000010767,40.24857578421736,139.9848802643037,3468.135910248881,2263.7083676997054,2245.3102009554796,288.023741172373,26.33861119643823,0.0,5.674119362187336,40.90407850270087,26.33861119643823,-12.157410838574057,0.0,-74.22601810756883,0.0,0.0,0.0,-28.765590430023853,0.0,5.78417307082562,0.0,0.0,724.6965427590222,0.0,66050.27006500291,265.6193720225461,0.0,0.0,0.0,0.12519638123106372
27.62600000001078,40.248576486961014,139.98487700408097,3468.073113574431,2263.996192861354,2245.5960317046843,288.05767423014146,26.02480059633908,0.0,5.7376544852047555,40.60226066310475,26.02480059633908,-12.433031895992865,0.0,-74.23272464212802,0.0,0.0,0.0,-28.331977304249733,0.0,5.769086944300162,0.0,0.0,714.0460604513564,0.0,66050.80241630318,265.6197793433801,0.0,0.0,0.0,0.12427250272769849
27.637000000010794,40.24857718105699,139.98487378252855,3468.009619001835,2264.2805942997525,2245.8784667078294,288.0911704661058,25.715699454792844,0.0,5.801025381718214,40.30536297186798,25.715699454792844,-12.712174987535613,0.0,-74.2394913828477,0.0,0.0,0.0,-27.908365278258014,0.0,5.754286083154843,0.0,0.0,703.6461833877311,0.0,66051.34069488026,265.6201911966807,0.0,0.0,0.0,0.1233636838161579
27.648000000010807,40.24857786663442,139.9848705990687,3467.9454283190194,2264.5616231654967,2246.1575566982965,288.12423640001106,25.411199577668512,0.0,5.864235129065903,40.01327845215593,25.411199577668512,-12.994856874962151,0.0,-74.24631920967373,0.0,0.0,0.0,-27.494453104366617,0.0,5.739760445839022,0.0,0.0,693.4894096318325,0.0,66051.8848856532,265.6206075708194,0.0,0.0,0.0,0.12246959706080686
27.65900000001082,40.24857854381953,139.9848674531369,3467.8805432807158,2264.839329437632,2246.433351247026,288.15687840577317,25.111196016460614,0.0,5.9272866962836295,39.72590336143781,25.111196016460614,-13.281093628554135,0.0,-74.25320902044129,0.0,0.0,0.0,-27.089950806448204,0.0,5.725500347442535,0.0,0.0,683.5685178528983,0.0,66052.43497382451,265.6210284543838,0.0,0.0,0.0,0.12158992492545369
27.670000000010834,40.248579212735656,139.9848643441814,3467.814965609624,2265.113761965057,2246.70589880418,288.1891027120859,24.81558694734476,0.0,5.990182947931787,39.44313707020565,24.81558694734476,-13.570900590031677,0.0,-74.26016173133107,0.0,0.0,0.0,-26.694579176883188,0.0,5.711496443812341,0.0,0.0,673.8765548125994,0.0,66052.9909448703,265.6214538361703,0.0,0.0,0.0,0.12072435940213803
27.681000000010847,40.248579873503346,139.984861271663,3467.748696997542,2265.384968486618,2246.975246719085,288.2209154048688,24.524273555609287,0.0,6.052926647752614,39.16488194607041,24.524273555609287,-13.864292334639376,0.0,-74.26717827733933,0.0,0.0,0.0,-26.30806929950194,0.0,5.697739716495841,0.0,0.0,664.4068234979544,0.0,66053.55278453059,265.6218837051765,0.0,0.0,0.0,0.11987260165637648
27.69200000001086,40.248580526240445,139.98485823505447,3467.6817391064556,2265.652995676825,2247.2414412853973,288.25232243452905,24.237159925186468,0.0,6.1155204621665415,38.891043242958396,24.237159925186468,-14.161282632425372,0.0,-74.27425961276214,0.0,0.0,0.0,-25.93016209699286,0.0,5.68422145846246,0.0,0.0,655.1528718624309,0.0,66054.12047880013,265.6223180505943,0.0,0.0,0.0,0.11903436168801929
27.703000000010874,40.24858117106219,139.98485523384045,3467.614093569585,2265.9178891666143,2247.5045277614145,288.28332962075154,23.954152933022677,0.0,6.177966963615918,38.621528995147635,23.954152933022677,-14.46188440874057,0.0,-74.28140671169432,0.0,0.0,0.0,-25.560607901352775,0.0,5.670933260558303,0.0,0.0,646.1084821398695,0.0,66054.69401391955,265.6227568618028,0.0,0.0,0.0,0.11820935800692091
27.714000000010888,40.248581808081276,139.98485226751683,3467.5457619924023,2266.179693584972,2247.7645504118636,288.31394265388997,23.675162148042194,0.0,6.240268633763917,38.35624991589855,23.675162148042194,-14.766109703989097,0.0,-74.28862056854376,0.0,0.0,0.0,-25.199166046048102,0.0,5.657866998651664,0.0,0.0,637.2676606981495,0.0,66055.27337636643,265.62320012836204,0.0,0.0,0.0,0.11739731732267233
27.7250000000109,40.24858243740789,139.98484933559058,3467.476745953609,2266.438452581124,2248.02155253011,288.3441670962536,23.400099734473336,0.0,6.302427866555984,38.095119300447905,23.400099734473336,-15.073969632664921,0.0,-74.29590219856149,0.0,0.0,0.0,-24.845604478642148,0.0,5.645014821429781,0.0,0.0,628.624628401673,0.0,66055.85855284728,265.6236478400064,0.0,0.0,0.0,0.11659797424768865
27.736000000010915,40.24858305914985,139.98484643757948,3467.407047006086,2266.6942088493934,2248.27557646185,288.37400839276967,23.128880359318856,0.0,6.3644469711507705,37.83805293314763,23.128880359318856,-15.385474341713815,0.0,-74.30325263838814,0.0,0.0,0.0,-24.499699392722572,0.0,5.6323691388098895,0.0,0.0,620.1738114536919,0.0,66056.44953028928,265.6240999866385,0.0,0.0,0.0,0.11581107101298288
27.747000000010928,40.24858367341264,139.9848435730117,3467.3366666778065,2266.947004162758,2248.526663639118,288.4034718696014,22.86142110376494,0.0,6.426328174727101,37.58496899854331,22.86142110376494,-15.700632968264044,0.0,-74.3106729466174,0.0,0.0,0.0,-24.161234878038144,0.0,5.619922610929883,0.0,0.0,611.9098326913833,0.0,66057.04629583262,265.6245565583231,0.0,0.0,0.0,0.11503635719599814
27.75800000001094,40.24858428029947,139.9848407414256,3467.265606472724,2267.196879391297,2248.7748545982245,288.4325627393157,22.59764137833467,0.0,6.488073625173129,37.335787996197695,22.59764137833467,-16.019453596773626,0.0,-74.31816420437713,0.0,0.0,0.0,-23.8300025878219,0.0,5.607668137686188,0.0,0.0,603.8275033082431,0.0,66057.64883682263,265.6250175452815,0.0,0.0,0.0,0.11427358945990256
27.769000000010955,40.24858487991134,139.9848379423693,3467.193867871627,2267.443874541048,2249.0201890189037,288.46128610108855,22.337462841602704,0.0,6.549685393663569,37.09043265907646,22.337462841602704,-16.341943215646847,0.0,-74.32572751592859,0.0,0.0,0.0,-23.50580142234339,0.0,5.595598848788261,0.0,0.0,595.9218149800155,0.0,66058.2571408029,265.62548293788586,0.0,0.0,0.0,0.1135225313037872
27.78000000001097,40.248585472347116,139.98483517540066,3467.1214523329686,2267.688028758328,2249.262705727817,288.4896469473585,22.080809322298144,0.0,6.6111654771304575,36.84882787532293,22.080809322298144,-16.668107673377033,0.0,-74.33336400928484,0.0,0.0,0.0,-23.188437227790438,0.0,5.583708094301359,0.0,0.0,588.1879323718048,0.0,66058.87119550834,265.6259527266541,0.0,0.0,0.0,0.11278295282323682
27.791000000010982,40.248586057703555,139.98483244008668,3467.0483612936705,2267.9293803776363,2249.502442747115,288.51765016174016,21.827606744631986,0.0,6.672515800632683,36.61090061325833,21.827606744631986,-16.997951634277882,0.0,-74.34107483684839,0.0,0.0,0.0,-22.877722509638104,0.0,5.571989435650738,0.0,0.0,580.6211860054274,0.0,66059.49098885756,265.626426902244,0.0,0.0,0.0,0.11205463048077331
27.802000000010995,40.24858663607545,139.98482973600363,3466.974596169897,2268.1679669140676,2249.739437284744,288.54530053497535,21.57778305669473,0.0,6.733738219629205,36.3765798494531,21.57778305669473,-17.33147853387036,0.0,-74.34886117606962,0.0,0.0,0.0,-22.573476159713756,0.0,5.560436637062057,0.0,0.0,573.217065467356,0.0,66060.11650894693,265.6269054554489,0.0,0.0,0.0,0.11133734688569875
27.81300000001101,40.24858720755552,139.98482706273637,3466.900158357809,2268.403825120241,2249.9737257946026,288.57260274339217,21.3312681617778,0.0,6.794834522160612,36.14579649972316,21.3312681617778,-17.668690533997452,0.0,-74.356724230126,0.0,0.0,0.0,-22.27552319621521,0.0,5.549043657414515,0.0,0.0,565.971212938776,0.0,66060.74774404417,265.6273883771923,0.0,0.0,0.0,0.11063089058289112
27.824000000011022,40.248587772234664,139.9848244198785,3466.8250492342913,2268.6369909778464,2250.205343964174,288.5995613788932,21.08799385248065,0.0,6.8558064309434235,35.91848335291276,21.08799385248065,-18.00958847774411,0.0,-74.3646652286234,0.0,0.0,0.0,-21.983694515984,0.0,5.5378046424845015,0.0,0.0,558.8794170304141,0.0,66061.38468258188,265.6278756585233,0.0,0.0,0.0,0.10993505585012907
27.835000000011036,40.248588330201855,139.98482180703195,3466.749270157664,2268.8674997274284,2250.434326746434,288.62618093429154,20.847893747472767,0.0,6.916655605381318,35.69457500733349,20.847893747472767,-18.354171844244924,0.0,-74.37268542832001,0.0,0.0,0.0,-21.697826658378204,0.0,5.5267139175589195,0.0,0.0,551.9376069058445,0.0,66062.0273131516,265.62836729061206,0.0,0.0,0.0,0.10924964250354656
27.84600000001105,40.24858888154426,139.98481922380668,3466.672822468361,2269.0953859014053,2250.660708392468,288.65246580855603,20.610903230786494,0.0,6.977383643497218,35.47400780973527,20.610903230786494,-18.70243870346757,0.0,-74.38078611387402,0.0,0.0,0.0,-21.4177615801283,0.0,5.515765980398561,0.0,0.0,545.1418466779404,0.0,66062.67562449788,265.62886326474506,0.0,0.0,0.0,0.10857445571083726
27.857000000011062,40.2485894263473,139.9848166698207,3466.5957074895987,2269.3206833197805,2250.8845224457987,288.6784203173193,20.376959393523634,0.0,7.037992083789976,35.256719796692366,20.376959393523634,-19.05438567106502,0.0,-74.38896859861566,0.0,0.0,0.0,-21.143346440595927,0.0,5.504955494533134,0.0,0.0,538.4883300640602,0.0,66063.32960551305,265.6293635723212,0.0,0.0,0.0,0.10790930581185083
27.868000000011076,40.24858996469464,139.9848141446997,3466.5179265280153,2269.5434251212528,2251.1058017750315,288.7040486829021,20.146000977864485,0.0,7.098482407019212,35.042650638293296,20.146000977864485,-19.410007863395155,0.0,-74.39723422534483,0.0,0.0,0.0,-20.874433396889845,0.0,5.49427728287061,0.0,0.0,531.9733752863939,0.0,66063.98924523122,265.6298682048473,0.0,0.0,0.0,0.10725400814624071
27.87900000001109,40.2485904966683,139.98481164807671,3466.4394808743,2269.763643793606,2251.324578602822,288.72935504734426,19.917968323274184,0.0,7.1588560379216535,34.831741584029395,19.917968323274184,-19.769298852811332,0.0,-74.40558436715503,0.0,0.0,0.0,-20.610879408325584,0.0,5.483726321604489,0.0,0.0,525.5934202047101,0.0,66064.65453282319,265.630377153934,0.0,0.0,0.0,0.10660838288784177
27.890000000011103,40.248591022348656,139.98480917959236,3466.3603718037994,2269.9813711561446,2251.5408844884278,288.75434347036264,19.692803314806298,0.0,7.21911434686217,34.623935410782266,19.692803314806298,-20.13225062333305,0.0,-74.41402042828483,0.0,0.0,0.0,-20.352546049744802,0.0,5.473297734403668,0.0,0.0,519.3450176694686,0.0,66065.32545759126,265.630890411292,0.0,0.0,0.0,0.1059722548854718
27.901000000011116,40.248591541814484,139.98480673889415,3466.2806005771,2270.1966384152265,2251.7547503838114,288.7790179284735,19.47044933340917,0.0,7.279258651422508,34.419176372815585,19.47044933340917,-20.49885352681039,0.0,-74.42254384499789,0.0,0.0,0.0,-20.099299333238832,0.0,5.462986786870349,0.0,0.0,513.2248310839731,0.0,66066.00200896438,265.63140796872824,0.0,0.0,0.0,0.10534545350986811
27.91200000001113,40.24859205514301,139.98480432563656,3466.2001684406077,2270.4094761607357,2251.9662066294854,288.8033823196558,19.250851208145036,0.0,7.339290217930607,34.21741015368139,19.250851208145036,-20.869096239701545,0.0,-74.43115608649266,0.0,0.0,0.0,-19.851009537846487,0.0,5.452788881252395,0.0,0.0,507.2296301648775,0.0,66066.68417649312,265.63192981814205,0.0,0.0,0.0,0.10472781250648386
27.923000000011143,40.24859256240993,139.98480193948097,3466.1190766270965,2270.6199143720496,2252.175282960022,288.8274404672818,19.0339551702367,0.0,7.399210262933209,34.01858381995592,19.0339551702367,-21.242965720586938,0.0,-74.43985865584284,0.0,0.0,0.0,-19.60755104682144,0.0,5.442699551397195,0.0,0.0,501.3562868909831,0.0,66067.37194984473,265.6324559515215,0.0,0.0,0.0,0.10411916985388421
27.934000000011157,40.248593063689505,139.98479958009514,3466.037326356251,2270.8279824636343,2252.3820085502425,288.85119611840884,18.81970880886077,0.0,7.459019954614355,33.822645776723796,18.81970880886077,-21.620447168548544,0.0,-74.44865309096994,0.0,0.0,0.0,-19.36880219208723,0.0,5.432714457934833,0.0,0.0,495.6017716308242,0.0,66068.06531879901,265.63298636094,0.0,0.0,0.0,0.10351936762749359
27.94500000001117,40.24859355905455,139.98479724715338,3465.954918835187,2271.033709270148,2252.5864119992602,288.8746529511111,18.608061028610727,0.0,7.518720414162204,33.62954572473427,18.608061028610727,-22.001523982546846,0.0,-74.45754096564924,0.0,0.0,0.0,-19.134645105519038,0.0,5.422829383679211,0.0,0.0,489.9631494400845,0.0,66068.76427324355,265.6335210385529,0.0,0.0,0.0,0.1029282518684611
27.956000000011183,40.24859404857645,139.9847949403363,3465.8718552589653,2271.237123069174,2252.7885213540826,288.89781456913886,18.398962008556477,0.0,7.578312717086519,33.43923461915609,18.398962008556477,-22.386177721932608,0.0,-74.4665238905504,0.0,0.0,0.0,-18.904965576712495,0.0,5.413040229236149,0.0,0.0,484.4375765203747,0.0,66069.46880316957,265.63405997659413,0.0,0.0,0.0,0.10234567245741849
27.967000000011197,40.24859453232527,139.98479265933045,3465.788136811082,2271.4382516077358,2252.9883641353235,288.92068450986017,18.192363162831377,0.0,7.637797894489038,33.25166462986218,18.192363162831377,-22.77438806823364,0.0,-74.47560351431414,0.0,0.0,0.0,-18.6796529169178,0.0,5.403343008808339,0.0,0.0,479.022296831394,0.0,66070.17889866745,265.63460316737303,0.0,0.0,0.0,0.10177148299292108
27.97800000001121,40.2485950103697,139.98479040382855,3465.7037646639524,2271.6371220940023,2253.1859673293006,288.9432662407067,17.98821710268037,0.0,7.697176934288821,33.06678910317785,17.98821710268037,-23.16613278836086,0.0,-74.48478152466652,0.0,0.0,0.0,-18.4585998288361,0.0,5.39373384618739,0.0,0.0,473.7146388489203,0.0,66070.8945499228,265.63515060327103,0.0,0.0,0.0,0.1012055406743676
27.989000000011224,40.24859548277717,139.984788173529,3465.618739979376,2271.8337612288833,2253.3813574187616,288.96556316792027,17.786477599906807,0.0,7.756450782404595,32.88456252503033,17.786477599906807,-23.56138769938023,0.0,-74.49405964957234,0.0,0.0,0.0,-18.241702281991213,0.0,5.384208970923837,0.0,0.0,468.5120124615075,0.0,66071.61574721277,265.635702276739,0.0,0.0,0.0,0.10064770618920965
28.000000000011237,40.248595949613815,139.9847859681359,3465.5330639089943,2272.0281952112,2253.5745603890527,288.9875786291716,17.58709955165798,0.0,7.8156203438959855,32.704940485439664,17.58709955165798,-23.96012663500039,0.0,-74.50343965842924,0.0,0.0,0.0,-18.028859393405206,0.0,5.37476471466658,0.0,0.0,463.41190599913085,0.0,66072.34248090145,265.63625818029374,0.0,0.0,0.0,0.10009784360426646
28.01100000001125,40.24859641094454,139.98478378735877,3465.446737594733,2272.2204497542593,2253.7656017439076,289.00931590066745,17.390038946492805,0.0,7.874686484065456,32.527879644294636,17.390038946492805,-24.362321413927095,0.0,-74.51292336330421,0.0,0.0,0.0,-17.81997331332229,0.0,5.3653975076633635,0.0,0.0,458.41188338743126,0.0,66073.07474143678,265.6368183065156,0.0,0.0,0.0,0.09955582026097311
28.022000000011264,40.248596866833054,139.98478163091272,3465.3597621692325,2272.4105500816636,2253.954506500932,289.0307781994681,17.195252831677447,0.0,7.933650029522688,32.35333769835955,17.195252831677447,-24.767941810237723,0.0,-74.52251262021431,0.0,0.0,0.0,-17.614949115737943,0.0,5.356103875414732,0.0,0.0,453.50958142150245,0.0,66073.81251934658,265.63738264804545,0.0,0.0,0.0,0.0990215066743958
28.033000000011278,40.248597317341876,139.984779498518,3465.272138756267,2272.598520960867,2254.1412992256096,289.0519686821063,17.002699281657485,0.0,7.992511769213036,32.18127334946084,17.002699281657485,-25.176955525929493,0.0,-74.53220933045328,0.0,0.0,0.0,-17.413694693503984,0.0,5.346880435474044,0.0,0.0,448.70270715353524,0.0,66074.55580523491,265.63795119758186,0.0,0.0,0.0,0.09849477643585852
28.04400000001129,40.24859776253237,139.98477738990007,3465.1838684711533,2272.784386698761,2254.326004026655,289.0728904461226,16.812337367657562,0.0,8.05127245541161,32.01164627380415,16.812337367657562,-25.589328165795624,0.0,-74.54201544196641,0.0,0.0,0.0,-17.216120657792484,0.0,5.337723894386623,0.0,0.0,443.9890353889025,0.0,66075.30458977897,265.63852394787875,0.0,0.0,0.0,0.09797550611902987
28.055000000011304,40.2485982024648,139.9847753047893,3465.0949524211487,2272.9681711645358,2254.508644578597,289.09354653369775,16.62412712836185,0.0,8.109932804684503,31.844417092375906,16.62412712836185,-26.00502321478309,0.0,-74.55193295077513,0.0,0.0,0.0,-17.02214024171267,0.0,5.328631044761495,0.0,0.0,439.3664062855764,0.0,66076.05886372508,265.6391008917424,0.0,0.0,0.0,0.09746357518932901
28.066000000011318,40.24859863719832,139.98477324292108,3465.0053917058367,2273.1498977873607,2254.6892441193904,289.1139399320292,16.43802954163078,0.0,8.168493498818568,31.67954734238448,16.43802954163078,-26.42400201798465,0.0,-74.56196390245387,0.0,0.0,0.0,-16.83166920788639,0.0,5.319598762469383,0.0,0.0,434.83272305203616,0.0,66076.81861788609,265.6396820220292,0.0,0.0,0.0,0.09695886591651395
28.07700000001133,40.248599066791,139.98477120403558,3464.9151874175072,2273.329589568194,2254.867825462465,289.13407357222485,16.25400649721168,0.0,8.226955185721105,31.516999449699096,16.25400649721168,-26.84622376341583,0.0,-74.57211039366143,0.0,0.0,0.0,-16.64462575979699,0.0,5.3106240039611805,0.0,0.0,430.38594973906567,0.0,66077.58384313759,265.6402673316432,0.0,0.0,0.0,0.0964612632903233
28.088000000011345,40.24859949129989,139.98476918787756,3464.82434064152,2273.5072691054056,2255.044411021941,289.15395033411806,16.07202077040276,0.0,8.285318480290739,31.356736702245833,16.07202077040276,-27.271645467725047,0.0,-74.58237457372886,0.0,0.0,0.0,-16.46093045673721,0.0,5.301703803701191,0.0,0.0,426.02410912109866,0.0,66078.35453041506,265.64085681353356,0.0,0.0,0.0,0.09597065493904781
28.09900000001136,40.248599910781024,139.9847671941964,3464.7328524566656,2273.6829585878204,2255.219022805471,289.1735730474013,15.892035996632007,0.0,8.343583965260724,31.198723224322556,15.892035996632007,-27.700221964981427,0.0,-74.59275864630682,0.0,0.0,0.0,-16.28050613218991,0.0,5.2928352717098335,0.0,0.0,421.7452806629827,0.0,66079.13067071099,265.64145046069245,0.0,0.0,0.0,0.09548693105091437
28.11000000001137,40.2486003252894,139.98476522274592,3464.6407239355126,2273.8566798081824,2255.391682428303,289.19294448779704,15.714016646914024,0.0,8.401752192015847,31.042923951795892,15.714016646914024,-28.13190589868085,0.0,-74.60326487107454,0.0,0.0,0.0,-16.103277815484226,0.0,5.284015591210843,0.0,0.0,417.5475985682424,0.0,66079.91225507142,265.64204826615247,0.0,0.0,0.0,0.0950099842981698
28.121000000011385,40.24860073487906,139.98476327328433,3464.547956144749,2274.0284541744254,2255.562411123936,289.2120673825777,15.537928004149812,0.0,8.45982368138406,30.889304608145455,15.537928004149812,-28.5666477171054,0.0,-74.61389556551346,0.0,0.0,0.0,-15.929172656578226,0.0,5.275242016378036,0.0,0.0,413.42924990514217,0.0,66080.69927459341,265.6426502229847,0.0,0.0,0.0,0.09453970976375788
28.1320000000114,40.2486011396031,139.98476134557407,3464.454550145514,2274.198302717511,2255.731229751769,289.2309444125575,15.363736140235886,0.0,8.517798924403905,30.737831681321804,15.363736140235886,-29.004395672165522,0.0,-74.62465310674828,0.0,0.0,0.0,-15.758119853826127,0.0,5.266511870177193,0.0,0.0,409.38847280701424,0.0,66081.49172042219,265.6432563242964,0.0,0.0,0.0,0.09407600487048703
28.143000000011412,40.248601539513714,139.9847594393818,3464.360506993719,2274.3662460969563,2255.8981588023685,289.24957821446174,15.191407893950743,0.0,8.575678383068729,30.588472401386326,15.191407893950743,-29.44509582184711,0.0,-74.63553993345836,0.0,0.0,0.0,-15.590050584595636,0.0,5.257822542298682,0.0,0.0,405.4235547435109,0.0,66082.2895837483,265.643866563229,0.0,0.0,0.0,0.09361876931259139
28.154000000011425,40.248601934662126,139.98475755447822,3464.265827740364,2274.5323046131807,2256.063218410908,289.26797137319164,15.02091084958807,0.0,8.633462491048704,30.441194718902597,15.02091084958807,-29.888692036378355,0.0,-74.64655854786271,0.0,0.0,0.0,-15.424897938607906,0.0,5.249171487176726,0.0,0.0,401.53283085960635,0.0,66083.09285580493,265.64448093295596,0.0,0.0,0.0,0.09316790498959175
28.16500000001144,40.248602325098695,139.9847556906379,3464.170513431846,2274.6964982217664,2256.2264283705863,289.28612642931006,14.85221331630752,0.0,8.69115165439154,30.29596728405016,14.85221331630752,-30.33512600822198,0.0,-74.657711517782,0.0,0.0,0.0,-15.262596853878525,0.0,5.2405562220913975,0.0,0.0,397.7146823793292,0.0,66083.90152786535,265.64509942668093,0.0,0.0,0.0,0.09272331594236805
28.176000000011452,40.248602710872916,139.98475384763955,3464.0745651102566,2274.8588465176717,2256.38780811617,289.30404588324853,14.685284308175115,0.0,8.748746252202805,30.15275942643293,14.685284308175115,-30.784337265989343,0.0,-74.66900147878096,0.0,0.0,0.0,-15.103084055144539,0.0,5.231974325349612,0.0,0.0,393.9675350713594,0.0,66084.71559124022,265.6457220376355,0.0,0.0,0.0,0.09228490829135755
28.187000000011466,40.24860309203344,139.9847520252654,3463.9779838136765,2275.0193687773954,2256.547376767179,289.32173219007063,14.520093524866587,0.0,8.8062466373067,30.011541135555728,14.520093524866587,-31.236263192362497,0.0,-74.68043113639467,0.0,0.0,0.0,-14.946297994667862,0.0,5.223423434541571,0.0,0.0,390.289857773767,0.0,66085.53503727535,265.6463487590776,0.0,0.0,0.0,0.09185259017679834
28.19800000001148,40.248603468628076,139.9847502233016,3463.880770576459,2275.1780839358057,2256.7051531040356,289.339187763248,14.356611333008162,0.0,8.86365313688807,29.87228304194354,14.356611333008162,-31.690839046098564,0.0,-74.69200326844337,0.0,0.0,0.0,-14.792178795310864,0.0,5.214901244869326,0.0,0.0,386.6801609752998,0.0,66086.35985734913,265.6469795842896,0.0,0.0,0.0,0.09142627170093984
28.209000000011493,40.24860384070383,139.98474844153793,3463.78292642951,2275.3350106039097,2256.8611555856223,289.35641497748605,14.194808748130377,0.0,8.920966053116468,29.734956398879252,14.194808748130377,-32.147997988179405,0.0,-74.70372072743874,0.0,0.0,0.0,-14.640668195785139,0.0,5.206405507544221,0.0,0.0,383.13699545075593,0.0,66087.19004286983,265.6476145065762,0.0,0.0,0.0,0.0910058648721466
28.220000000011506,40.24860420830689,139.98474667976757,3463.684452400558,2275.4901670911477,2257.015402372642,289.37341616182135,14.034657417211617,0.0,8.978185663752978,29.59953306473671,14.034657417211617,-32.60767111215614,0.0,-74.71558644308693,0.0,0.0,0.0,-14.491709497979418,0.0,5.197934028250119,0.0,0.0,379.65895094810685,0.0,66088.02558527398,265.64825351926305,0.0,0.0,0.0,0.09059128355082392
28.23100000001152,40.248604571482666,139.98474493778727,3463.5853495144183,2275.643571390946,2257.167911311909,289.39019360851455,13.876129601789014,0.0,9.03531222274051,29.465985485886847,13.876129601789014,-33.069787478724756,0.0,-74.72760342489256,0.0,0.0,0.0,-14.345247516276604,0.0,5.189484665669601,0.0,0.0,376.244654925128,0.0,66088.8664760237,265.64889661569487,0.0,0.0,0.0,0.09018244339709781
28.242000000011533,40.248604930275825,139.9847432153973,3463.485618793255,2275.7952411878887,2257.318699943631,289.4067495727001,13.719198161615372,0.0,9.092345960778248,29.33428668015571,13.719198161615372,-33.53427415455493,0.0,-74.73977476486816,0.0,0.0,0.0,-14.201228528774898,0.0,5.181055330070285,0.0,0.0,372.8927713334244,0.0,66089.71270660427,265.6495437892337,0.0,0.0,0.0,0.08977926182018411
28.253000000011546,40.24860528473029,139.98474151240106,3463.3852612568303,2275.9451938841053,2257.4677855281393,289.4230862713541,13.563836538841638,0.0,9.149287085880902,29.20441022081406,13.563836538841638,-34.00105625537907,0.0,-74.7521036403547,0.0,0.0,0.0,-14.059600230331707,0.0,5.172643981948603,0.0,0.0,369.60199944783255,0.0,66090.56426852243,265.65019503325726,0.0,0.0,0.0,0.08938165792938456
28.26400000001156,40.24860563488926,139.98473982860537,3463.2842779227503,2276.093446585581,2257.6151850316987,289.43920588634353,13.410018742705349,0.0,9.206135783923367,29.07633022107901,13.410018742705349,-34.47005699333335,0.0,-74.76459331695791,0.0,0.0,0.0,-13.920311687352882,0.0,5.164248630728588,0.0,0.0,366.3710727392649,0.0,66091.42115330399,265.65085034115754,0.0,0.0,0.0,0.08898955248665012
28.275000000011573,40.24860598079519,139.98473816382014,3463.182669806709,2276.2400161200376,2257.760915145222,289.45511055905945,13.257719334706326,0.0,9.262892219171386,28.950021319109265,13.257719334706326,-34.94119772852664,0.0,-74.77724715160655,0.0,0.0,0.0,-13.783313294253636,0.0,5.155867333513195,0.0,0.0,363.19875778917833,0.0,66092.28335249204,265.6515097063391,0.0,0.0,0.0,0.08860286786065524
28.286000000011587,40.24860632248985,139.98473651785858,3463.080437922719,2276.3849190248006,2257.904992270947,289.4708023989341,13.10691341425158,0.0,9.319556534798783,28.825458663475885,13.10691341425158,-35.41439802479704,0.0,-74.79006859573812,0.0,0.0,0.0,-13.648556731520964,0.0,5.147498193885867,0.0,0.0,360.0838532439076,0.0,66093.15085764471,265.6521731222174,0.0,0.0,0.0,0.08822152798232753
28.2970000000116,40.248606660014325,139.98473489053666,3462.9775832833407,2276.5281715912806,2258.0474325679997,289.486283477825,12.957576604752303,0.0,9.37612885339181,28.702617899091702,12.957576604752303,-35.88957570959902,0.0,-74.80306119861868,0.0,0.0,0.0,-13.515994925310439,0.0,5.139139360760226,0.0,0.0,357.02518880720845,0.0,66094.02366033319,265.6528405822176,0.0,0.0,0.0,0.08784545830178118
28.308000000011614,40.248606993409055,139.9847332816736,3462.874106899909,2276.669789823921,2258.1882519098363,289.50155583915995,12.809685040156419,0.0,9.432609277441111,28.581475153582893,12.809685040156419,-36.36664693794765,0.0,-74.81622861080302,0.0,0.0,0.0,-13.385582008513863,0.0,5.130789027275636,0.0,0.0,354.02162426942454,0.0,66094.9017521401,265.65351207977295,0.0,0.0,0.0,0.0874745857466039
28.319000000011627,40.248607322713795,139.98473169109155,3462.7700097827496,2276.809789471757,2258.3274659171375,289.51662148952136,12.663215351900819,0.0,9.488997889821794,28.462007024087036,12.663215351900819,-36.845526260329464,0.0,-74.82957458774239,0.0,0.0,0.0,-13.257273283236568,0.0,5.122445429736841,0.0,0.0,351.0720485717591,0.0,66095.78512465721,265.65418760832324,0.0,0.0,0.0,0.08710883868144911
28.33000000001164,40.24860764796767,139.9847301186153,3462.6652929413913,2276.9481860438786,2258.465089972988,289.5314824018499,12.51814465626825,0.0,9.545294754262102,28.344190564462593,12.51814465626825,-37.326126694472705,0.0,-74.84310299354722,0.0,0.0,0.0,-13.131025184626658,0.0,5.114106846595551,0.0,0.0,348.1753789042166,0.0,66096.67376948408,265.6548671613137,0.0,0.0,0.0,0.0867481468688875
28.341000000011654,40.248607969209154,139.9847285640726,3462.5599573847744,2277.084994786029,2258.6011391988986,289.5461405184406,12.374450542134227,0.0,9.601499915801147,28.228003272895517,12.374450542134227,-37.80835980085311,0.0,-74.85681780491252,0.0,0.0,0.0,-13.00679524600051,0.0,5.105771597472317,0.0,0.0,345.33055983583586,0.0,66097.56767822619,265.6555507321935,0.0,0.0,0.0,0.08639244143147401
28.352000000011667,40.24860828647615,139.98472702729407,3462.454004121453,2277.220230700698,2258.7356284747534,289.56059775338883,12.232111059090041,0.0,9.65761340123606,28.113423079888943,12.232111059090041,-38.29213576179457,0.0,-74.8707231152143,0.0,0.0,0.0,-12.884542065211754,0.0,5.09743804221689,0.0,0.0,342.5365624758978,0.0,66098.46684249275,265.65623831441434,0.0,0.0,0.0,0.08604165481498754
28.36300000001168,40.248608599805905,139.98472550811286,3462.3474341597953,2277.353908554847,2258.8685724474876,289.5748559856108,12.09110470592852,0.0,9.713635219559102,28.000428336622782,12.09110470592852,-38.77736346400848,0.0,-74.88482313878573,0.0,0.0,0.0,-12.76422527221337,0.0,5.089104580005329,0.0,0.0,339.79238366486106,0.0,66099.37125389559,265.65692990142935,0.0,0.0,0.0,0.08569572075280259
28.374000000011694,40.24860890923513,139.98472400636481,3462.2402485081734,2277.4860428827883,2258.9999855326923,289.58891706899993,11.951410419479707,0.0,9.76956536238498,27.888997803670627,11.951410419479707,-39.26395058439915,0.0,-74.89912221538245,0.0,0.0,0.0,-12.645805497764556,0.0,5.080769648472354,0.0,0.0,337.0970451938265,0.0,66100.28090404718,265.65762548669164,0.0,0.0,0.0,0.0853545742313548
28.385000000011708,40.24860921479991,139.98472252188836,3462.132448175154,2277.6166479886015,2259.129881918149,289.60278282385906,11.81300756378409,0.0,9.825403804368882,27.779110640061425,11.81300756378409,-39.75180367894822,0.0,-74.91362481484674,0.0,0.0,0.0,-12.529244343236446,0.0,5.072431722877352,0.0,0.0,334.4495930513872,0.0,66101.19578455926,265.6583250636533,0.0,0.0,0.0,0.08501815145666163
28.39600000001172,40.248609516535794,139.98472105452453,3462.024034169684,2277.745737946039,2259.258275562682,289.6164550450894,11.675875919591643,0.0,9.881150503615503,27.67074639267454,11.675875919591643,-40.24082827447612,0.0,-74.92833554198093,0.0,0.0,0.0,-12.414504351472505,0.0,5.064089315302604,0.0,0.0,331.8490966967732,0.0,66102.11588704091,265.659028625764,0.0,0.0,0.0,0.08468638982186352
28.407000000011735,40.248609814477746,139.98471960411672,3461.915007501267,2277.8733266187173,2259.385180217252,289.6299354964488,11.539995674175248,0.0,9.936805402079433,27.563884985956605,11.539995674175248,-40.73092896306511,0.0,-74.94325914164126,0.0,0.0,0.0,-12.301548978661796,0.0,5.055740973882311,0.0,0.0,329.29464835825013,0.0,66103.0412030973,265.6597361664698,0.0,0.0,0.0,0.08435922787574997
28.418000000011748,40.24861010866021,139.98471817051077,3461.8053691801406,2277.999427654273,2259.5106094184216,289.64322591558977,11.405347411447684,0.0,9.99236842595727,27.458506711949575,11.405347411447684,-41.222009498915625,0.0,-74.95840050406383,0.0,0.0,0.0,-12.190342567184771,0.0,5.047385282061062,0.0,0.0,326.7853623557757,0.0,66103.97172432826,265.6604476792123,0.0,0.0,0.0,0.08403660529223814
28.42900000001176,40.248610399117084,139.9847167535551,3461.695120217446,2278.1240544748725,2259.6345764786884,289.65632801478966,11.271912102371608,0.0,10.047839486071716,27.35459222061952,11.271912102371608,-41.71397289739589,0.0,-74.97376467043493,0.0,0.0,0.0,-12.080850319393202,0.0,5.0390208578804945,0.0,0.0,324.32037444695834,0.0,66104.90744232645,265.66116315742715,0.0,0.0,0.0,0.08371846284077196
28.440000000011775,40.248610685881765,139.98471535310026,3461.5842616253967,2278.247220308451,2259.7570945181114,289.6692434799465,11.139671095652611,0.0,10.103218478248012,27.252122510476035,11.139671095652611,-42.20672153603381,0.0,-74.9893568387192,0.0,0.0,0.0,-11.973038272287448,0.0,5.03064635329289,0.0,0.0,321.89884119541284,0.0,66105.84834867624,265.6618825945432,0.0,0.0,0.0,0.0834047423576108
28.45100000001179,40.2486109689871,139.98471396899913,3461.4727944174388,2278.368938180426,2259.8781764564146,289.6819739670238,11.008606108705564,0.0,10.158505283682958,27.151078919472894,11.008606108705564,-42.700157257190895,0.0,-75.00518236975965,0.0,0.0,0.0,-11.866873273056033,0.0,5.022260453500495,0.0,0.0,319.51993936064144,0.0,66106.79443495246,265.6626059839815,0.0,0.0,0.0,0.08309538671797885
28.462000000011802,40.24861124846547,139.98471260110693,3461.360719608413,2278.489220909191,2259.9978350071906,289.6945211117784,10.878699218885048,0.0,10.21369976930683,27.051443116180515,10.878699218885048,-43.19418147214921,0.0,-75.02124679366406,0.0,0.0,0.0,-11.762322955443564,0.0,5.013861876319532,0.0,0.0,317.1828653086028,0.0,66107.74569271841,265.66333331915394,0.0,0.0,0.0,0.08279033980904663
28.473000000011815,40.248611524348725,139.98471124928102,3461.2480382147064,2278.6080811226548,2260.11608269587,289.7068865197064,10.74993285497093,0.0,10.26880178813844,26.95319709122139,10.74993285497093,-43.68869526633571,0.0,-75.03755581649409,0.0,0.0,0.0,-11.659355716915172,0.0,5.005449371567657,0.0,0.0,314.88683444218134,0.0,66108.70211352526,265.66406459346257,0.0,0.0,0.0,0.08248954650371731
28.48400000001183,40.248611796668264,139.9847099133809,3461.1347512544035,2278.7255312588095,2260.2329318589404,289.71907177657835,10.622289788900497,0.0,10.323811179633587,26.85632314896011,10.622289788900497,-44.18359950540214,0.0,-75.05411532727375,0.0,0.0,0.0,-11.557940696586275,0.0,4.997021720473972,0.0,0.0,312.6310806507889,0.0,66109.66368891044,265.66479980029857,0.0,0.0,0.0,0.08219295263519219
28.495000000011842,40.24861206545497,139.98470859326824,3461.020859747438,2278.8415835630717,2260.3483946424694,289.7310784390625,10.495753127738919,0.0,10.37872777002716,26.76080389943948,10.495753127738919,-44.678794941874685,0.0,-75.07093140533499,0.0,0.0,0.0,-11.45804775388822,0.0,4.988577735110522,0.0,0.0,310.4148557783692,0.0,66110.63041039625,265.6655389330411,0.0,0.0,0.0,0.08190050497228957
28.506000000011856,40.24861233073933,139.98470728880676,3460.906364715729,2278.9562501015434,2260.4624830138623,289.7429080472779,10.370306305880149,0.0,10.433551372669097,26.666622250555072,10.370306305880149,-45.17418232208453,0.0,-75.08801032801998,0.0,0.0,0.0,-11.359647447941521,0.0,4.980116257844296,0.0,0.0,308.23742910911216,0.0,66111.60226948877,265.6662819850565,0.0,0.0,0.0,0.08161215119549343
28.51700000001187,40.248612592551325,139.98470599986229,3460.7912671833265,2279.0695427534956,2260.5752087554943,289.75456211539216,10.24593307747055,0.0,10.48828178835444,26.57376140046046,10.24593307747055,-45.669662493089234,0.0,-75.10535857875973,0.0,0.0,0.0,-11.26271101760949,0.0,4.971636160808864,0.0,0.0,306.09808687020444,0.0,66112.57925767673,265.66702894969745,0.0,0.0,0.0,0.08132783987370797
28.528000000011883,40.24861285092051,139.98470472630248,3460.675568176544,2279.181473233555,2260.6865834869077,289.7660421329101,10.122617509048032,0.0,10.542918805647702,26.482204830195844,10.122617509048032,-46.16513650929429,0.0,-75.12298285555163,0.0,0.0,0.0,-11.167210362206175,0.0,4.963136345394728,0.0,0.0,303.99613175098,0.0,66113.56136643047,265.66777982030203,0.0,0.0,0.0,0.08104752044169619
28.539000000011896,40.248613105875975,139.9847034679972,3460.559268724093,2279.292053063897,2260.796618636201,289.7773495692068,10.000343972389578,0.0,10.597462201201717,26.391936296533018,10.000343972389578,-46.66050573848673,0.0,-75.14089007985798,0.0,0.0,0.0,-11.073118022833661,0.0,4.95461574175759,0.0,0.0,301.93088243785127,0.0,66114.54858720017,265.6685345901926,0.0,0.0,0.0,0.08077114317818047
28.55000000001191,40.24861335744641,139.98470222481797,3460.442369857212,2279.4012936193876,2260.9053254859573,289.7884858702558,9.879097137560407,0.0,10.651911740071206,26.302939825029917,9.879097137560407,-47.15567196699435,0.0,-75.15908740595121,0.0,0.0,0.0,-10.980407164324872,0.0,4.946073308343606,0.0,0.0,299.9016731644464,0.0,66115.54091141565,265.6692932526755,0.0,0.0,0.0,0.08049865918458467
28.561000000011923,40.248613605660054,139.9847009966384,3460.324872609793,2279.5092060872967,2261.012715132205,289.7994524619265,9.758861966158243,0.0,10.706267176021193,26.215199703288043,9.758861966158243,-47.65053750368978,0.0,-75.17758223073133,0.0,0.0,0.0,-10.889051557768562,0.0,4.937508031431025,0.0,0.0,297.90785327637195,0.0,66116.53833048455,265.6700558010398,0.0,0.0,0.0,0.08023002036439716
28.572000000011936,40.248613850544764,139.9846997833338,3460.2067780185002,2279.615801505936,2261.118798523447,289.81025074940834,9.639623704746437,0.0,10.760528251830495,26.1287004744067,9.639623704746437,-48.14500528256321,0.0,-75.19638220404411,0.0,0.0,0.0,-10.799025563594784,0.0,4.928918924687278,0.0,0.0,295.94878681007873,0.0,66117.54083579165,265.67082222855646,0.0,0.0,0.0,0.07996517940313648
28.58300000001195,40.248614092127966,139.98469858478146,3460.0880871228937,2279.7210907426875,2261.2235864385734,289.82088211670487,9.52136787846988,0.0,10.814694699590419,26.043426930627707,9.52136787846988,-48.638978963595655,0.0,-75.21549523952999,0.0,0.0,0.0,-10.710304115199257,0.0,4.920305028740923,0.0,0.0,294.02385208530086,0.0,66118.54841869768,265.6715925284779,0.0,0.0,0.0,0.07970408974889957
28.594000000011963,40.248614330436695,139.98469740086028,3459.9688009655415,2279.8250845136563,2261.327089506562,289.83134792751764,9.404080284847916,0.0,10.868766240998845,25.959364107164895,9.404080284847916,-49.132363031672554,0.0,-75.23492952603581,0.0,0.0,0.0,-10.622862703086415,0.0,4.911665410767691,0.0,0.0,292.1324413105801,0.0,66119.56107053856,265.6723666940371,0.0,0.0,0.0,0.079446705593476
28.605000000011977,40.2486145654976,139.98469623145104,3459.8489205921364,2279.9277933767203,2261.429318199326,289.8416495263792,9.287746987738675,0.0,10.922742587649816,25.87649727621265,9.287746987738675,-49.625062893287044,0.0,-75.25469353962359,0.0,0.0,0.0,-10.536677359511456,0.0,4.902999164089983,0.0,0.0,290.27396020139616,0.0,66120.57878262427,265.6731447184468,0.0,0.0,0.0,0.07919298185401011
