time_sec,lat_deg,lon_deg,alt_agl_m,u_mps,v_mps,w_mps,true_airspeed_mps,ground_speed_mps,pitch_deg,roll_deg,yaw_deg,p_rad_sec,q_rad_sec,r_rad_sec,ax_mps2,ay_mps2,az_mps2,alpha_deg,beta_deg,qbar_pa,thrust_n,mach
26.992000000,40.247091962,139.987089291,3487.747300,63.529435,0.000000,1.511504,63.547413,63.529435,-1.362934,0.000000,-76.937343,0.000000,0.000000,0.000000,-99.286080,0.000000,7.459744,0.000000,0.000000,0.000000,0.000000,0.000000
27.002000000,40.247093241,139.987082069,3487.731777,62.553347,0.000000,1.585669,62.573441,62.553347,-1.452083,0.000000,-76.937343,0.000000,0.000000,0.000000,-96.257620,0.000000,7.381700,0.000000,0.000000,0.000000,0.000000,0.000000
27.012000000,40.247094501,139.987074957,3487.715516,61.606784,0.000000,1.659073,61.629119,61.606784,-1.542605,0.000000,-76.937343,0.000000,0.000000,0.000000,-93.365987,0.000000,7.307163,0.000000,0.000000,0.000000,0.000000,0.000000
27.022000000,40.247095741,139.987067952,3487.698525,60.688423,0.000000,1.731750,60.713126,60.688423,-1.634497,0.000000,-76.937343,0.000000,0.000000,0.000000,-90.603068,0.000000,7.235923,0.000000,0.000000,0.000000,0.000000,0.000000
27.032000000,40.247096963,139.987061051,3487.680811,59.797019,0.000000,1.803732,59.824217,59.797019,-1.727760,0.000000,-76.937343,0.000000,0.000000,0.000000,-87.961344,0.000000,7.167788,0.000000,0.000000,0.000000,0.000000,0.000000
27.042000000,40.247098168,139.987054250,3487.662381,58.931398,0.000000,1.875049,58.961220,58.931398,-1.822393,0.000000,-76.937343,0.000000,0.000000,0.000000,-85.433835,0.000000,7.102577,0.000000,0.000000,0.000000,0.000000,0.000000
27.052000000,40.247099355,139.987047547,3487.643241,58.090455,0.000000,1.945729,58.123032,58.090455,-1.918394,0.000000,-76.937343,0.000000,0.000000,0.000000,-83.014058,0.000000,7.040124,0.000000,0.000000,0.000000,0.000000,0.000000
27.062000000,40.247100525,139.987040939,3487.623398,57.273145,0.000000,2.015799,57.308609,57.273145,-2.015764,0.000000,-76.937343,0.000000,0.000000,0.000000,-80.695985,0.000000,6.980272,0.000000,0.000000,0.000000,0.000000,0.000000
27.072000000,40.247101679,139.987034423,3487.602857,56.478484,0.000000,2.085284,56.516967,56.478484,-2.114500,0.000000,-76.937343,0.000000,0.000000,0.000000,-78.474003,0.000000,6.922879,0.000000,0.000000,0.000000,0.000000,0.000000
27.082000000,40.247102817,139.987027997,3487.581625,55.705538,0.000000,2.154208,55.747175,55.705538,-2.214602,0.000000,-76.937343,0.000000,0.000000,0.000000,-76.342879,0.000000,6.867808,0.000000,0.000000,0.000000,0.000000,0.000000
27.092000000,40.247103940,139.987021658,3487.559706,54.953426,0.000000,2.222594,54.998354,54.953426,-2.316068,0.000000,-76.937343,0.000000,0.000000,0.000000,-74.297736,0.000000,6.814934,0.000000,0.000000,0.000000,0.000000,0.000000
27.102000000,40.247105047,139.987015404,3487.537107,54.221315,0.000000,2.290462,54.269671,54.221315,-2.418898,0.000000,-76.937343,0.000000,0.000000,0.000000,-72.334016,0.000000,6.764139,0.000000,0.000000,0.000000,0.000000,0.000000
27.112000000,40.247106140,139.987009232,3487.513831,53.508412,0.000000,2.357833,53.560336,53.508412,-2.523090,0.000000,-76.937343,0.000000,0.000000,0.000000,-70.447462,0.000000,6.715313,0.000000,0.000000,0.000000,0.000000,0.000000
27.122000000,40.247107219,139.987003142,3487.489884,52.813970,0.000000,2.424727,52.869601,52.813970,-2.628644,0.000000,-76.937343,0.000000,0.000000,0.000000,-68.634091,0.000000,6.668355,0.000000,0.000000,0.000000,0.000000,0.000000
27.132000000,40.247108283,139.986997130,3487.465271,52.137277,0.000000,2.491160,52.196757,52.137277,-2.735557,0.000000,-76.937343,0.000000,0.000000,0.000000,-66.890173,0.000000,6.623166,0.000000,0.000000,0.000000,0.000000,0.000000
27.142000000,40.247109335,139.986991194,3487.439996,51.477657,0.000000,2.557151,51.541131,51.477657,-2.843829,0.000000,-76.937343,0.000000,0.000000,0.000000,-65.212213,0.000000,6.579658,0.000000,0.000000,0.000000,0.000000,0.000000
27.152000000,40.247110372,139.986985333,3487.414064,50.834469,0.000000,2.622716,50.902081,50.834469,-2.953457,0.000000,-76.937343,0.000000,0.000000,0.000000,-63.596936,0.000000,6.537745,0.000000,0.000000,0.000000,0.000000,0.000000
27.162000000,40.247111398,139.986979544,3487.387478,50.207104,0.000000,2.687870,50.279001,50.207104,-3.064442,0.000000,-76.937343,0.000000,0.000000,0.000000,-62.041263,0.000000,6.497349,0.000000,0.000000,0.000000,0.000000,0.000000
27.172000000,40.247112410,139.986973827,3487.360243,49.594981,0.000000,2.752628,49.671311,49.594981,-3.176780,0.000000,-76.937343,0.000000,0.000000,0.000000,-60.542306,0.000000,6.458393,0.000000,0.000000,0.000000,0.000000,0.000000
27.182000000,40.247113410,139.986968179,3487.332362,48.997549,0.000000,2.817004,49.078461,48.997549,-3.290470,0.000000,-76.937343,0.000000,0.000000,0.000000,-59.097349,0.000000,6.420808,0.000000,0.000000,0.000000,0.000000,0.000000
27.192000000,40.247114399,139.986962598,3487.303840,48.414281,0.000000,2.881012,48.499926,48.414281,-3.405511,0.000000,-76.937343,0.000000,0.000000,0.000000,-57.703835,0.000000,6.384529,0.000000,0.000000,0.000000,0.000000,0.000000
27.202000000,40.247115375,139.986957084,3487.274679,47.844677,0.000000,2.944663,47.935208,47.844677,-3.521901,0.000000,-76.937343,0.000000,0.000000,0.000000,-56.359358,0.000000,6.349491,0.000000,0.000000,0.000000,0.000000,0.000000
27.212000000,40.247116340,139.986951634,3487.244884,47.288258,0.000000,3.007971,47.383829,47.288258,-3.639639,0.000000,-76.937343,0.000000,0.000000,0.000000,-55.061653,0.000000,6.315638,0.000000,0.000000,0.000000,0.000000,0.000000
27.222000000,40.247117294,139.986946246,3487.214458,46.744570,0.000000,3.070947,46.845336,46.744570,-3.758721,0.000000,-76.937343,0.000000,0.000000,0.000000,-53.808580,0.000000,6.282912,0.000000,0.000000,0.000000,0.000000,0.000000
27.232000000,40.247118238,139.986940921,3487.183404,46.213176,0.000000,3.133601,46.319295,46.213176,-3.879147,0.000000,-76.937343,0.000000,0.000000,0.000000,-52.598124,0.000000,6.251263,0.000000,0.000000,0.000000,0.000000,0.000000
27.242000000,40.247119170,139.986935655,3487.151724,45.693661,0.000000,3.195944,45.805291,45.693661,-4.000914,0.000000,-76.937343,0.000000,0.000000,0.000000,-51.428382,0.000000,6.220641,0.000000,0.000000,0.000000,0.000000,0.000000
27.252000000,40.247120092,139.986930449,3487.119424,45.185628,0.000000,3.257987,45.302930,45.185628,-4.124020,0.000000,-76.937343,0.000000,0.000000,0.000000,-50.297554,0.000000,6.190998,0.000000,0.000000,0.000000,0.000000,0.000000
27.262000000,40.247121004,139.986925300,3487.086504,44.688697,0.000000,3.319738,44.811832,44.688697,-4.248463,0.000000,-76.937343,0.000000,0.000000,0.000000,-49.203940,0.000000,6.162291,0.000000,0.000000,0.000000,0.000000,0.000000
27.272000000,40.247121906,139.986920207,3487.052968,44.202506,0.000000,3.381207,44.331637,44.202506,-4.374240,0.000000,-76.937343,0.000000,0.000000,0.000000,-48.145931,0.000000,6.134478,0.000000,0.000000,0.000000,0.000000,0.000000
27.282000000,40.247122798,139.986915170,3487.018819,43.726706,0.000000,3.442403,43.861999,43.726706,-4.501350,0.000000,-76.937343,0.000000,0.000000,0.000000,-47.122007,0.000000,6.107518,0.000000,0.000000,0.000000,0.000000,0.000000
27.292000000,40.247123680,139.986910186,3486.984060,43.260964,0.000000,3.503334,43.402585,43.260964,-4.629790,0.000000,-76.937343,0.000000,0.000000,0.000000,-46.130724,0.000000,6.081376,0.000000,0.000000,0.000000,0.000000,0.000000
27.302000000,40.247124554,139.986905255,3486.948693,42.804962,0.000000,3.564008,42.953078,42.804962,-4.759557,0.000000,-76.937343,0.000000,0.000000,0.000000,-45.170717,0.000000,6.056015,0.000000,0.000000,0.000000,0.000000,0.000000
27.312000000,40.247125418,139.986900376,3486.912720,42.358394,0.000000,3.624432,42.513175,42.358394,-4.890649,0.000000,-76.937343,0.000000,0.000000,0.000000,-44.240690,0.000000,6.031400,0.000000,0.000000,0.000000,0.000000,0.000000
27.322000000,40.247126273,139.986895547,3486.876144,41.920967,0.000000,3.684614,42.082584,41.920967,-5.023063,0.000000,-76.937343,0.000000,0.000000,0.000000,-43.339415,0.000000,6.007501,0.000000,0.000000,0.000000,0.000000,0.000000
27.332000000,40.247127119,139.986890768,3486.838968,41.492401,0.000000,3.744560,41.661026,41.492401,-5.156797,0.000000,-76.937343,0.000000,0.000000,0.000000,-42.465725,0.000000,5.984287,0.000000,0.000000,0.000000,0.000000,0.000000
27.342000000,40.247127957,139.986886037,3486.801194,41.072425,0.000000,3.804279,41.248232,41.072425,-5.291847,0.000000,-76.937343,0.000000,0.000000,0.000000,-41.618511,0.000000,5.961728,0.000000,0.000000,0.000000,0.000000,0.000000
27.352000000,40.247128786,139.986881355,3486.762824,40.660780,0.000000,3.863775,40.843944,40.660780,-5.428210,0.000000,-76.937343,0.000000,0.000000,0.000000,-40.796722,0.000000,5.939797,0.000000,0.000000,0.000000,0.000000,0.000000
27.362000000,40.247129607,139.986876718,3486.723860,40.257218,0.000000,3.923055,40.447917,40.257218,-5.565884,0.000000,-76.937343,0.000000,0.000000,0.000000,-39.999356,0.000000,5.918467,0.000000,0.000000,0.000000,0.000000,0.000000
27.372000000,40.247130420,139.986872128,3486.684304,39.861500,0.000000,3.982125,40.059911,39.861500,-5.704865,0.000000,-76.937343,0.000000,0.000000,0.000000,-39.225461,0.000000,5.897715,0.000000,0.000000,0.000000,0.000000,0.000000
27.382000000,40.247131225,139.986867582,3486.644159,39.473396,0.000000,4.040991,39.679700,39.473396,-5.845150,0.000000,-76.937343,0.000000,0.000000,0.000000,-38.474131,0.000000,5.877515,0.000000,0.000000,0.000000,0.000000,0.000000
27.392000000,40.247132022,139.986863081,3486.603427,39.092685,0.000000,4.099657,39.307063,39.092685,-5.986736,0.000000,-76.937343,0.000000,0.000000,0.000000,-37.744504,0.000000,5.857845,0.000000,0.000000,0.000000,0.000000,0.000000
27.402000000,40.247132812,139.986858623,3486.562108,38.719155,0.000000,4.158130,38.941790,38.719155,-6.129620,0.000000,-76.937343,0.000000,0.000000,0.000000,-37.035757,0.000000,5.838684,0.000000,0.000000,0.000000,0.000000,0.000000
27.412000000,40.247133594,139.986854207,3486.520206,38.352601,0.000000,4.216414,38.583677,38.352601,-6.273796,0.000000,-76.937343,0.000000,0.000000,0.000000,-36.347108,0.000000,5.820010,0.000000,0.000000,0.000000,0.000000,0.000000
27.422000000,40.247134369,139.986849832,3486.477722,37.992827,0.000000,4.274513,38.232530,37.992827,-6.419264,0.000000,-76.937343,0.000000,0.000000,0.000000,-35.677809,0.000000,5.801805,0.000000,0.000000,0.000000,0.000000,0.000000
27.432000000,40.247135136,139.986845499,3486.434659,37.639643,0.000000,4.332433,37.888160,37.639643,-6.566017,0.000000,-76.937343,0.000000,0.000000,0.000000,-35.027148,0.000000,5.784049,0.000000,0.000000,0.000000,0.000000,0.000000
27.442000000,40.247135896,139.986841206,3486.391016,37.292866,0.000000,4.390178,37.550386,37.292866,-6.714053,0.000000,-76.937343,0.000000,0.000000,0.000000,-34.394445,0.000000,5.766723,0.000000,0.000000,0.000000,0.000000,0.000000
27.452000000,40.247136650,139.986836952,3486.346798,36.952320,0.000000,4.447752,37.219033,36.952320,-6.863367,0.000000,-76.937343,0.000000,0.000000,0.000000,-33.779052,0.000000,5.749812,0.000000,0.000000,0.000000,0.000000,0.000000
27.462000000,40.247137396,139.986832736,3486.302004,36.617836,0.000000,4.505159,36.893934,36.617836,-7.013956,0.000000,-76.937343,0.000000,0.000000,0.000000,-33.180348,0.000000,5.733298,0.000000,0.000000,0.000000,0.000000,0.000000
27.472000000,40.247138136,139.986828559,3486.256638,36.289250,0.000000,4.562403,36.574925,36.289250,-7.165815,0.000000,-76.937343,0.000000,0.000000,0.000000,-32.597740,0.000000,5.717165,0.000000,0.000000,0.000000,0.000000,0.000000
27.482000000,40.247138869,139.986824419,3486.210700,35.966404,0.000000,4.619488,36.261851,35.966404,-7.318940,0.000000,-76.937343,0.000000,0.000000,0.000000,-32.030662,0.000000,5.701399,0.000000,0.000000,0.000000,0.000000,0.000000
27.492000000,40.247139596,139.986820315,3486.164192,35.649146,0.000000,4.676416,35.954561,35.649146,-7.473327,0.000000,-76.937343,0.000000,0.000000,0.000000,-31.478574,0.000000,5.685984,0.000000,0.000000,0.000000,0.000000,0.000000
27.502000000,40.247140316,139.986816248,3486.117115,35.337329,0.000000,4.733193,35.652909,35.337329,-7.628970,0.000000,-76.937343,0.000000,0.000000,0.000000,-30.940955,0.000000,5.670908,0.000000,0.000000,0.000000,0.000000,0.000000
27.512000000,40.247141030,139.986812216,3486.069472,35.030810,0.000000,4.789821,35.356754,35.030810,-7.785866,0.000000,-76.937343,0.000000,0.000000,0.000000,-30.417311,0.000000,5.656156,0.000000,0.000000,0.000000,0.000000,0.000000
27.522000000,40.247141738,139.986808219,3486.021263,34.729454,0.000000,4.846303,35.065961,34.729454,-7.944010,0.000000,-76.937343,0.000000,0.000000,0.000000,-29.907167,0.000000,5.641716,0.000000,0.000000,0.000000,0.000000,0.000000
27.532000000,40.247142440,139.986804256,3485.972490,34.433127,0.000000,4.902642,34.780399,34.433127,-8.103396,0.000000,-76.937343,0.000000,0.000000,0.000000,-29.410068,0.000000,5.627575,0.000000,0.000000,0.000000,0.000000,0.000000
27.542000000,40.247143136,139.986800326,3485.923154,34.141701,0.000000,4.958841,34.499940,34.141701,-8.264020,0.000000,-76.937343,0.000000,0.000000,0.000000,-28.925577,0.000000,5.613723,0.000000,0.000000,0.000000,0.000000,0.000000
27.552000000,40.247143826,139.986796430,3485.873257,33.855053,0.000000,5.014903,34.224463,33.855053,-8.425876,0.000000,-76.937343,0.000000,0.000000,0.000000,-28.453278,0.000000,5.600146,0.000000,0.000000,0.000000,0.000000,0.000000
27.562000000,40.247144510,139.986792567,3485.822800,33.573063,0.000000,5.070831,33.953849,33.573063,-8.588960,0.000000,-76.937343,0.000000,0.000000,0.000000,-27.992769,0.000000,5.586835,0.000000,0.000000,0.000000,0.000000,0.000000
27.572000000,40.247145189,139.986788735,3485.771785,33.295614,0.000000,5.126628,33.687984,33.295614,-8.753266,0.000000,-76.937343,0.000000,0.000000,0.000000,-27.543666,0.000000,5.573780,0.000000,0.000000,0.000000,0.000000,0.000000
27.582000000,40.247145861,139.986784935,3485.720213,33.022596,0.000000,5.182295,33.426756,33.022596,-8.918788,0.000000,-76.937343,0.000000,0.000000,0.000000,-27.105602,0.000000,5.560969,0.000000,0.000000,0.000000,0.000000,0.000000
27.592000000,40.247146529,139.986781166,3485.668084,32.753899,0.000000,5.237835,33.170059,32.753899,-9.085521,0.000000,-76.937343,0.000000,0.000000,0.000000,-26.678221,0.000000,5.548394,0.000000,0.000000,0.000000,0.000000,0.000000
27.602000000,40.247147191,139.986777428,3485.615401,32.489419,0.000000,5.293251,32.917789,32.489419,-9.253459,0.000000,-76.937343,0.000000,0.000000,0.000000,-26.261184,0.000000,5.536044,0.000000,0.000000,0.000000,0.000000,0.000000
27.612000000,40.247147848,139.986773719,3485.562164,32.229054,0.000000,5.348545,32.669846,32.229054,-9.422596,0.000000,-76.937343,0.000000,0.000000,0.000000,-25.854165,0.000000,5.523911,0.000000,0.000000,0.000000,0.000000,0.000000
27.622000000,40.247148499,139.986770040,3485.508375,31.972705,0.000000,5.403718,32.426132,31.972705,-9.592926,0.000000,-76.937343,0.000000,0.000000,0.000000,-25.456849,0.000000,5.511987,0.000000,0.000000,0.000000,0.000000,0.000000
27.632000000,40.247149146,139.986766391,3485.454035,31.720278,0.000000,5.458773,32.186554,31.720278,-9.764443,0.000000,-76.937343,0.000000,0.000000,0.000000,-25.068937,0.000000,5.500263,0.000000,0.000000,0.000000,0.000000,0.000000
27.642000000,40.247149787,139.986762770,3485.399145,31.471679,0.000000,5.513712,31.951019,31.471679,-9.937141,0.000000,-76.937343,0.000000,0.000000,0.000000,-24.690137,0.000000,5.488730,0.000000,0.000000,0.000000,0.000000,0.000000
27.652000000,40.247150423,139.986759177,3485.343706,31.226820,0.000000,5.568537,31.719440,31.226820,-10.111014,0.000000,-76.937343,0.000000,0.000000,0.000000,-24.320171,0.000000,5.477382,0.000000,0.000000,0.000000,0.000000,0.000000
27.662000000,40.247151054,139.986755612,3485.287720,30.985613,0.000000,5.623249,31.491731,30.985613,-10.286054,0.000000,-76.937343,0.000000,0.000000,0.000000,-23.958771,0.000000,5.466210,0.000000,0.000000,0.000000,0.000000,0.000000
27.672000000,40.247151681,139.986752075,3485.231187,30.747974,0.000000,5.677851,31.267809,30.747974,-10.462255,0.000000,-76.937343,0.000000,0.000000,0.000000,-23.605679,0.000000,5.455208,0.000000,0.000000,0.000000,0.000000,0.000000
27.682000000,40.247152302,139.986748564,3485.174109,30.513822,0.000000,5.732343,31.047593,30.513822,-10.639610,0.000000,-76.937343,0.000000,0.000000,0.000000,-23.260647,0.000000,5.444368,0.000000,0.000000,0.000000,0.000000,0.000000
27.692000000,40.247152919,139.986745081,3485.116486,30.283076,0.000000,5.786728,30.831006,30.283076,-10.818112,0.000000,-76.937343,0.000000,0.000000,0.000000,-22.923436,0.000000,5.433683,0.000000,0.000000,0.000000,0.000000,0.000000
27.702000000,40.247153532,139.986741623,3485.058320,30.055661,0.000000,5.841007,30.617970,30.055661,-10.997755,0.000000,-76.937343,0.000000,0.000000,0.000000,-22.593814,0.000000,5.423148,0.000000,0.000000,0.000000,0.000000,0.000000
27.712000000,40.247154139,139.986738191,3484.999612,29.831501,0.000000,5.895181,30.408414,29.831501,-11.178531,0.000000,-76.937343,0.000000,0.000000,0.000000,-22.271561,0.000000,5.412756,0.000000,0.000000,0.000000,0.000000,0.000000
27.722000000,40.247154743,139.986734785,3484.940363,29.610524,0.000000,5.949252,30.202264,29.610524,-11.360432,0.000000,-76.937343,0.000000,0.000000,0.000000,-21.956462,0.000000,5.402500,0.000000,0.000000,0.000000,0.000000,0.000000
27.732000000,40.247155341,139.986731404,3484.880573,29.392660,0.000000,6.003221,29.999452,29.392660,-11.543451,0.000000,-76.937343,0.000000,0.000000,0.000000,-21.648311,0.000000,5.392375,0.000000,0.000000,0.000000,0.000000,0.000000
27.742000000,40.247155936,139.986728048,3484.820245,29.177840,0.000000,6.057090,29.799911,29.177840,-11.727581,0.000000,-76.937343,0.000000,0.000000,0.000000,-21.346909,0.000000,5.382375,0.000000,0.000000,0.000000,0.000000,0.000000
27.752000000,40.247156526,139.986724716,3484.759378,28.965998,0.000000,6.110859,29.603575,28.965998,-11.912813,0.000000,-76.937343,0.000000,0.000000,0.000000,-21.052066,0.000000,5.372494,0.000000,0.000000,0.000000,0.000000,0.000000
27.762000000,40.247157112,139.986721409,3484.697974,28.757069,0.000000,6.164530,29.410380,28.757069,-12.099140,0.000000,-76.937343,0.000000,0.000000,0.000000,-20.763595,0.000000,5.362728,0.000000,0.000000,0.000000,0.000000,0.000000
27.772000000,40.247157693,139.986718125,3484.636034,28.550991,0.000000,6.218104,29.220265,28.550991,-12.286554,0.000000,-76.937343,0.000000,0.000000,0.000000,-20.481318,0.000000,5.353070,0.000000,0.000000,0.000000,0.000000,0.000000
27.782000000,40.247158271,139.986714864,3484.573559,28.347702,0.000000,6.271582,29.033170,28.347702,-12.475046,0.000000,-76.937343,0.000000,0.000000,0.000000,-20.205063,0.000000,5.343517,0.000000,0.000000,0.000000,0.000000,0.000000
27.792000000,40.247158844,139.986711627,3484.510549,28.147143,0.000000,6.324965,28.849036,28.147143,-12.664608,0.000000,-76.937343,0.000000,0.000000,0.000000,-19.934664,0.000000,5.334062,0.000000,0.000000,0.000000,0.000000,0.000000
27.802000000,40.247159413,139.986708412,3484.447006,27.949257,0.000000,6.378254,28.667806,27.949257,-12.855231,0.000000,-76.937343,0.000000,0.000000,0.000000,-19.669959,0.000000,5.324702,0.000000,0.000000,0.000000,0.000000,0.000000
27.812000000,40.247159978,139.986705220,3484.382931,27.753988,0.000000,6.431450,28.489426,27.753988,-13.046907,0.000000,-76.937343,0.000000,0.000000,0.000000,-19.410794,0.000000,5.315432,0.000000,0.000000,0.000000,0.000000,0.000000
27.822000000,40.247160540,139.986702050,3484.318325,27.561280,0.000000,6.484554,28.313841,27.561280,-13.239628,0.000000,-76.937343,0.000000,0.000000,0.000000,-19.157020,0.000000,5.306247,0.000000,0.000000,0.000000,0.000000,0.000000
27.832000000,40.247161097,139.986698903,3484.253187,27.371081,0.000000,6.537566,28.140999,27.371081,-13.433383,0.000000,-76.937343,0.000000,0.000000,0.000000,-18.908490,0.000000,5.297143,0.000000,0.000000,0.000000,0.000000,0.000000
27.842000000,40.247161651,139.986695776,3484.187521,27.183339,0.000000,6.590488,27.970850,27.183339,-13.628165,0.000000,-76.937343,0.000000,0.000000,0.000000,-18.665064,0.000000,5.288116,0.000000,0.000000,0.000000,0.000000,0.000000
27.852000000,40.247162201,139.986692672,3484.121325,26.998004,0.000000,6.643320,27.803343,26.998004,-13.823964,0.000000,-76.937343,0.000000,0.000000,0.000000,-18.426609,0.000000,5.279161,0.000000,0.000000,0.000000,0.000000,0.000000
27.862000000,40.247162747,139.986689588,3484.054602,26.815026,0.000000,6.696063,27.638432,26.815026,-14.020770,0.000000,-76.937343,0.000000,0.000000,0.000000,-18.192991,0.000000,5.270276,0.000000,0.000000,0.000000,0.000000,0.000000
27.872000000,40.247163289,139.986686525,3483.987351,26.634359,0.000000,6.748717,27.476067,26.634359,-14.218574,0.000000,-76.937343,0.000000,0.000000,0.000000,-17.964085,0.000000,5.261455,0.000000,0.000000,0.000000,0.000000,0.000000
27.882000000,40.247163828,139.986683483,3483.919575,26.455956,0.000000,6.801283,27.316205,26.455956,-14.417367,0.000000,-76.937343,0.000000,0.000000,0.000000,-17.739768,0.000000,5.252695,0.000000,0.000000,0.000000,0.000000,0.000000
27.892000000,40.247164363,139.986680461,3483.851274,26.279771,0.000000,6.853762,27.158800,26.279771,-14.617138,0.000000,-76.937343,0.000000,0.000000,0.000000,-17.519922,0.000000,5.243994,0.000000,0.000000,0.000000,0.000000,0.000000
27.902000000,40.247164895,139.986677459,3483.782448,26.105761,0.000000,6.906155,27.003809,26.105761,-14.817878,0.000000,-76.937343,0.000000,0.000000,0.000000,-17.304431,0.000000,5.235346,0.000000,0.000000,0.000000,0.000000,0.000000
27.912000000,40.247165423,139.986674477,3483.713098,25.933882,0.000000,6.958461,26.851190,25.933882,-15.019577,0.000000,-76.937343,0.000000,0.000000,0.000000,-17.093184,0.000000,5.226749,0.000000,0.000000,0.000000,0.000000,0.000000
27.922000000,40.247165948,139.986671514,3483.643227,25.764092,0.000000,7.010681,26.700901,25.764092,-15.222224,0.000000,-76.937343,0.000000,0.000000,0.000000,-16.886074,0.000000,5.218199,0.000000,0.000000,0.000000,0.000000,0.000000
27.932000000,40.247166469,139.986668571,3483.572833,25.596352,0.000000,7.062816,26.552902,25.596352,-15.425809,0.000000,-76.937343,0.000000,0.000000,0.000000,-16.682996,0.000000,5.209693,0.000000,0.000000,0.000000,0.000000,0.000000
27.942000000,40.247166987,139.986665647,3483.501918,25.430620,0.000000,7.114867,26.407154,25.430620,-15.630323,0.000000,-76.937343,0.000000,0.000000,0.000000,-16.483849,0.000000,5.201228,0.000000,0.000000,0.000000,0.000000,0.000000
27.952000000,40.247167501,139.986662742,3483.430484,25.266859,0.000000,7.166833,26.263619,25.266859,-15.835753,0.000000,-76.937343,0.000000,0.000000,0.000000,-16.288536,0.000000,5.192801,0.000000,0.000000,0.000000,0.000000,0.000000
27.962000000,40.247168012,139.986659855,3483.358530,25.105031,0.000000,7.218714,26.122259,25.105031,-16.042090,0.000000,-76.937343,0.000000,0.000000,0.000000,-16.096961,0.000000,5.184409,0.000000,0.000000,0.000000,0.000000,0.000000
27.972000000,40.247168520,139.986656987,3483.286058,24.945097,0.000000,7.270513,25.983038,24.945097,-16.249322,0.000000,-76.937343,0.000000,0.000000,0.000000,-15.909032,0.000000,5.176049,0.000000,0.000000,0.000000,0.000000,0.000000
27.982000000,40.247169025,139.986654137,3483.213068,24.787024,0.000000,7.322227,25.845920,24.787024,-16.457439,0.000000,-76.937343,0.000000,0.000000,0.000000,-15.724660,0.000000,5.167718,0.000000,0.000000,0.000000,0.000000,0.000000
27.992000000,40.247169526,139.986651305,3483.139562,24.630775,0.000000,7.373859,25.710871,24.630775,-16.666429,0.000000,-76.937343,0.000000,0.000000,0.000000,-15.543759,0.000000,5.159413,0.000000,0.000000,0.000000,0.000000,0.000000
28.002000000,40.247170025,139.986648491,3483.065540,24.476317,0.000000,7.425407,25.577857,24.476317,-16.876281,0.000000,-76.937343,0.000000,0.000000,0.000000,-15.366244,0.000000,5.151132,0.000000,0.000000,0.000000,0.000000,0.000000
28.012000000,40.247170520,139.986645694,3482.991003,24.323615,0.000000,7.476873,25.446844,24.323615,-17.086984,0.000000,-76.937343,0.000000,0.000000,0.000000,-15.192034,0.000000,5.142873,0.000000,0.000000,0.000000,0.000000,0.000000
28.022000000,40.247171012,139.986642915,3482.915951,24.172638,0.000000,7.528256,25.317801,24.172638,-17.298527,0.000000,-76.937343,0.000000,0.000000,0.000000,-15.021051,0.000000,5.134631,0.000000,0.000000,0.000000,0.000000,0.000000
28.032000000,40.247171501,139.986640153,3482.840386,24.023353,0.000000,7.579558,25.190696,24.023353,-17.510897,0.000000,-76.937343,0.000000,0.000000,0.000000,-14.853216,0.000000,5.126406,0.000000,0.000000,0.000000,0.000000,0.000000
28.042000000,40.247171987,139.986637408,3482.764309,23.875730,0.000000,7.630776,25.065498,23.875730,-17.724083,0.000000,-76.937343,0.000000,0.000000,0.000000,-14.688457,0.000000,5.118195,0.000000,0.000000,0.000000,0.000000,0.000000
28.052000000,40.247172471,139.986634680,3482.687720,23.729737,0.000000,7.681913,24.942177,23.729737,-17.938073,0.000000,-76.937343,0.000000,0.000000,0.000000,-14.526700,0.000000,5.109995,0.000000,0.000000,0.000000,0.000000,0.000000
28.062000000,40.247172951,139.986631969,3482.610620,23.585346,0.000000,7.732968,24.820704,23.585346,-18.152855,0.000000,-76.937343,0.000000,0.000000,0.000000,-14.367876,0.000000,5.101804,0.000000,0.000000,0.000000,0.000000,0.000000
28.072000000,40.247173428,139.986629274,3482.533010,23.442527,0.000000,7.783941,24.701049,23.442527,-18.368416,0.000000,-76.937343,0.000000,0.000000,0.000000,-14.211916,0.000000,5.093620,0.000000,0.000000,0.000000,0.000000,0.000000
28.082000000,40.247173902,139.986626595,3482.454891,23.301253,0.000000,7.834832,24.583185,23.301253,-18.584746,0.000000,-76.937343,0.000000,0.000000,0.000000,-14.058754,0.000000,5.085440,0.000000,0.000000,0.000000,0.000000,0.000000
28.092000000,40.247174374,139.986623932,3482.376263,23.161495,0.000000,7.885642,24.467084,23.161495,-18.801831,0.000000,-76.937343,0.000000,0.000000,0.000000,-13.908325,0.000000,5.077263,0.000000,0.000000,0.000000,0.000000,0.000000
28.102000000,40.247174843,139.986621286,3482.297127,23.023227,0.000000,7.936369,24.352719,23.023227,-19.019658,0.000000,-76.937343,0.000000,0.000000,0.000000,-13.760568,0.000000,5.069086,0.000000,0.000000,0.000000,0.000000,0.000000
28.112000000,40.247175309,139.986618655,3482.217485,22.886421,0.000000,7.987015,24.240064,22.886421,-19.238216,0.000000,-76.937343,0.000000,0.000000,0.000000,-13.615420,0.000000,5.060908,0.000000,0.000000,0.000000,0.000000,0.000000
28.122000000,40.247175772,139.986616039,3482.137337,22.751053,0.000000,8.037579,24.129093,22.751053,-19.457491,0.000000,-76.937343,0.000000,0.000000,0.000000,-13.472824,0.000000,5.052726,0.000000,0.000000,0.000000,0.000000,0.000000
28.132000000,40.247176232,139.986613440,3482.056683,22.617098,0.000000,8.088062,24.019781,22.617098,-19.677471,0.000000,-76.937343,0.000000,0.000000,0.000000,-13.332721,0.000000,5.044539,0.000000,0.000000,0.000000,0.000000,0.000000
28.142000000,40.247176690,139.986610855,3481.975525,22.484530,0.000000,8.138462,23.912102,22.484530,-19.898143,0.000000,-76.937343,0.000000,0.000000,0.000000,-13.195056,0.000000,5.036345,0.000000,0.000000,0.000000,0.000000,0.000000
28.152000000,40.247177145,139.986608285,3481.893864,22.353325,0.000000,8.188780,23.806034,22.353325,-20.119494,0.000000,-76.937343,0.000000,0.000000,0.000000,-13.059775,0.000000,5.028142,0.000000,0.000000,0.000000,0.000000,0.000000
28.162000000,40.247177597,139.986605731,3481.811700,22.223461,0.000000,8.239017,23.701553,22.223461,-20.341511,0.000000,-76.937343,0.000000,0.000000,0.000000,-12.926824,0.000000,5.019927,0.000000,0.000000,0.000000,0.000000,0.000000
28.172000000,40.247178047,139.986603191,3481.729034,22.094913,0.000000,8.289171,23.598634,22.094913,-20.564180,0.000000,-76.937343,0.000000,0.000000,0.000000,-12.796151,0.000000,5.011700,0.000000,0.000000,0.000000,0.000000,0.000000
28.182000000,40.247178494,139.986600666,3481.645866,21.967660,0.000000,8.339242,23.497256,21.967660,-20.787488,0.000000,-76.937343,0.000000,0.000000,0.000000,-12.667708,0.000000,5.003459,0.000000,0.000000,0.000000,0.000000,0.000000
28.192000000,40.247178939,139.986598155,3481.562199,21.841679,0.000000,8.389231,23.397396,21.841679,-21.011423,0.000000,-76.937343,0.000000,0.000000,0.000000,-12.541445,0.000000,4.995202,0.000000,0.000000,0.000000,0.000000,0.000000
28.202000000,40.247179381,139.986595659,3481.478032,21.716949,0.000000,8.439138,23.299033,21.716949,-21.235970,0.000000,-76.937343,0.000000,0.000000,0.000000,-12.417315,0.000000,4.986928,0.000000,0.000000,0.000000,0.000000,0.000000
28.212000000,40.247179820,139.986593177,3481.393367,21.593449,0.000000,8.488962,23.202144,21.593449,-21.461116,0.000000,-76.937343,0.000000,0.000000,0.000000,-12.295271,0.000000,4.978634,0.000000,0.000000,0.000000,0.000000,0.000000
28.222000000,40.247180258,139.986590709,3481.308203,21.471158,0.000000,8.538702,23.106710,21.471158,-21.686847,0.000000,-76.937343,0.000000,0.000000,0.000000,-12.175269,0.000000,4.970320,0.000000,0.000000,0.000000,0.000000,0.000000
28.232000000,40.247180692,139.986588255,3481.222543,21.350056,0.000000,8.588360,23.012709,21.350056,-21.913150,0.000000,-76.937343,0.000000,0.000000,0.000000,-12.057265,0.000000,4.961984,0.000000,0.000000,0.000000,0.000000,0.000000
28.242000000,40.247181124,139.986585815,3481.136387,21.230123,0.000000,8.637934,22.920122,21.230123,-22.140011,0.000000,-76.937343,0.000000,0.000000,0.000000,-11.941215,0.000000,4.953625,0.000000,0.000000,0.000000,0.000000,0.000000
28.252000000,40.247181554,139.986583389,3481.049735,21.111340,0.000000,8.687424,22.828929,21.111340,-22.367415,0.000000,-76.937343,0.000000,0.000000,0.000000,-11.827080,0.000000,4.945240,0.000000,0.000000,0.000000,0.000000,0.000000
28.262000000,40.247181981,139.986580976,3480.962589,20.993688,0.000000,8.736830,22.739110,20.993688,-22.595350,0.000000,-76.937343,0.000000,0.000000,0.000000,-11.714817,0.000000,4.936830,0.000000,0.000000,0.000000,0.000000,0.000000
28.272000000,40.247182406,139.986578576,3480.874949,20.877149,0.000000,8.786152,22.650647,20.877149,-22.823801,0.000000,-76.937343,0.000000,0.000000,0.000000,-11.604388,0.000000,4.928392,0.000000,0.000000,0.000000,0.000000,0.000000
28.282000000,40.247182829,139.986576190,3480.786817,20.761704,0.000000,8.835389,22.563520,20.761704,-23.052753,0.000000,-76.937343,0.000000,0.000000,0.000000,-11.495754,0.000000,4.919926,0.000000,0.000000,0.000000,0.000000,0.000000
28.292000000,40.247183249,139.986573817,3480.698193,20.647336,0.000000,8.884542,22.477712,20.647336,-23.282194,0.000000,-76.937343,0.000000,0.000000,0.000000,-11.388877,0.000000,4.911429,0.000000,0.000000,0.000000,0.000000,0.000000
28.302000000,40.247183667,139.986571457,3480.609077,20.534027,0.000000,8.933609,22.393205,20.534027,-23.512108,0.000000,-76.937343,0.000000,0.000000,0.000000,-11.283722,0.000000,4.902901,0.000000,0.000000,0.000000,0.000000,0.000000
28.312000000,40.247184083,139.986569110,3480.519472,20.421760,0.000000,8.982591,22.309980,20.421760,-23.742482,0.000000,-76.937343,0.000000,0.000000,0.000000,-11.180252,0.000000,4.894341,0.000000,0.000000,0.000000,0.000000,0.000000
28.322000000,40.247184496,139.986566775,3480.429377,20.310519,0.000000,9.031487,22.228021,20.310519,-23.973301,0.000000,-76.937343,0.000000,0.000000,0.000000,-11.078433,0.000000,4.885747,0.000000,0.000000,0.000000,0.000000,0.000000
28.332000000,40.247184907,139.986564454,3480.338794,20.200287,0.000000,9.080297,22.147311,20.200287,-24.204551,0.000000,-76.937343,0.000000,0.000000,0.000000,-10.978230,0.000000,4.877119,0.000000,0.000000,0.000000,0.000000,0.000000
28.342000000,40.247185316,139.986562145,3480.247723,20.091048,0.000000,9.129021,22.067833,20.091048,-24.436217,0.000000,-76.937343,0.000000,0.000000,0.000000,-10.879611,0.000000,4.868455,0.000000,0.000000,0.000000,0.000000,0.000000
28.352000000,40.247185723,139.986559848,3480.156165,19.982787,0.000000,9.177658,21.989570,19.982787,-24.668285,0.000000,-76.937343,0.000000,0.000000,0.000000,-10.782544,0.000000,4.859755,0.000000,0.000000,0.000000,0.000000,0.000000
28.362000000,40.247186127,139.986557564,3480.064121,19.875488,0.000000,9.226207,21.912506,19.875488,-24.900741,0.000000,-76.937343,0.000000,0.000000,0.000000,-10.686996,0.000000,4.851016,0.000000,0.000000,0.000000,0.000000,0.000000
28.372000000,40.247186530,139.986555292,3479.971592,19.769137,0.000000,9.274669,21.836627,19.769137,-25.133571,0.000000,-76.937343,0.000000,0.000000,0.000000,-10.592938,0.000000,4.842239,0.000000,0.000000,0.000000,0.000000,0.000000
28.382000000,40.247186930,139.986553032,3479.878580,19.663718,0.000000,9.323043,21.761915,19.663718,-25.366758,0.000000,-76.937343,0.000000,0.000000,0.000000,-10.500339,0.000000,4.833423,0.000000,0.000000,0.000000,0.000000,0.000000
28.392000000,40.247187328,139.986550784,3479.785084,19.559217,0.000000,9.371329,21.688356,19.559217,-25.600290,0.000000,-76.937343,0.000000,0.000000,0.000000,-10.409170,0.000000,4.824566,0.000000,0.000000,0.000000,0.000000,0.000000
28.402000000,40.247187724,139.986548548,3479.691105,19.455621,0.000000,9.419525,21.615935,19.455621,-25.834152,0.000000,-76.937343,0.000000,0.000000,0.000000,-10.319402,0.000000,4.815667,0.000000,0.000000,0.000000,0.000000,0.000000
28.412000000,40.247188118,139.986546324,3479.596645,19.352914,0.000000,9.467633,21.544636,19.352914,-26.068328,0.000000,-76.937343,0.000000,0.000000,0.000000,-10.231008,0.000000,4.806726,0.000000,0.000000,0.000000,0.000000,0.000000
28.422000000,40.247188510,139.986544112,3479.501705,19.251084,0.000000,9.515651,21.474446,19.251084,-26.302805,0.000000,-76.937343,0.000000,0.000000,0.000000,-10.143960,0.000000,4.797742,0.000000,0.000000,0.000000,0.000000,0.000000
28.432000000,40.247188899,139.986541911,3479.406284,19.150117,0.000000,9.563579,21.405350,19.150117,-26.537567,0.000000,-76.937343,0.000000,0.000000,0.000000,-10.058232,0.000000,4.788714,0.000000,0.000000,0.000000,0.000000,0.000000
28.442000000,40.247189287,139.986539722,3479.310386,19.050000,0.000000,9.611416,21.337334,19.050000,-26.772601,0.000000,-76.937343,0.000000,0.000000,0.000000,-9.973798,0.000000,4.779642,0.000000,0.000000,0.000000,0.000000,0.000000
28.452000000,40.247189673,139.986537544,3479.214009,18.950720,0.000000,9.659162,21.270383,18.950720,-27.007891,0.000000,-76.937343,0.000000,0.000000,0.000000,-9.890632,0.000000,4.770524,0.000000,0.000000,0.000000,0.000000,0.000000
28.462000000,40.247190056,139.986535378,3479.117155,18.852265,0.000000,9.706817,21.204486,18.852265,-27.243424,0.000000,-76.937343,0.000000,0.000000,0.000000,-9.808709,0.000000,4.761360,0.000000,0.000000,0.000000,0.000000,0.000000
28.472000000,40.247190438,139.986533223,3479.019825,18.754623,0.000000,9.754380,21.139627,18.754623,-27.479183,0.000000,-76.937343,0.000000,0.000000,0.000000,-9.728006,0.000000,4.752149,0.000000,0.000000,0.000000,0.000000,0.000000
28.482000000,40.247190818,139.986531078,3478.922020,18.657781,0.000000,9.801851,21.075794,18.657781,-27.715155,0.000000,-76.937343,0.000000,0.000000,0.000000,-9.648498,0.000000,4.742890,0.000000,0.000000,0.000000,0.000000,0.000000
28.492000000,40.247191195,139.986528945,3478.823741,18.561728,0.000000,9.849228,21.012973,18.561728,-27.951326,0.000000,-76.937343,0.000000,0.000000,0.000000,-9.570163,0.000000,4.733584,0.000000,0.000000,0.000000,0.000000,0.000000
28.502000000,40.247191571,139.986526823,3478.724988,18.466452,0.000000,9.896513,20.951153,18.466452,-28.187680,0.000000,-76.937343,0.000000,0.000000,0.000000,-9.492978,0.000000,4.724229,0.000000,0.000000,0.000000,0.000000,0.000000
28.512000000,40.247191945,139.986524712,3478.625764,18.371941,0.000000,9.943703,20.890320,18.371941,-28.424202,0.000000,-76.937343,0.000000,0.000000,0.000000,-9.416921,0.000000,4.714825,0.000000,0.000000,0.000000,0.000000,0.000000
28.522000000,40.247192317,139.986522612,3478.526068,18.278185,0.000000,9.990800,20.830462,18.278185,-28.660880,0.000000,-76.937343,0.000000,0.000000,0.000000,-9.341970,0.000000,4.705370,0.000000,0.000000,0.000000,0.000000,0.000000
28.532000000,40.247192687,139.986520522,3478.425901,18.185173,0.000000,10.037801,20.771566,18.185173,-28.897697,0.000000,-76.937343,0.000000,0.000000,0.000000,-9.268103,0.000000,4.695866,0.000000,0.000000,0.000000,0.000000,0.000000
28.542000000,40.247193055,139.986518443,3478.325265,18.092893,0.000000,10.084707,20.713621,18.092893,-29.134640,0.000000,-76.937343,0.000000,0.000000,0.000000,-9.195302,0.000000,4.686311,0.000000,0.000000,0.000000,0.000000,0.000000
28.552000000,40.247193422,139.986516374,3478.224160,18.001336,0.000000,10.131518,20.656615,18.001336,-29.371694,0.000000,-76.937343,0.000000,0.000000,0.000000,-9.123544,0.000000,4.676704,0.000000,0.000000,0.000000,0.000000,0.000000
28.562000000,40.247193786,139.986514316,3478.122588,17.910490,0.000000,10.178232,20.600535,17.910490,-29.608844,0.000000,-76.937343,0.000000,0.000000,0.000000,-9.052811,0.000000,4.667046,0.000000,0.000000,0.000000,0.000000,0.000000
28.572000000,40.247194149,139.986512269,3478.020549,17.820346,0.000000,10.224849,20.545371,17.820346,-29.846077,0.000000,-76.937343,0.000000,0.000000,0.000000,-8.983083,0.000000,4.657335,0.000000,0.000000,0.000000,0.000000,0.000000
28.582000000,40.247194510,139.986510231,3477.918045,17.730894,0.000000,10.271368,20.491111,17.730894,-30.083377,0.000000,-76.937343,0.000000,0.000000,0.000000,-8.914341,0.000000,4.647572,0.000000,0.000000,0.000000,0.000000,0.000000
28.592000000,40.247194869,139.986508204,3477.815076,17.642124,0.000000,10.317790,20.437743,17.642124,-30.320731,0.000000,-76.937343,0.000000,0.000000,0.000000,-8.846567,0.000000,4.637756,0.000000,0.000000,0.000000,0.000000,0.000000
28.602000000,40.247195226,139.986506187,3477.711643,17.554027,0.000000,10.364113,20.385257,17.554027,-30.558125,0.000000,-76.937343,0.000000,0.000000,0.000000,-8.779742,0.000000,4.627887,0.000000,0.000000,0.000000,0.000000,0.000000
28.612000000,40.247195581,139.986504180,3477.607748,17.466593,0.000000,10.410338,20.333642,17.466593,-30.795544,0.000000,-76.937343,0.000000,0.000000,0.000000,-8.713850,0.000000,4.617964,0.000000,0.000000,0.000000,0.000000,0.000000
28.622000000,40.247195935,139.986502183,3477.503390,17.379812,0.000000,10.456463,20.282887,17.379812,-31.032973,0.000000,-76.937343,0.000000,0.000000,0.000000,-8.648871,0.000000,4.607987,0.000000,0.000000,0.000000,0.000000,0.000000
28.632000000,40.247196287,139.986500196,3477.398573,17.293677,0.000000,10.502487,20.232981,17.293677,-31.270400,0.000000,-76.937343,0.000000,0.000000,0.000000,-8.584791,0.000000,4.597956,0.000000,0.000000,0.000000,0.000000,0.000000
28.642000000,40.247196637,139.986498218,3477.293295,17.208177,0.000000,10.548412,20.183913,17.208177,-31.507810,0.000000,-76.937343,0.000000,0.000000,0.000000,-8.521591,0.000000,4.587871,0.000000,0.000000,0.000000,0.000000,0.000000
28.652000000,40.247196985,139.986496251,3477.187559,17.123305,0.000000,10.594234,20.135674,17.123305,-31.745189,0.000000,-76.937343,0.000000,0.000000,0.000000,-8.459256,0.000000,4.577730,0.000000,0.000000,0.000000,0.000000,0.000000
28.662000000,40.247197332,139.986494293,3477.081365,17.039051,0.000000,10.639956,20.088253,17.039051,-31.982524,0.000000,-76.937343,0.000000,0.000000,0.000000,-8.397770,0.000000,4.567535,0.000000,0.000000,0.000000,0.000000,0.000000
28.672000000,40.247197677,139.986492345,3476.974714,16.955408,0.000000,10.685575,20.041641,16.955408,-32.219800,0.000000,-76.937343,0.000000,0.000000,0.000000,-8.337117,0.000000,4.557285,0.000000,0.000000,0.000000,0.000000,0.000000
28.682000000,40.247198020,139.986490406,3476.867608,16.872366,0.000000,10.731091,19.995826,16.872366,-32.457003,0.000000,-76.937343,0.000000,0.000000,0.000000,-8.277282,0.000000,4.546979,0.000000,0.000000,0.000000,0.000000,0.000000
28.692000000,40.247198362,139.986488477,3476.760047,16.789919,0.000000,10.776504,19.950800,16.789919,-32.694121,0.000000,-76.937343,0.000000,0.000000,0.000000,-8.218250,0.000000,4.536618,0.000000,0.000000,0.000000,0.000000,0.000000
28.702000000,40.247198702,139.986486557,3476.652033,16.708057,0.000000,10.821813,19.906552,16.708057,-32.931140,0.000000,-76.937343,0.000000,0.000000,0.000000,-8.160007,0.000000,4.526201,0.000000,0.000000,0.000000,0.000000,0.000000
28.712000000,40.247199040,139.986484647,3476.543566,16.626774,0.000000,10.867017,19.863073,16.626774,-33.168046,0.000000,-76.937343,0.000000,0.000000,0.000000,-8.102537,0.000000,4.515729,0.000000,0.000000,0.000000,0.000000,0.000000
28.722000000,40.247199377,139.986482746,3476.434648,16.546061,0.000000,10.912117,19.820354,16.546061,-33.404825,0.000000,-76.937343,0.000000,0.000000,0.000000,-8.045827,0.000000,4.505201,0.000000,0.000000,0.000000,0.000000,0.000000
28.732000000,40.247199712,139.986480854,3476.325279,16.465911,0.000000,10.957111,19.778385,16.465911,-33.641466,0.000000,-76.937343,0.000000,0.000000,0.000000,-7.989864,0.000000,4.494617,0.000000,0.000000,0.000000,0.000000,0.000000
28.742000000,40.247200046,139.986478971,3476.215461,16.386317,0.000000,11.001998,19.737157,16.386317,-33.877953,0.000000,-76.937343,0.000000,0.000000,0.000000,-7.934633,0.000000,4.483977,0.000000,0.000000,0.000000,0.000000,0.000000
28.752000000,40.247200377,139.986477097,3476.105195,16.307271,0.000000,11.046779,19.696660,16.307271,-34.114276,0.000000,-76.937343,0.000000,0.000000,0.000000,-7.880122,0.000000,4.473281,0.000000,0.000000,0.000000,0.000000,0.000000
28.762000000,40.247200708,139.986475233,3475.994481,16.228766,0.000000,11.091453,19.656887,16.228766,-34.350419,0.000000,-76.937343,0.000000,0.000000,0.000000,-7.826318,0.000000,4.462530,0.000000,0.000000,0.000000,0.000000,0.000000
28.772000000,40.247201036,139.986473377,3475.883322,16.150796,0.000000,11.136019,19.617827,16.150796,-34.586371,0.000000,-76.937343,0.000000,0.000000,0.000000,-7.773207,0.000000,4.451722,0.000000,0.000000,0.000000,0.000000,0.000000
28.782000000,40.247201363,139.986471530,3475.771717,16.073353,0.000000,11.180476,19.579472,16.073353,-34.822119,0.000000,-76.937343,0.000000,0.000000,0.000000,-7.720778,0.000000,4.440858,0.000000,0.000000,0.000000,0.000000,0.000000
28.792000000,40.247201689,139.986469692,3475.659668,15.996430,0.000000,11.224825,19.541814,15.996430,-35.057651,0.000000,-76.937343,0.000000,0.000000,0.000000,-7.669018,0.000000,4.429939,0.000000,0.000000,0.000000,0.000000,0.000000
28.802000000,40.247202013,139.986467863,3475.547176,15.920022,0.000000,11.269064,19.504843,15.920022,-35.292952,0.000000,-76.937343,0.000000,0.000000,0.000000,-7.617916,0.000000,4.418964,0.000000,0.000000,0.000000,0.000000,0.000000
28.812000000,40.247202335,139.986466043,3475.434243,15.844121,0.000000,11.313193,19.468551,15.844121,-35.528012,0.000000,-76.937343,0.000000,0.000000,0.000000,-7.567460,0.000000,4.407933,0.000000,0.000000,0.000000,0.000000,0.000000
28.822000000,40.247202656,139.986464231,3475.320869,15.768720,0.000000,11.357211,19.432931,15.768720,-35.762818,0.000000,-76.937343,0.000000,0.000000,0.000000,-7.517637,0.000000,4.396847,0.000000,0.000000,0.000000,0.000000,0.000000
28.832000000,40.247202975,139.986462428,3475.207055,15.693815,0.000000,11.401119,19.397973,15.693815,-35.997358,0.000000,-76.937343,0.000000,0.000000,0.000000,-7.468438,0.000000,4.385705,0.000000,0.000000,0.000000,0.000000,0.000000
28.842000000,40.247203293,139.986460633,3475.092803,15.619399,0.000000,11.444914,19.363669,15.619399,-36.231620,0.000000,-76.937343,0.000000,0.000000,0.000000,-7.419851,0.000000,4.374508,0.000000,0.000000,0.000000,0.000000,0.000000
28.852000000,40.247203609,139.986458847,3474.978113,15.545464,0.000000,11.488597,19.330011,15.545464,-36.465591,0.000000,-76.937343,0.000000,0.000000,0.000000,-7.371865,0.000000,4.363256,0.000000,0.000000,0.000000,0.000000,0.000000
28.862000000,40.247203924,139.986457070,3474.862988,15.472007,0.000000,11.532168,19.296992,15.472007,-36.699260,0.000000,-76.937343,0.000000,0.000000,0.000000,-7.324469,0.000000,4.351948,0.000000,0.000000,0.000000,0.000000,0.000000
28.872000000,40.247204237,139.986455300,3474.747427,15.399020,0.000000,11.575625,19.264603,15.399020,-36.932616,0.000000,-76.937343,0.000000,0.000000,0.000000,-7.277654,0.000000,4.340586,0.000000,0.000000,0.000000,0.000000,0.000000
28.882000000,40.247204549,139.986453539,3474.631432,15.326499,0.000000,11.618968,19.232836,15.326499,-37.165646,0.000000,-76.937343,0.000000,0.000000,0.000000,-7.231409,0.000000,4.329170,0.000000,0.000000,0.000000,0.000000,0.000000
28.892000000,40.247204860,139.986451787,3474.515005,15.254436,0.000000,11.662197,19.201684,15.254436,-37.398339,0.000000,-76.937343,0.000000,0.000000,0.000000,-7.185724,0.000000,4.317699,0.000000,0.000000,0.000000,0.000000,0.000000
28.902000000,40.247205169,139.986450042,3474.398145,15.182828,0.000000,11.705310,19.171138,15.182828,-37.630685,0.000000,-76.937343,0.000000,0.000000,0.000000,-7.140589,0.000000,4.306174,0.000000,0.000000,0.000000,0.000000,0.000000
28.912000000,40.247205476,139.986448306,3474.280856,15.111667,0.000000,11.748308,19.141192,15.111667,-37.862672,0.000000,-76.937343,0.000000,0.000000,0.000000,-7.095995,0.000000,4.294595,0.000000,0.000000,0.000000,0.000000,0.000000
28.922000000,40.247205782,139.986446578,3474.163137,15.040950,0.000000,11.791190,19.111838,15.040950,-38.094288,0.000000,-76.937343,0.000000,0.000000,0.000000,-7.051932,0.000000,4.282962,0.000000,0.000000,0.000000,0.000000,0.000000
28.932000000,40.247206087,139.986444858,3474.044990,14.970671,0.000000,11.833956,19.083068,14.970671,-38.325524,0.000000,-76.937343,0.000000,0.000000,0.000000,-7.008390,0.000000,4.271277,0.000000,0.000000,0.000000,0.000000,0.000000
28.942000000,40.247206390,139.986443146,3473.926415,14.900824,0.000000,11.876604,19.054875,14.900824,-38.556367,0.000000,-76.937343,0.000000,0.000000,0.000000,-6.965362,0.000000,4.259538,0.000000,0.000000,0.000000,0.000000,0.000000
28.952000000,40.247206692,139.986441442,3473.807415,14.831405,0.000000,11.919135,19.027252,14.831405,-38.786809,0.000000,-76.937343,0.000000,0.000000,0.000000,-6.922838,0.000000,4.247746,0.000000,0.000000,0.000000,0.000000,0.000000
28.962000000,40.247206992,139.986439746,3473.687991,14.762408,0.000000,11.961547,19.000192,14.762408,-39.016837,0.000000,-76.937343,0.000000,0.000000,0.000000,-6.880809,0.000000,4.235903,0.000000,0.000000,0.000000,0.000000,0.000000
28.972000000,40.247207291,139.986438058,3473.568142,14.693829,0.000000,12.003841,18.973687,14.693829,-39.246443,0.000000,-76.937343,0.000000,0.000000,0.000000,-6.839267,0.000000,4.224007,0.000000,0.000000,0.000000,0.000000,0.000000
28.982000000,40.247207588,139.986436378,3473.447872,14.625662,0.000000,12.046015,18.947730,14.625662,-39.475616,0.000000,-76.937343,0.000000,0.000000,0.000000,-6.798204,0.000000,4.212059,0.000000,0.000000,0.000000,0.000000,0.000000
28.992000000,40.247207885,139.986434705,3473.327180,14.557904,0.000000,12.088070,18.922315,14.557904,-39.704345,0.000000,-76.937343,0.000000,0.000000,0.000000,-6.757610,0.000000,4.200061,0.000000,0.000000,0.000000,0.000000,0.000000
29.002000000,40.247208180,139.986433040,3473.206069,14.490549,0.000000,12.130004,18.897434,14.490549,-39.932621,0.000000,-76.937343,0.000000,0.000000,0.000000,-6.717478,0.000000,4.188011,0.000000,0.000000,0.000000,0.000000,0.000000
29.012000000,40.247208473,139.986431383,3473.084539,14.423593,0.000000,12.171818,18.873081,14.423593,-40.160434,0.000000,-76.937343,0.000000,0.000000,0.000000,-6.677801,0.000000,4.175911,0.000000,0.000000,0.000000,0.000000,0.000000
29.022000000,40.247208765,139.986429734,3472.962591,14.357031,0.000000,12.213510,18.849248,14.357031,-40.387775,0.000000,-76.937343,0.000000,0.000000,0.000000,-6.638569,0.000000,4.163761,0.000000,0.000000,0.000000,0.000000,0.000000
29.032000000,40.247209056,139.986428092,3472.840227,14.290859,0.000000,12.255080,18.825930,14.290859,-40.614634,0.000000,-76.937343,0.000000,0.000000,0.000000,-6.599777,0.000000,4.151562,0.000000,0.000000,0.000000,0.000000,0.000000
29.042000000,40.247209345,139.986426458,3472.717449,14.225072,0.000000,12.296529,18.803120,14.225072,-40.841003,0.000000,-76.937343,0.000000,0.000000,0.000000,-6.561415,0.000000,4.139313,0.000000,0.000000,0.000000,0.000000,0.000000
29.052000000,40.247209633,139.986424831,3472.594256,14.159667,0.000000,12.337854,18.780810,14.159667,-41.066870,0.000000,-76.937343,0.000000,0.000000,0.000000,-6.523477,0.000000,4.127015,0.000000,0.000000,0.000000,0.000000,0.000000
29.062000000,40.247209920,139.986423212,3472.470651,14.094639,0.000000,12.379057,18.758995,14.094639,-41.292229,0.000000,-76.937343,0.000000,0.000000,0.000000,-6.485956,0.000000,4.114669,0.000000,0.000000,0.000000,0.000000,0.000000
29.072000000,40.247210206,139.986421600,3472.346634,14.029984,0.000000,12.420135,18.737668,14.029984,-41.517070,0.000000,-76.937343,0.000000,0.000000,0.000000,-6.448845,0.000000,4.102276,0.000000,0.000000,0.000000,0.000000,0.000000
29.082000000,40.247210490,139.986419995,3472.222207,13.965698,0.000000,12.461090,18.716823,13.965698,-41.741384,0.000000,-76.937343,0.000000,0.000000,0.000000,-6.412135,0.000000,4.089835,0.000000,0.000000,0.000000,0.000000,0.000000
29.092000000,40.247210773,139.986418398,3472.097372,13.901777,0.000000,12.501919,18.696454,13.901777,-41.965164,0.000000,-76.937343,0.000000,0.000000,0.000000,-6.375822,0.000000,4.077347,0.000000,0.000000,0.000000,0.000000,0.000000
29.102000000,40.247211054,139.986416809,3471.972129,13.838216,0.000000,12.542624,18.676553,13.838216,-42.188399,0.000000,-76.937343,0.000000,0.000000,0.000000,-6.339898,0.000000,4.064813,0.000000,0.000000,0.000000,0.000000,0.000000
29.112000000,40.247211334,139.986415226,3471.846479,13.775013,0.000000,12.583203,18.657116,13.775013,-42.411083,0.000000,-76.937343,0.000000,0.000000,0.000000,-6.304355,0.000000,4.052234,0.000000,0.000000,0.000000,0.000000,0.000000
29.122000000,40.247211613,139.986413651,3471.720424,13.712163,0.000000,12.623656,18.638136,13.712163,-42.633208,0.000000,-76.937343,0.000000,0.000000,0.000000,-6.269189,0.000000,4.039609,0.000000,0.000000,0.000000,0.000000,0.000000
29.132000000,40.247211891,139.986412083,3471.593966,13.649663,0.000000,12.663982,18.619606,13.649663,-42.854765,0.000000,-76.937343,0.000000,0.000000,0.000000,-6.234393,0.000000,4.026939,0.000000,0.000000,0.000000,0.000000,0.000000
29.142000000,40.247212167,139.986410522,3471.467105,13.587509,0.000000,12.704182,18.601522,13.587509,-43.075746,0.000000,-76.937343,0.000000,0.000000,0.000000,-6.199960,0.000000,4.014226,0.000000,0.000000,0.000000,0.000000,0.000000
29.152000000,40.247212443,139.986408968,3471.339843,13.525697,0.000000,12.744254,18.583877,13.525697,-43.296145,0.000000,-76.937343,0.000000,0.000000,0.000000,-6.165884,0.000000,4.001468,0.000000,0.000000,0.000000,0.000000,0.000000
29.162000000,40.247212717,139.986407421,3471.212180,13.464224,0.000000,12.784198,18.566665,13.464224,-43.515953,0.000000,-76.937343,0.000000,0.000000,0.000000,-6.132160,0.000000,3.988668,0.000000,0.000000,0.000000,0.000000,0.000000
29.172000000,40.247212989,139.986405881,3471.084119,13.403086,0.000000,12.824014,18.549880,13.403086,-43.735164,0.000000,-76.937343,0.000000,0.000000,0.000000,-6.098781,0.000000,3.975826,0.000000,0.000000,0.000000,0.000000,0.000000
29.182000000,40.247213261,139.986404348,3470.955661,13.342280,0.000000,12.863702,18.533517,13.342280,-43.953770,0.000000,-76.937343,0.000000,0.000000,0.000000,-6.065741,0.000000,3.962941,0.000000,0.000000,0.000000,0.000000,0.000000
29.192000000,40.247213531,139.986402822,3470.826806,13.281803,0.000000,12.903260,18.517570,13.281803,-44.171764,0.000000,-76.937343,0.000000,0.000000,0.000000,-6.033036,0.000000,3.950015,0.000000,0.000000,0.000000,0.000000,0.000000
29.202000000,40.247213800,139.986401303,3470.697556,13.221651,0.000000,12.942689,18.502034,13.221651,-44.389140,0.000000,-76.937343,0.000000,0.000000,0.000000,-6.000659,0.000000,3.937049,0.000000,0.000000,0.000000,0.000000,0.000000
29.212000000,40.247214068,139.986399791,3470.567913,13.161821,0.000000,12.981988,18.486902,13.161821,-44.605891,0.000000,-76.937343,0.000000,0.000000,0.000000,-5.968605,0.000000,3.924043,0.000000,0.000000,0.000000,0.000000,0.000000
29.222000000,40.247214334,139.986398286,3470.437878,13.102310,0.000000,13.021157,18.472169,13.102310,-44.822010,0.000000,-76.937343,0.000000,0.000000,0.000000,-5.936868,0.000000,3.910997,0.000000,0.000000,0.000000,0.000000,0.000000
29.232000000,40.247214600,139.986396788,3470.307451,13.043114,0.000000,13.060195,18.457831,13.043114,-45.037491,0.000000,-76.937343,0.000000,0.000000,0.000000,-5.905444,0.000000,3.897913,0.000000,0.000000,0.000000,0.000000,0.000000
29.242000000,40.247214864,139.986395296,3470.176635,12.984231,0.000000,13.099102,18.443880,12.984231,-45.252328,0.000000,-76.937343,0.000000,0.000000,0.000000,-5.874327,0.000000,3.884790,0.000000,0.000000,0.000000,0.000000,0.000000
29.252000000,40.247215127,139.986393811,3470.045431,12.925658,0.000000,13.137877,18.430313,12.925658,-45.466515,0.000000,-76.937343,0.000000,0.000000,0.000000,-5.843511,0.000000,3.871630,0.000000,0.000000,0.000000,0.000000,0.000000
29.262000000,40.247215389,139.986392333,3469.913840,12.867391,0.000000,13.176521,18.417124,12.867391,-45.680045,0.000000,-76.937343,0.000000,0.000000,0.000000,-5.812993,0.000000,3.858434,0.000000,0.000000,0.000000,0.000000,0.000000
29.272000000,40.247215649,139.986390861,3469.781862,12.809427,0.000000,13.215032,18.404307,12.809427,-45.892914,0.000000,-76.937343,0.000000,0.000000,0.000000,-5.782767,0.000000,3.845201,0.000000,0.000000,0.000000,0.000000,0.000000
29.282000000,40.247215909,139.986389396,3469.649501,12.751764,0.000000,13.253412,18.391857,12.751764,-46.105115,0.000000,-76.937343,0.000000,0.000000,0.000000,-5.752829,0.000000,3.831932,0.000000,0.000000,0.000000,0.000000,0.000000
29.292000000,40.247216167,139.986387938,3469.516756,12.694399,0.000000,13.291658,18.379770,12.694399,-46.316643,0.000000,-76.937343,0.000000,0.000000,0.000000,-5.723173,0.000000,3.818629,0.000000,0.000000,0.000000,0.000000,0.000000
29.302000000,40.247216424,139.986386486,3469.383630,12.637329,0.000000,13.329771,18.368040,12.637329,-46.527493,0.000000,-76.937343,0.000000,0.000000,0.000000,-5.693794,0.000000,3.805292,0.000000,0.000000,0.000000,0.000000,0.000000
29.312000000,40.247216680,139.986385041,3469.250123,12.580552,0.000000,13.367750,18.356662,12.580552,-46.737659,0.000000,-76.937343,0.000000,0.000000,0.000000,-5.664690,0.000000,3.791921,0.000000,0.000000,0.000000,0.000000,0.000000
29.322000000,40.247216935,139.986383602,3469.116238,12.524064,0.000000,13.405596,18.345631,12.524064,-46.947137,0.000000,-76.937343,0.000000,0.000000,0.000000,-5.635854,0.000000,3.778518,0.000000,0.000000,0.000000,0.000000,0.000000
29.332000000,40.247217188,139.986382170,3468.981974,12.467863,0.000000,13.443307,18.334942,12.467863,-47.155922,0.000000,-76.937343,0.000000,0.000000,0.000000,-5.607283,0.000000,3.765082,0.000000,0.000000,0.000000,0.000000,0.000000
29.342000000,40.247217441,139.986380744,3468.847334,12.411946,0.000000,13.480884,18.324591,12.411946,-47.364009,0.000000,-76.937343,0.000000,0.000000,0.000000,-5.578972,0.000000,3.751615,0.000000,0.000000,0.000000,0.000000,0.000000
29.352000000,40.247217692,139.986379325,3468.712319,12.356310,0.000000,13.518326,18.314572,12.356310,-47.571393,0.000000,-76.937343,0.000000,0.000000,0.000000,-5.550917,0.000000,3.738118,0.000000,0.000000,0.000000,0.000000,0.000000
29.362000000,40.247217942,139.986377911,3468.576931,12.300954,0.000000,13.555632,18.304880,12.300954,-47.778070,0.000000,-76.937343,0.000000,0.000000,0.000000,-5.523114,0.000000,3.724590,0.000000,0.000000,0.000000,0.000000,0.000000
29.372000000,40.247218192,139.986376505,3468.441170,12.245875,0.000000,13.592804,18.295512,12.245875,-47.984036,0.000000,-76.937343,0.000000,0.000000,0.000000,-5.495558,0.000000,3.711034,0.000000,0.000000,0.000000,0.000000,0.000000
29.382000000,40.247218440,139.986375104,3468.305038,12.191070,0.000000,13.629839,18.286462,12.191070,-48.189286,0.000000,-76.937343,0.000000,0.000000,0.000000,-5.468247,0.000000,3.697449,0.000000,0.000000,0.000000,0.000000,0.000000
29.392000000,40.247218687,139.986373710,3468.168537,12.136536,0.000000,13.666739,18.277726,12.136536,-48.393817,0.000000,-76.937343,0.000000,0.000000,0.000000,-5.441175,0.000000,3.683836,0.000000,0.000000,0.000000,0.000000,0.000000
29.402000000,40.247218932,139.986372322,3468.031667,12.082272,0.000000,13.703502,18.269299,12.082272,-48.597624,0.000000,-76.937343,0.000000,0.000000,0.000000,-5.414339,0.000000,3.670195,0.000000,0.000000,0.000000,0.000000,0.000000
29.412000000,40.247219177,139.986370940,3467.894430,12.028276,0.000000,13.740129,18.261176,12.028276,-48.800704,0.000000,-76.937343,0.000000,0.000000,0.000000,-5.387736,0.000000,3.656529,0.000000,0.000000,0.000000,0.000000,0.000000
29.422000000,40.247219421,139.986369564,3467.756828,11.974543,0.000000,13.776619,18.253354,11.974543,-49.003053,0.000000,-76.937343,0.000000,0.000000,0.000000,-5.361361,0.000000,3.642837,0.000000,0.000000,0.000000,0.000000,0.000000
29.432000000,40.247219663,139.986368195,3467.618862,11.921074,0.000000,13.812972,18.245827,11.921074,-49.204668,0.000000,-76.937343,0.000000,0.000000,0.000000,-5.335210,0.000000,3.629120,0.000000,0.000000,0.000000,0.000000,0.000000
29.442000000,40.247219905,139.986366832,3467.480533,11.867865,0.000000,13.849188,18.238591,11.867865,-49.405546,0.000000,-76.937343,0.000000,0.000000,0.000000,-5.309281,0.000000,3.615379,0.000000,0.000000,0.000000,0.000000,0.000000
29.452000000,40.247220145,139.986365474,3467.341843,11.814913,0.000000,13.885266,18.231643,11.814913,-49.605682,0.000000,-76.937343,0.000000,0.000000,0.000000,-5.283570,0.000000,3.601615,0.000000,0.000000,0.000000,0.000000,0.000000
29.462000000,40.247220384,139.986364123,3467.202792,11.762218,0.000000,13.921206,18.224976,11.762218,-49.805075,0.000000,-76.937343,0.000000,0.000000,0.000000,-5.258072,0.000000,3.587827,0.000000,0.000000,0.000000,0.000000,0.000000
29.472000000,40.247220623,139.986362778,3467.063383,11.709777,0.000000,13.957009,18.218588,11.709777,-50.003720,0.000000,-76.937343,0.000000,0.000000,0.000000,-5.232786,0.000000,3.574018,0.000000,0.000000,0.000000,0.000000,0.000000
29.482000000,40.247220860,139.986361439,3466.923617,11.657587,0.000000,13.992673,18.212474,11.657587,-50.201616,0.000000,-76.937343,0.000000,0.000000,0.000000,-5.207707,0.000000,3.560188,0.000000,0.000000,0.000000,0.000000,0.000000
29.492000000,40.247221096,139.986360105,3466.783494,11.605647,0.000000,14.028198,18.206630,11.605647,-50.398759,0.000000,-76.937343,0.000000,0.000000,0.000000,-5.182832,0.000000,3.546338,0.000000,0.000000,0.000000,0.000000,0.000000
29.502000000,40.247221331,139.986358778,3466.643018,11.553954,0.000000,14.063586,18.201052,11.553954,-50.595147,0.000000,-76.937343,0.000000,0.000000,0.000000,-5.158159,0.000000,3.532467,0.000000,0.000000,0.000000,0.000000,0.000000
29.512000000,40.247221565,139.986357457,3466.502188,11.502507,0.000000,14.098834,18.195736,11.502507,-50.790778,0.000000,-76.937343,0.000000,0.000000,0.000000,-5.133683,0.000000,3.518578,0.000000,0.000000,0.000000,0.000000,0.000000
29.522000000,40.247221798,139.986356141,3466.361006,11.451304,0.000000,14.133943,18.190677,11.451304,-50.985649,0.000000,-76.937343,0.000000,0.000000,0.000000,-5.109402,0.000000,3.504671,0.000000,0.000000,0.000000,0.000000,0.000000
29.532000000,40.247222030,139.986354831,3466.219474,11.400343,0.000000,14.168913,18.185872,11.400343,-51.179758,0.000000,-76.937343,0.000000,0.000000,0.000000,-5.085312,0.000000,3.490746,0.000000,0.000000,0.000000,0.000000,0.000000
29.542000000,40.247222261,139.986353528,3466.077594,11.349621,0.000000,14.203744,18.181316,11.349621,-51.373102,0.000000,-76.937343,0.000000,0.000000,0.000000,-5.061411,0.000000,3.476804,0.000000,0.000000,0.000000,0.000000,0.000000
29.552000000,40.247222491,139.986352230,3465.935365,11.299138,0.000000,14.238435,18.177006,11.299138,-51.565680,0.000000,-76.937343,0.000000,0.000000,0.000000,-5.037696,0.000000,3.462847,0.000000,0.000000,0.000000,0.000000,0.000000
29.562000000,40.247222719,139.986350937,3465.792791,11.248891,0.000000,14.272987,18.172939,11.248891,-51.757490,0.000000,-76.937343,0.000000,0.000000,0.000000,-5.014164,0.000000,3.448874,0.000000,0.000000,0.000000,0.000000,0.000000
