time_sec,lat_deg,lon_deg,alt_msl_m,down_range_m,local_x_m,local_y_m,u_mps,v_mps,w_mps,true_airspeed_mps,ground_speed_mps,pitch_deg,roll_deg,yaw_deg,p_rad_sec,q_rad_sec,r_rad_sec,ax_mps2,ay_mps2,az_mps2,alpha_deg,beta_deg,qbar_pa,total_aoa_deg,pressure_pa,temperature_k,gust_airspeed_mps,gust_aoa_deg,thrust_n,mach
0.001,40.242865,140.01045,5.3,0.0,0.0,0.0,0.0,0.0,0.0,0.6033721946635292,0.0,75.0,0.0,279.0,0.0,0.0,0.0,-9.44300554473819,0.0,0.0,0.0,0.0,0.22287209531948396,0.0,101261.34657293449,288.1155500287229,0.0,0.0,0.622109,0.0017731969632693407
0.012000000000000004,40.242865,140.01045,5.3,0.0,0.0,0.0,0.0,0.0,0.0,0.6033721946635292,0.0,75.0,0.0,279.0,0.0,0.0,0.0,-9.3812737493459,0.0,0.0,0.0,0.0,0.22287209531948396,0.0,101261.34657293449,288.1155500287229,0.0,0.0,1.9285387000000034,0.0017731969632693407
0.023000000000000013,40.242865,140.01045,5.3,0.0,0.0,0.0,0.0,0.0,0.0,0.6033721946635292,0.0,75.0,0.0,279.0,0.0,0.0,0.0,-7.802699998206317,0.0,0.0,0.0,0.0,0.22287209531948396,0.0,101261.34657293449,288.1155500287229,0.0,0.0,35.335811600000135,0.0017731969632693407
0.03400000000000002,40.242865,140.01045,5.3,0.0,0.0,0.0,0.0,0.0,0.0,0.6033721946635292,0.0,75.0,0.0,279.0,0.0,0.0,0.0,-3.2344076189091227,0.0,0.0,0.0,0.0,0.22287209531948396,0.0,101261.34657293449,288.1155500287229,0.0,0.0,132.01160700000008,0.0017731969632693407
0.04500000000000003,40.242865,140.01045,5.3,0.0,0.0,0.0,0.0,0.0,0.0,0.6033721946635292,0.0,75.0,0.0,279.0,0.0,0.0,0.0,-1.0763852097167268,0.0,0.0,0.0,0.0,0.22287209531948396,0.0,101261.34657293449,288.1155500287229,0.0,0.0,177.67443240000017,0.0017731969632693407
0.05600000000000004,40.242865000006134,140.01044999994926,5.30001628921902,4.36455335582646e-6,4.364553352922492e-6,-1.5921385235207597e-10,0.006722836494021434,0.0,0.0,0.5966493581695078,0.001739998121763006,75.0,0.0,279.0,0.0,0.0,0.0,1.6699123999865308,0.0,0.0,0.0,0.0,0.2179332352064504,0.0,101261.34644563656,288.11554995981027,0.0,0.0,235.7794415000002,0.0017534398162966048
0.06700000000000005,40.24286500009269,140.01044999923332,5.300246160158585,0.00006595773486504496,0.00006595773486480966,1.761843871563338e-10,0.04222460098839398,0.0,0.0,0.5611475936751352,0.010928530907651083,75.0,0.0,279.0,0.0,0.0,0.0,4.716553267529716,0.0,0.0,0.0,0.0,0.19276993992320918,0.0,101261.34407965073,288.11554867898553,0.0,0.0,300.2299804000003,0.0016491068368442558
0.07800000000000006,40.242865000395895,140.01044999672536,5.301051391621285,0.00028171948408668875,0.0002817194840866881,-1.9155767378949747e-11,0.11665913472308864,0.0,0.0,0.48671305994044056,0.030193605851516123,75.0,0.0,279.0,0.0,0.0,0.0,8.64008819926586,0.0,0.0,0.0,0.0,0.14502105864893752,0.0,101261.3352517557,288.11554390001055,0.0,0.0,383.2193662000004,0.0014303578068100118
0.08900000000000007,40.24286500108096,140.01044999105886,5.302870743728521,0.000769212368416068,0.0007692123684160583,1.2195891249211586e-10,0.23016521981612803,0.0,0.0,0.3732069748474012,0.05957114240862204,75.0,0.0,279.0,0.0,0.0,0.0,11.341347492225353,0.0,0.0,0.0,0.0,0.08526769116102272,0.0,101261.31470753731,288.11553277841045,0.0,0.0,440.3289920000003,0.0010967848703243833
0.10000000000000007,40.24286500227047,140.01044998121978,5.306029782707464,0.0016156764973443867,0.0016156764973443824,-1.1968778664559268e-10,0.3688025204200618,0.0,0.0,0.23456967424346742,0.0954531161665233,75.0,0.0,279.0,0.0,0.0,0.0,13.69050195595354,0.0,0.0,0.0,0.0,0.03368438352084176,0.0,101261.2783712,288.11551310775207,0.0,0.0,489.97332480000034,0.0006893560299477166
0.11100000000000008,40.24286500407429,140.01044996629946,5.310820273243706,0.0028992831496920573,0.002899283149692051,-1.928147053370348e-10,0.5392797965370417,0.0,0.0,0.06409239812648748,0.1395758819827988,75.0,0.0,279.0,0.0,0.0,0.0,17.087653527321287,0.0,0.0,0.0,0.0,0.0025147668371432886,0.0,101261.22280922654,288.1154830292939,0.0,0.0,561.7647710000007,0.000188355479330673
0.1220000000000001,40.24286500664251,140.01044994505642,5.317640802296473,0.0047268386265054965,0.004726838626505491,2.242296066705396e-10,0.7519316825042721,0.0,0.0,0.1485594878407429,0.1946142400480875,75.0,0.0,279.0,0.0,0.0,0.0,21.048097701901508,0.0,0.0,0.0,0.0,0.013510928389269452,0.0,101261.14335848129,288.1154400186328,0.0,0.0,645.4384274000004,0.00043658837003966754
0.1330000000000001,40.24286501013173,140.0104499161953,5.326907278167033,0.007209782599959674,0.007209782599959666,3.6060044858975127e-10,0.9963667948481716,0.0,0.0,0.3929946001846424,0.2578787024144629,75.0,0.0,279.0,0.0,0.0,0.0,23.327238116892005,0.0,0.0,0.0,0.0,0.09454905549826931,0.0,101261.03491770317,288.1153813141733,0.0,0.0,693.5275024000005,0.0011549372706010658
0.1440000000000001,40.242865014657404,140.01044987876114,5.338926314887031,0.010430274284985787,0.010430274284985785,1.962666559222198e-10,1.2726146452864915,0.0,0.0,0.6692424506229623,0.32937690727653285,75.0,0.0,279.0,0.0,0.0,0.0,27.055365041666235,0.0,0.0,0.0,0.0,0.27418929827194566,0.0,101260.8937876521,288.1153049132863,0.0,0.0,772.224341100001,0.001966778045832784
0.1550000000000001,40.24286502039029,140.0104498313415,5.354151396432651,0.014509822644938341,0.01450982264493834,1.9976612681757433e-10,1.602863028013611,0.0,0.0,0.9994908333500817,0.41485147834061775,75.0,0.0,279.0,0.0,0.0,0.0,32.35151492221365,0.0,0.0,0.0,0.0,0.6115620778879762,0.0,101260.71478011737,288.1152080072636,0.0,0.0,884.017419400001,0.0029373165984964977
0.16600000000000012,40.24286502755595,140.01044977207064,5.373181568190188,0.019608941402057396,0.0196089414020574,-8.906827098781323e-11,1.988367835834492,0.0,0.0,1.384995641170963,0.5146274645832489,75.0,0.0,279.0,0.0,0.0,0.0,37.36528436500704,0.0,0.0,0.0,0.0,1.174299705158246,0.0,101260.49072786041,288.1150867160111,0.0,0.0,989.7759705000011,0.004070243974458729
0.17700000000000013,40.24286503637015,140.01044969916396,5.396589812790419,0.025881161215822318,0.02588116121582231,5.305793200627296e-10,2.422197762706542,0.0,0.0,1.818825568043013,0.6269109119931694,75.0,0.0,279.0,0.0,0.0,0.0,40.173851907097216,0.0,0.0,0.0,0.0,2.025178374768525,0.0,101260.21468213772,288.11493727766646,0.0,0.0,1048.8763184000002,0.005345190633636632
0.18800000000000014,40.24286504695153,140.01044961163987,5.424691273411595,0.03341092711829157,0.03341092711829157,-4.2556330681620125e-10,2.868712004721648,0.0,0.0,2.265339810058119,0.7424773017361949,75.0,0.0,279.0,0.0,0.0,0.0,40.91341130756296,0.0,0.0,0.0,0.0,3.1415699956728225,0.0,101259.88244526726,288.1147574196044,0.0,0.0,1064.2424437000002,0.006657415162260604
0.19900000000000015,40.242865059339756,140.01044950917054,5.45759123747943,0.04222644429483813,0.042226444294838135,2.49411958100354e-11,3.327689074006,0.0,0.0,2.724316879342471,0.8612693085323243,75.0,0.0,279.0,0.0,0.0,0.0,42.66697082132768,0.0,0.0,0.0,0.0,4.543535389756211,0.0,101259.49273308285,288.1145464463898,0.0,0.0,1101.0091062000006,0.008006266900544278
0.21000000000000016,40.24286507360374,140.0104493911859,5.495472722381993,0.05237675718144137,0.05237675718144137,4.765237700959934e-10,3.804370904141114,0.0,0.0,3.200998709477585,0.9846436446256166,75.0,0.0,279.0,0.0,0.0,0.0,43.7056364473621,0.0,0.0,0.0,0.0,6.272607462532749,0.0,101259.04341949128,288.1143032067515,0.0,0.0,1122.6585446000001,0.009407151212439279
0.22100000000000017,40.242865089802216,140.01044925719995,5.538491752994747,0.06390367264532616,0.06390367264532615,-1.488829077384013e-10,4.2973403680972515,0.0,0.0,3.6939681734337224,1.1122335305514457,75.0,0.0,279.0,0.0,0.0,0.0,45.85343397077985,0.0,0.0,0.0,0.0,8.35336843529756,0.0,101258.53260477405,288.1140266719073,0.0,0.0,1167.699219,0.01085590373876368
0.23200000000000018,40.24286510800672,140.01044910662122,5.586838261285491,0.07685807930061901,0.07685807930061901,1.610835336646188e-10,4.8036987881244135,0.0,0.0,4.200326593460884,1.243288733302497,75.0,0.0,279.0,0.0,0.0,0.0,46.292463757899355,0.0,0.0,0.0,0.0,10.800390610842253,0.0,101257.95799195592,288.1137155979496,0.0,0.0,1176.6576052000005,0.012344006132478637
0.2430000000000002,40.242865128258885,140.0104489391052,5.640622842746015,0.09126961451937664,0.09126961451937664,1.8410560749526628e-10,5.323381915040797,0.0,0.0,4.720009720377268,1.3777926239668874,75.0,0.0,279.0,0.0,0.0,0.0,47.97063943480127,0.0,0.0,0.0,0.0,13.63819534961889,0.0,101257.31823620111,288.1133692563528,0.0,0.0,1211.7445558000004,0.01387126992551427
0.25400000000000017,40.242865150622976,140.01044875412035,5.700016165660989,0.10718400734020142,0.10718400734020142,-1.2223926731946833e-10,5.858408342926742,0.0,0.0,5.255036148263213,1.5162676531369401,75.0,0.0,279.0,0.0,0.0,0.0,49.083564139498186,0.0,0.0,0.0,0.0,16.905190976159666,0.0,101256.61132324771,288.11298655611523,0.0,0.0,1234.8870607000001,0.015443627791424832
0.2650000000000002,40.24286517514742,140.0104485512661,5.765146831619001,0.12463571724759742,0.12463571724759744,-1.323356355054095e-10,6.402907824928338,0.0,0.0,5.799535630264809,1.6571944891274104,75.0,0.0,279.0,0.0,0.0,0.0,49.98473657634682,0.0,0.0,0.0,0.0,20.589813536451416,0.0,101255.83564005593,288.1125666233638,0.0,0.0,1253.5503176000004,0.0170438285070544
0.2760000000000002,40.242865201875176,140.0104483301872,5.8361289169897645,0.1436553109200888,0.1436553109200888,-1.0224209326392675e-10,6.960497099134617,0.0,0.0,6.357124904471088,1.8015092126368872,75.0,0.0,279.0,0.0,0.0,0.0,51.25560485270283,0.0,0.0,0.0,0.0,24.739135730573796,0.0,101254.98985683605,288.1121087374883,0.0,0.0,1279.9899900000005,0.01868250144069944
0.2870000000000002,40.24286523086012,140.01044809043793,5.913105514588018,0.16428112822611418,0.1642811282261142,2.394610169875744e-10,7.530503644899607,0.0,0.0,6.927131450236078,1.949037762513968,75.0,0.0,279.0,0.0,0.0,0.0,52.15532029350642,0.0,0.0,0.0,0.0,29.374244491085758,0.0,101254.0722534941,288.11161196649283,0.0,0.0,1298.5910644000003,0.020357670616090784
0.2980000000000002,40.242865262140896,140.01044783169863,5.996179275991772,0.18654067445809291,0.1865406744580929,2.0837057079781118e-10,8.107522203331962,0.0,0.0,7.504150008668433,2.0983811548138633,75.0,0.0,279.0,0.0,0.0,0.0,52.665687700268876,0.0,0.0,0.0,0.0,34.471439584856775,0.0,101253.08153657928,288.11107560926644,0.0,0.0,1308.9802734000002,0.0220534513348998
0.3090000000000002,40.24286529574258,140.01044755376188,6.0854167772433945,0.2104517918476864,0.21045179184768642,9.189406180443171e-12,8.691716691065174,0.0,0.0,8.088344496401644,2.24958181428313,75.0,0.0,279.0,0.0,0.0,0.0,53.6018561983345,0.0,0.0,0.0,0.0,40.04718459028604,0.0,101252.01690568996,288.11049923153894,0.0,0.0,1328.3278812000005,0.023770325746365225
0.32000000000000023,40.2428653317057,140.01044725629257,6.180925633107586,0.23604331118843352,0.23604331118843352,4.3844310820828625e-10,9.288207874744746,0.0,0.0,8.684835680081216,2.403965092855149,75.0,0.0,279.0,0.0,0.0,0.0,54.751546961800805,0.0,0.0,0.0,0.0,46.17128504339983,0.0,101250.87713131262,288.1098821666363,0.0,0.0,1352.1546507000005,0.025523343415430423
0.33100000000000024,40.24286537007263,140.01044693894008,6.282818399170978,0.2633453955598858,0.2633453955598858,2.9646814864170423e-10,9.891070861605687,0.0,0.0,9.287698666942157,2.5599975154421513,75.0,0.0,279.0,0.0,0.0,0.0,54.75477082142579,0.0,0.0,0.0,0.0,52.803262769130924,0.0,101249.66080335497,288.109223650022,0.0,0.0,1351.8436280000005,0.0272950925334223
0.34200000000000025,40.24286541086047,140.01044660156296,6.391140495418914,0.29237021445400124,0.29237021445400124,-2.7197689239644163e-10,10.500898081962394,0.0,0.0,9.897525887298864,2.717832414292398,75.0,0.0,279.0,0.0,0.0,0.0,56.009040401265025,0.0,0.0,0.0,0.0,59.96437700636576,0.0,101248.36737172569,288.10852338266403,0.0,0.0,1377.8477786000005,0.029087314624108514
0.35300000000000026,40.242865454115545,140.0104462437781,6.506014937154991,0.32315072853583166,0.3231507285358316,-2.979062690977585e-10,11.123906755596593,0.0,0.0,10.520534560933063,2.87907892429299,75.0,0.0,279.0,0.0,0.0,0.0,56.850061114025344,0.0,0.0,0.0,0.0,67.75024701661074,0.0,101246.99544369729,288.10778060922826,0.0,0.0,1395.1424069999994,0.03091828167371138
0.36400000000000027,40.242865499863164,140.0104458653762,6.627508921010357,0.3557049414255843,0.3557049414255843,4.885764778861379e-10,11.743935836985512,0.0,0.0,11.140563642321982,3.039554259073863,75.0,0.0,279.0,0.0,0.0,0.0,56.2352522934596,0.0,0.0,0.0,0.0,75.97042480027655,0.0,101245.54403376863,288.1069947947477,0.0,0.0,1381.8293092000004,0.032740499300982946
0.3750000000000003,40.24286554809012,140.01044546646636,6.75558740878725,0.39002346841826524,0.39002346841826524,5.326261029447998e-10,12.365486419476275,0.0,0.0,11.762114224812745,3.200423387317038,75.0,0.0,279.0,0.0,0.0,0.0,56.75672220181798,0.0,0.0,0.0,0.0,84.68289496433643,0.0,101244.0136025293,288.10616618709804,0.0,0.0,1392.4051754000002,0.03456719594258003
0.3860000000000003,40.24286559881562,140.01044504688983,6.890301379449929,0.42611996815772823,0.42611996815772823,3.659893638152667e-10,12.992416410119125,0.0,0.0,12.389044215455595,3.3626848088413523,75.0,0.0,279.0,0.0,0.0,0.0,57.02080809046731,0.0,0.0,0.0,0.0,93.94959767176925,0.0,101242.40359369596,288.1052944835188,0.0,0.0,1397.5686644999998,0.036409709906194423
0.3970000000000003,40.24286565205095,140.01044460655314,7.03168083753224,0.46400248026263613,0.46400248026263613,-3.875308407508271e-11,13.62051888754503,0.0,0.0,13.0171466928815,3.5252496922752528,75.0,0.0,279.0,0.0,0.0,0.0,57.373769086094406,0.0,0.0,0.0,0.0,103.71582986735763,0.0,101240.71359935729,288.10437946148613,0.0,0.0,1404.5985106000005,0.03825567810451889
0.4080000000000003,40.24286570781106,140.01044414533277,7.179765445931556,0.5036816314805229,0.5036816314805229,3.569027712257977e-10,14.253831851574468,0.0,0.0,13.650459656910938,3.689163148876399,75.0,0.0,279.0,0.0,0.0,0.0,57.540176977072896,0.0,0.0,0.0,0.0,114.05172296889805,0.0,101238.94319504107,288.10342088941485,0.0,0.0,1407.7090328,0.040116968155379316
0.4190000000000003,40.24286576610795,140.01044366312942,7.334587086828638,0.5451659649285321,0.5451659649285321,2.60761079395877e-10,14.890617807678158,0.0,0.0,14.287245613014628,3.8539754819698517,75.0,0.0,279.0,0.0,0.0,0.0,58.45363764274798,0.0,0.0,0.0,0.0,124.93896101130751,0.0,101237.09197587977,288.1024185462377,0.0,0.0,1426.4967530000008,0.04198847428866929
0.4300000000000003,40.24286582697196,140.0104431596921,7.496226349678482,0.5884770738293148,0.5884770738293149,7.971870386036528e-10,15.534474679310275,0.0,0.0,14.931102484646745,4.020617902668373,75.0,0.0,279.0,0.0,0.0,0.0,58.36234430419972,0.0,0.0,0.0,0.0,136.45137200113936,0.0,101235.15902991618,288.1013719362196,0.0,0.0,1424.1949702999998,0.04388077089989963
0.44100000000000034,40.242865890407955,140.0104426349805,7.664696174733321,0.6336184251757441,0.6336184251757441,6.176301969862408e-10,16.17745060292556,0.0,0.0,15.57407840826203,4.187032317242392,75.0,0.0,279.0,0.0,0.0,0.0,58.57927108261225,0.0,0.0,0.0,0.0,148.45398783413725,0.0,101233.14410579948,288.1002809212084,0.0,0.0,1428.3630369999998,0.04577048890459808
0.45200000000000035,40.242865956418434,140.01044208897406,7.840003152910398,0.6805917893548346,0.6805917893548347,4.1241089709931344e-10,16.82050969276229,0.0,0.0,16.21713749809876,4.35346825681843,75.0,0.0,279.0,0.0,0.0,0.0,58.31835055456564,0.0,0.0,0.0,0.0,160.96381916711192,0.0,101231.04714412575,288.0991454668911,0.0,0.0,1422.5152345999995,0.04766046215827644
0.46300000000000036,40.24286602499147,140.0104415217714,8.022115631459332,0.7293886793392872,0.7293886793392872,5.98287627773253e-10,17.457967830986487,0.0,0.0,16.85459563632296,4.518454563446448,75.0,0.0,279.0,0.0,0.0,0.0,57.92035092674412,0.0,0.0,0.0,0.0,173.8637237421046,0.0,101228.8684611117,288.09796574225993,0.0,0.0,1413.805688800001,0.049533986026316625
0.47400000000000037,40.24286609612238,140.01044093341133,8.2110211467849,0.7800057599021532,0.780005759902153,8.741097567988021e-10,18.101449428246323,0.0,0.0,17.498077233582794,4.6849998559902835,75.0,0.0,279.0,0.0,0.0,0.0,58.58216181995167,0.0,0.0,0.0,0.0,187.38943773860518,0.0,101226.60833849636,288.09674189756214,0.0,0.0,1427.3055179999994,0.051425223889468026
0.4850000000000004,40.242866169825135,140.01044032377814,8.406756849372591,0.8324529827409174,0.8324529827409175,1.0834681207771979e-9,18.741430767926204,0.0,0.0,18.138058573262676,4.850639215209662,75.0,0.0,279.0,0.0,0.0,0.0,58.11527875937142,0.0,0.0,0.0,0.0,201.34363887792603,0.0,101224.2662370441,288.09547363840363,0.0,0.0,1417.1650636000002,0.05330618694210755
0.4960000000000004,40.24286624608747,140.01043969297334,8.609290153413927,0.8867216162341598,0.8867216162341598,1.142250016794577e-9,19.38182594392324,0.0,0.0,18.77845374925971,5.016385683149475,75.0,0.0,279.0,0.0,0.0,0.0,58.14711554499574,0.0,0.0,0.0,0.0,215.80800540872804,0.0,101221.8425884604,288.0941611960656,0.0,0.0,1417.4761349999997,0.055188378739235294
0.5070000000000003,40.2428663249079,140.01043904100928,8.818617081359784,0.9428105967837187,0.9428105967837187,1.3331081238909803e-9,20.01988627594936,0.0,0.0,19.416514081285833,5.181527849002274,75.0,0.0,279.0,0.0,0.0,0.0,57.946842361909596,0.0,0.0,0.0,0.0,230.7181250595433,0.0,101219.33741761645,288.09280458144707,0.0,0.0,1412.9347652,0.05706372154992703
0.5180000000000003,40.24286640628106,140.0104383679303,9.034723408111065,1.0007161100109343,1.0007161100109343,1.966847379408776e-9,20.65964256542851,0.0,0.0,20.05627037076498,5.347108960943599,75.0,0.0,279.0,0.0,0.0,0.0,58.572941411557515,0.0,0.0,0.0,0.0,246.16740891693428,0.0,101216.75094076806,288.09140390900427,0.0,0.0,1425.6880127000006,0.05894406200624979
0.5290000000000004,40.24286649023042,140.0104376735422,9.257671475248081,1.0604548633972124,1.0604548633972124,1.986893927163891e-9,21.306382720492973,0.0,0.0,20.703010525829445,5.514497630306839,75.0,0.0,279.0,0.0,0.0,0.0,58.771041255702166,0.0,0.0,0.0,0.0,262.2937473626336,0.0,101214.08248330491,288.0899588106648,0.0,0.0,1429.4829097999998,0.060844941468764756
0.5400000000000004,40.24286657676098,140.01043695780365,9.487474558991575,1.1220304146645417,1.1220304146645417,1.6912596600970886e-9,21.94789269655103,0.0,0.0,21.3445205018875,5.680532629733927,75.0,0.0,279.0,0.0,0.0,0.0,57.799484180417,0.0,0.0,0.0,0.0,278.7944862992557,0.0,101211.33175385253,288.0884691257854,0.0,0.0,1408.8288325999993,0.06273046409118924
0.5510000000000004,40.24286666584041,140.0104362209822,9.724046764201981,1.1854197430387585,1.1854197430387585,2.6253631213446482e-9,22.582602889581413,0.0,0.0,21.979230694917884,5.844807715810886,75.0,0.0,279.0,0.0,0.0,0.0,57.708038288964275,0.0,0.0,0.0,0.0,295.6150287527368,0.0,101208.49975869196,288.0869353964028,0.0,0.0,1406.5892330000001,0.06459601713248028
0.5620000000000004,40.242866757463105,140.01043546312403,9.967373250444316,1.2506188772739109,1.2506188772739106,2.717055219703113e-9,23.220033314025823,0.0,0.0,22.616661119362295,6.009786849584883,75.0,0.0,279.0,0.0,0.0,0.0,58.14343729628869,0.0,0.0,0.0,0.0,313.0029237887732,0.0,101205.58679388837,288.08535777986975,0.0,0.0,1415.3609621,0.06646957983401547
0.5700000000000004,40.242866825704304,140.01043489866618,10.148604448676153,1.299179629550562,1.299179629550562,2.9795931000276e-9,23.686411250928668,0.0,0.0,23.0830447586861,6.130494341870961,75.0,0.0,279.0,0.0,0.0,0.0,58.41687762631038,0.0,0.0,0.0,0.0,326.03938189668213,0.0,101203.41714552823,288.0841827080952,0.0,0.0,1420.8355709000002,0.06784040347433341
0.5810000000000004,40.24286692953643,140.01043410253052,10.403272204835051,1.367804090131731,1.3678038361064426,0.0008336147745489908,24.899155208300627,3.1194181275150834,2.279502744518602,25.19711952393729,6.315041468353283,74.99995365360667,0.00022959738357017153,279.0002371804958,-5.570588184933582e-11,-0.00018331686001652543,0.00023961317079925173,58.495876955651326,-0.02606643477975932,2.519439617578764,5.230813153938104,7.11149633777403,388.4876683064251,8.820094008298494,101200.51830722089,288.082313469773,26.756211097679387,26.348060560588053,0.0,0.07405395032235133
0.5920000000000004,40.24286703654798,140.01043328158215,10.664713245296259,1.4385668177569104,1.4385658286150436,0.0016869772842128261,25.54098538736331,3.119310155230156,2.3071413671659986,25.833987916891903,6.507972526600709,74.99977924702512,0.0010804304559818441,279.00111749600563,-2.620685781964038e-10,-0.0003924474042920305,0.0005094735333656841,58.30210938902006,-0.03341904452660361,2.513591953422064,5.161573443626437,6.935067705514251,408.363997626471,8.63751703066824,101197.3807231227,288.080614099303,27.356807775947047,25.781750331909283,0.0,0.07592592076478596
0.6030000000000004,40.24286714672563,140.01043243592164,10.932896257195427,1.5114591016278853,1.511456933715507,0.002559964275414439,26.184323028064302,3.1191226331303947,2.334710745303749,26.472600414442883,6.701287144710188,74.99947077374807,0.002572961040416836,279.00266213195295,-6.239335487273601e-10,-0.0006095297286146128,0.0007858893861365877,58.725457910746485,-0.041259246293012454,2.50728201063109,5.095272162011371,6.766568626695696,428.7918940352402,8.463295697174013,101194.162309968,288.07887090607403,27.96066116354836,25.236811183001578,0.0,0.0778030340953508
0.6140000000000004,40.24286726008699,140.01043156541385,11.207864687487852,1.5864925571250807,1.5864888000159967,0.0034527144510497487,26.8326640857547,3.118850071628017,2.3622055984264643,27.11639915249592,6.895891617323693,74.99902316338819,0.004722543823499106,279.004886987645,-1.1449070253460132e-9,-0.0008347289781686353,0.0010688863805361157,58.73120075731612,-0.049607255577189584,2.5004851371632753,5.03104659998168,6.604612369328097,449.88957222090687,8.295786120493965,101190.86255265748,288.0770836076963,28.570948584138424,24.70930124345918,0.0,0.07969540730501203
0.6250000000000004,40.242867376629974,140.01043067007615,11.489612966136264,1.663665660721163,1.6636599338302482,0.004365229743968191,27.474598290291357,3.118486882870853,2.3896204917896022,27.754077137355857,7.0888340990248055,74.99843123639533,0.00754454415861719,279.00780797499044,-1.8285985949791366e-9,-0.0010681770443278379,0.0013584494878591087,58.42037518874785,-0.05845445372560549,2.49319810089743,4.97082732545911,6.451457744236111,471.2851143161656,8.137927570805704,101187.48152448046,288.0752522403754,29.17685380136623,24.20740505428723,0.0,0.08156980947591062
0.6360000000000005,40.24286749634248,140.0104297500048,11.778110228749805,1.742970095650886,1.7429620452742036,0.005297458524871124,28.118030186671433,3.118027383834507,2.4169498467471384,28.393438729865018,7.282162148607267,74.99768974202077,0.011054163252947068,279.0114408376009,-2.678579716212416e-9,-0.0013099754855831112,0.0016545280684195245,58.109045377760076,-0.06782499972827642,2.4853928955504636,4.912914088887387,6.3046551208323915,493.2352369421621,7.986730100386778,101184.01960241995,288.0733770047402,29.785690572934495,23.723497144587597,0.0,0.0834491780912099
0.6470000000000005,40.24286761921181,140.01042880530176,12.073323687231246,1.8243970583052096,1.824386354870945,0.006249361040116419,28.75425667277912,3.1174658218649407,2.4441879124681014,29.02584924693873,7.473624527113535,74.99679334726572,0.015266482394983507,279.0158011966659,-3.69839512517862e-9,-0.0015602295315760258,0.0019570771924844283,57.883919840475855,-0.07770689972215013,2.477068955841336,4.858613458934457,6.165636456593958,515.4370915286592,7.844103744761236,101180.47718665659,288.07145811392263,30.38914155592444,23.262968740141936,0.0,0.08530813591710174
0.6580000000000005,40.24286774522737,140.01042783605536,12.375224879097543,1.9079389315264834,1.9079252669769928,0.007220946280743046,29.39278836511463,3.1167963358454087,2.471328755055897,29.660712956554562,7.665684840468159,74.99573665682084,0.02019637367656777,279.02090445864917,-4.891542117558612e-9,-0.0018190379617092662,0.0022660453423688355,58.20820482813094,-0.08813273845917485,2.468190851023157,4.806092172019973,6.031870159626151,538.215719877638,7.706915244888575,101176.85462560088,288.0694957529494,30.996094803880112,22.81766145124146,0.0,0.08717432275953048
0.6690000000000005,40.24286787440412,140.01042684215992,12.683847452219865,1.9936048257413002,1.9935879104843648,0.00821245332309467,30.034121473595114,3.116012827219676,2.4983660810401718,30.29851187277944,7.858473360044974,74.9945141842101,0.0258586184110127,279.02676593791114,-6.261499788470402e-9,-0.0020865548962992315,0.0025814437204484996,58.335294515549144,-0.09911812611313314,2.4587354727005377,4.7551590509778245,5.902950404303096,561.5946111894509,7.57471224120001,101173.15152251945,288.0674897031189,31.606958438055322,22.386539082385042,0.0,0.0890491558171611
0.6800000000000005,40.24286800674846,140.0104258235774,12.99920328795466,2.081398027698343,2.0813775885287504,0.009224081352453062,30.674603377012133,3.1151091013383625,2.5252934146875186,30.935615459862916,8.051046265689802,74.9931203397346,0.03226794906708077,279.03340090044117,-7.81173992958189e-9,-0.0023629171455469365,0.0029032632459435864,58.05566007536222,-0.11066350289901605,2.4486915548821435,4.706274528457921,5.779281117439292,585.4431166815801,7.448080885594938,101169.3677420604,288.0654398872214,32.21819833386885,21.971339389467172,0.0,0.09092196521739966
0.6910000000000005,40.24286814225341,140.01042478037385,13.321270881148214,2.1713128598988076,2.1712886384025327,0.010255940035613309,31.313245147974673,3.1140789336871757,2.5521041655480587,31.571031737562862,8.243149353012104,74.99154944794358,0.03943896901966698,279.040824480953,-9.545708584168843e-9,-0.0026482300109347255,0.00323146017509883,57.96403820377969,-0.12277428457519439,2.438043854018058,4.659443898883855,5.660701188526555,609.7212064300843,7.326884718093172,101165.50354956661,288.06334644503477,32.828799018151756,21.57183667836315,0.0,0.0927898358322905
0.7020000000000005,40.24286828090983,140.0104237126339,13.650022683341996,2.2633420468246555,2.263313797654951,0.011308150562490349,31.946789857862782,3.1129160362815718,2.578791574773821,32.201518511671274,8.43394100378012,74.98979570228639,0.047386119087844666,279.0490516522749,-1.1466805643338027e-8,-0.0029425923357536115,0.0035659846431826906,57.45327426213102,-0.13544430358287474,2.42678649844337,4.614992736817311,5.5474377170250735,634.2971259625053,7.211490894040284,101161.55928308715,288.0612095556605,33.43557677770054,21.189146151691517,0.0,0.09464323889463302
0.7130000000000005,40.242868422707126,140.0104226204551,13.985426879206662,2.3574772034577505,2.3574446927842514,0.012380843523106477,32.583332065946166,3.1116140457304384,2.605348712174003,32.835095742228766,8.625519549982021,74.98785339916692,0.05612357084522977,279.0580970993147,-1.3578413035791913e-8,-0.003246091413919025,0.003906775416971858,58.118190920064386,-0.1487157957380381,2.4148735917856006,4.571618625922392,5.4377876186817415,659.4815119077157,7.099747609596405,101157.53533190799,288.0590294258991,34.046196739156194,20.817545344785824,0.0,0.09650574612122186
0.7240000000000005,40.24286856767092,140.010421503661,14.327539426754171,2.4537335777999005,2.4536965804500475,0.013474491101452046,33.22365921282185,3.1101661623076757,2.631768077641231,33.4725390172508,8.818091160484316,74.98571657578462,0.06566541832211298,279.0679754411098,-1.588386210850856e-8,-0.0035588957905433156,0.004253856969620019,58.14871904057808,-0.1626076541260549,2.402277222796558,4.529151760710927,5.331439356339191,685.3131975912441,6.991294425418858,101153.43103245237,288.056805692038,34.661374298509536,20.456134331232782,0.0,0.0983796376393326
0.7350000000000005,40.24286871580637,140.01042036223336,14.676365499032878,2.5521127831393287,2.5520710818367887,0.014589417931260285,33.861385300720734,3.108565634577843,2.6580421090765025,34.10750331880023,9.010003791614245,74.98337915819911,0.07602569351114728,279.0787012356513,-1.8386477711309973e-8,-0.00388113271557553,0.004607207128645327,57.62498317041224,-0.17709988206893762,2.388995457722463,4.488385130882835,5.229206966119851,711.5363539057983,6.887250351773898,101149.24633060273,288.05453832045833,35.27494553705177,20.108011758400632,0.0,0.10024626520224347
0.7460000000000006,40.2428688670932,140.01041919634957,15.031847519933974,2.6525995697708047,2.6525529548398863,0.015725753350675276,34.49219621195206,3.1068059068468132,2.6841629588086544,34.73569595180236,9.20014134159045,74.98083509720014,0.08721817183478184,279.09028876641077,-2.1089568934428067e-8,-0.004213232540598517,0.004966743127474568,57.208527979334086,-0.19217332592552105,2.3749839237552752,4.449756840609588,5.131466486763445,737.9627097539176,6.788173099270067,101144.98192517826,288.0522276854326,35.882705768323255,19.774748218132043,0.0,0.10209301225795187
0.7570000000000006,40.24286902151609,140.01041800615104,15.393939341620303,2.7551817975822783,2.755130065655869,0.016883691770469555,35.12221321683283,3.104880323008206,2.7101225107670497,35.36318575994302,9.39009175287155,74.97807779568907,0.09925637918862756,279.102752078019,-2.399632363848963e-8,-0.0045555479101069525,0.00533238619600532,57.39398445605902,-0.20786618933369677,2.3602281623141983,4.412350019222527,5.037043260479526,764.8390795018098,6.692565697183693,101140.6383779686,288.04987408694893,36.490476937034366,19.452329388964316,0.0,0.10393771617278862
0.7680000000000006,40.242869179086846,140.01041679157584,15.762659896889755,2.8598648656624834,2.8598078173748265,0.01806370760740733,35.75580765760877,3.1027818175738577,2.735912235319826,35.99430860587203,9.580990363210388,74.9751007358847,0.11215355888674051,279.1161049097104,-2.7109923018209324e-8,-0.004908241459432182,0.005704116715470757,57.75930597553222,-0.22421599225680208,2.3446803212143363,4.375551270047593,4.94514880031733,792.3546271734998,6.599421462181253,101136.2154701148,288.0474774019297,37.10242919290802,19.138060114847175,0.0,0.10579312116200965
0.7790000000000006,40.2428693398307,140.01041555246212,16.138059990810056,2.966662793133574,2.9666002314172024,0.019266424642376656,36.396648691526984,3.1005029881623596,2.7615231040690986,36.63270621464301,9.773791223117758,74.97189704505068,0.1259228920950499,279.13036095615166,-3.043349037477216e-8,-0.005271509683875946,0.006081943458067719,58.83556527384277,-0.24126303039763716,2.328288617068761,4.338889787721999,4.855183668187706,820.680804206382,6.507969968884207,101131.71260071179,288.04503730016404,37.72207794658646,18.82988058917065,0.0,0.10766993150433538
0.7900000000000006,40.24286950378242,140.01041428857874,16.520212490258672,3.075595584515888,3.075527313014782,0.020492593630370592,37.036993840050755,3.0980361329802566,2.7869456085122755,37.27068293463395,9.966489618723086,74.9684598652638,0.14057746288363698,279.14553380360184,-3.3970177138886867e-8,-0.005645579647348572,0.006465899122314467,57.24831406216891,-0.25897117771379446,2.311067797346104,4.303261244162684,4.768075778176534,849.4836637049652,6.419487534709393,101127.12890449326,288.04255330804534,38.34193274228641,18.531279289821526,0.0,0.1095455290225776
0.8010000000000006,40.24286967090249,140.01041300025884,16.909009579511636,3.1866345899820354,3.1865604156525866,0.021742296704504893,37.66651475099633,3.095374568481685,2.8121711243280556,37.897968067414006,10.156409457035124,74.96478218174636,0.15613015651113346,279.1616368404911,-3.7723089710070133e-8,-0.006030482275677104,0.006855846121914275,57.274292780310475,-0.2772670981618075,2.293068371472161,4.269764800051901,4.6849393134627055,878.2860091268071,6.335525584477614,101122.46568349976,288.04002612638317,38.95197021510891,18.246477850237333,0.0,0.11138972635253527
0.8120000000000006,40.24286984119082,140.0104116875397,17.304437992381516,3.2997766777992066,3.2996964081865987,0.023016019378454988,38.303082417066264,3.0925109721529997,2.8371902330275276,38.53231624467759,10.34818855729811,74.96085694127727,0.17259342363810617,279.1786830093932,-4.1695245566983916e-8,-0.006426330987478838,0.007251719185053958,58.116713165717194,-0.2962897218074077,2.274150041812005,4.236283027103884,4.603372364232962,907.8996576719662,6.25287816569819,101117.72310579506,288.03745584142735,39.56942500441274,17.966794297318682,0.0,0.11325470813404298
0.8230000000000006,40.2428700146789,140.01041035022257,17.706559881022304,3.4150390765537053,3.4149525172963444,0.02431458410387921,38.93935211903026,3.089437390337211,2.8619926656416177,39.16642399883894,10.539924363184591,74.95667689286296,0.18997957899668894,279.1966851213357,-4.5889628673269984e-8,-0.006833336822980866,0.0076535344909178064,57.48203526188418,-0.315996395975945,2.2543331209082185,4.203608131831468,4.524176140412342,937.9910402228332,6.172660532002774,101112.90043504801,288.03484204918504,40.18717169516694,17.695264439396233,0.0,0.11511900859621352
0.8340000000000006,40.24287019134999,140.01040898847475,18.11532022748869,3.532407457260994,3.5323144138017035,0.0256383728386268,39.56960551722614,3.0861466139504694,2.886568744693125,39.79460090049315,10.730135469306196,74.95223485740891,0.20830066745331577,279.2156556999497,-5.030921958303888e-8,-0.007251575495948841,0.008061195269078496,57.48363559126728,-0.3363430941280807,2.2336413805949364,4.1722873403145595,4.447862218623998,968.2825500238581,6.09561026040319,101107.99834044396,288.0321851073246,40.79963554775374,17.43388867442001,0.0,0.11696590253922047
0.8450000000000006,40.24287037121257,140.01040760227616,18.530723771318197,3.6518836537385306,3.651783929204307,0.026988050093232685,40.20681259219642,3.082630904681791,2.9109080876847377,40.42973878240438,10.922191689578941,74.94752335729417,0.2275684246386512,279.2356069700191,-5.4956887872672946e-8,-0.007681176120524453,0.008474648806440423,57.78251264755377,-0.35745055398030406,2.211946710481756,4.140896817683311,4.372853457532021,999.397691790849,6.019597690398682,101103.01677450877,288.0294849850344,41.41936477076215,17.176903231570666,0.0,0.11883328251838134
0.8560000000000006,40.24287055428381,140.01040619154398,18.95279524520646,3.773474919673402,3.7733683135821243,0.028364404781072716,40.83942855013084,3.0788822762772936,2.9349998410297022,41.060353924914736,11.113098379538885,74.94253501126974,0.24779433320954583,279.2565508837767,-5.983551441338651e-8,-0.008122304055936287,0.00889387125945345,57.28784628358479,-0.37922497606885247,2.189317030588038,4.110598305795137,4.300320751778049,1030.7758696864128,5.946261515433989,101097.95545021037,288.02674152156186,42.035136070188486,16.92874507839957,0.0,0.12068739554279016
0.8670000000000007,40.2428707405505,140.0104047564253,19.38148576020281,3.8971686833157633,3.8970549926935,0.029767938117783777,41.470570299976856,3.0748932795943262,2.9588335339284773,41.68954144108228,11.30366789482043,74.93726213798698,0.26898960034234,279.2784991291149,-6.494788423734674e-8,-0.008575025822890282,0.00931876024723644,57.58055430042483,-0.4016980891902423,2.1657058186400127,4.081011803579698,4.2298027572898205,1062.5643019055472,5.874998861837253,101092.8149635824,288.0239550347358,42.649945668989034,16.687778001617026,0.0,0.12253733918566341
0.8780000000000007,40.242870930028005,140.0104032968562,19.816813713235664,4.022970579420044,4.022849596326406,0.031199490632441873,42.10326335003455,3.0706558156229535,2.98239782867671,42.32030728466982,11.494689395317417,74.93169713805244,0.29116504288532646,279.3014629837855,-7.029674905266253e-8,-0.009039484155973406,0.009749273435571965,57.03094322583206,-0.4249078447072956,2.141058788009374,4.051796685850192,4.160895046749532,1094.9151152549991,5.805275515263618,101087.59510378828,288.0211254049508,43.26671247817284,16.4525556696802,0.0,0.12439194921774806
0.8890000000000007,40.2428711227075,140.01040181295522,20.258739104178627,4.150870511614934,4.1507420240623345,0.03265966744067583,42.730801775854566,3.066162268213201,3.005681682737548,42.94597645694336,11.684423024512807,74.92583226200897,0.3143311875335053,279.32545343473396,-7.588480256420538e-8,-0.009515754315750509,0.010185317034925725,57.18497860226191,-0.44878879863745863,2.1154196772561966,4.023554168319469,4.094161183510115,1127.4813218043203,5.737906552487229,101082.2963604731,288.0182528922467,43.878888931242706,16.22527137127446,0.0,0.12623160616668005
0.9000000000000007,40.24287131860385,140.01040030466763,20.707277165681877,4.280873339170243,4.280737128835213,0.03414937525407358,43.36622796295702,3.0614043985238717,3.0286732262155036,43.57952255518239,11.876263643931019,74.91965962527428,0.33849817456658715,279.3504810797222,-8.171465370830346e-8,-0.010003962053343599,0.010626835551173282,58.314305946208286,-0.4734901314236412,2.088627154734313,3.9950184830552677,4.0282713063122815,1160.94225515684,5.671051760448016,101076.91856113778,288.0153373976469,44.499154892398245,16.00095605255269,0.0,0.12809444387970026
0.9110000000000007,40.24287151776033,140.01039877173093,21.162509242399654,4.41300185312107,4.412857692590078,0.03566988363551027,44.00370122296049,3.0563731591652212,3.051359502718635,44.21513239856317,12.06869616268084,74.91317134983466,0.3636758915219651,279.37655625082675,-8.778890925682434e-8,-0.010504325072014403,0.011073840661016375,57.37850714558022,-0.49896290543490085,2.0607059915932306,3.9667255156362144,3.96373443958091,1195.0017826771707,5.605442362322455,101071.46074074769,288.01237839238644,45.121812164655694,15.781582061561382,0.0,0.12996337632139068
0.9220000000000007,40.242871720150646,140.01039721439986,21.624351548424567,4.547234223105629,4.547081880260894,0.03722168703999529,44.626128390374795,3.0510612094265688,3.0737291228144623,44.83579061796859,12.257274902226026,74.90635941387347,0.38987393149596167,279.40368898457075,-9.411012593741122e-8,-0.01101685939999156,0.0115261955242707,56.15872354365942,-0.5250034340101721,2.0318354946010424,3.9401580644013428,3.9019749462890627,1228.731785742815,5.543125295778718,101065.92391437314,288.00937642112774,45.73016641494234,15.572646311650786,0.0,0.1317883896425423
0.9330000000000007,40.24287192574275,140.0103956329734,22.092706012578706,4.683544802262072,4.683384040250831,0.03880523572760741,45.25151097550014,3.045461416507605,3.0957707675615596,45.45940911902106,12.44668898737128,74.8992156314886,0.41710130899743136,279.4318887373847,-1.0068071102180661e-7,-0.011541531237395994,0.011983729977218702,57.3244383791427,-0.5518227160280053,2.0017940371646357,3.913651706376562,3.841292162604769,1263.093395486991,5.481718046163489,101060.30926819722,288.00633212132806,46.34175091049685,15.36771992591006,0.0,0.13362213317865496
0.9440000000000007,40.24287213458926,140.01039402712976,22.567672431377378,4.821961525476572,4.821792095471033,0.04042203890726326,45.8864488023895,3.0395643054575134,3.117470407643025,46.09255641211338,12.638662159847705,74.89173193171989,0.4453665909962794,279.461164495191,-1.0750303727045945e-7,-0.012078563380377142,0.012446457982620639,57.73122333531766,-0.5795212936837878,1.9704596029669625,3.886634201029054,3.7811024603691226,1298.4632728564027,5.420398434714939,101054.61561652203,288.0032448443419,46.963004126693754,15.164593989850369,0.0,0.1354839150270084
0.9550000000000007,40.24287234672062,140.01039239671425,23.049297123156354,4.962497916867882,4.962319558951399,0.04207338548845563,46.520546209917285,3.0333608488522277,3.138814225974927,46.724882583625416,12.830490480880249,74.88390002296906,0.47467816094844145,279.4915250656722,-1.1457944886445273e-7,-0.012628119484251925,0.012914349315906907,57.41145039906662,-0.6079778258236188,1.9379288908648082,3.8599857971192457,3.7222370099976967,1334.2721608774543,5.3603698964773,101048.84241504042,288.00011428913086,47.58376458891816,14.96649843595918,0.0,0.13734331354830087
0.9660000000000007,40.24287256213377,140.0103907418194,23.537547441160694,5.105146165806157,5.10495861116045,0.043760171207151255,47.15086107638726,3.026842941549738,3.159789167538272,47.35345548131491,13.02141042290391,74.87571159847657,0.5050439876899715,279.5229788296983,-1.21912240890379e-7,-0.013190250734829519,0.013387295078827898,57.055078744665074,-0.6371534510490562,1.9042206415676128,3.8339128983235473,3.664856944000578,1370.3483192599665,5.301887105757055,101042.99006614981,287.99694066791125,48.20113843075569,14.774104700313273,0.0,0.13919171024389826
0.9770000000000008,40.242872780821855,140.01038906256827,24.032380934987277,5.249895835930599,5.249698806564683,0.04548327686949194,47.77699395553978,3.020002626901957,3.1803821224304416,47.9778740435511,13.211320800019918,74.86715809780777,0.5364715879863815,279.5555337224942,-1.2950358461835318e-7,-0.013764987323472769,0.013865173503616527,56.61378978701414,-0.6670399575068184,1.8693238618511465,3.8084026774820536,3.6089109159082917,1406.6594791764308,5.2449001151042065,101037.05908979922,287.9937242566076,48.81471497139827,14.587264949683085,0.0,0.1410279263840321
0.9880000000000008,40.24287300277686,140.01038735909373,24.533751856314424,5.396735643498876,5.396528851884463,0.04724358781661253,48.40014201244423,3.012832022115358,3.2005798478846947,48.59932730996323,13.400537310397624,74.85823115462415,0.5689678869723737,279.58919705810547,-1.3735559961475886e-7,-0.014352347147979628,0.014347856365366063,56.70329167466792,-0.6976518523009408,1.8332046419368007,3.783317812261141,3.554232744377925,1443.2666549420298,5.18919011983649,101031.05004559149,287.99046535262204,49.42564734002922,14.405379418652101,0.0,0.14285545722703602
0.9990000000000008,40.24287322801413,140.01038563136228,25.041667271552395,5.545668680449292,5.54545182664185,0.049042346097530665,49.027251356424465,3.005322482839157,3.2203680573968154,49.22473066677952,13.590878091791327,74.84892221121,0.6025393337779711,279.6239756760286,-1.4547029163854472e-7,-0.01495240906320561,0.014835256986094187,57.200315979548314,-0.7290970947869749,1.7957315097619397,3.7580899075850818,3.5002618758079467,1480.578949359787,5.13395497235537,101024.9628601783,287.9871639100384,50.040724507314884,14.226293422008407,0.0,0.14469463061382862
1.0099999999999996,40.24287345656795,140.01038387920673,25.55617654836332,5.696709591438589,5.696482360463598,0.050881097821184995,49.65849993324088,2.9974646584225293,3.2397314375387394,49.85426029724595,13.782395117421432,74.83922275988773,0.6371919360815904,279.6598759566099,-1.5384963025455537e-7,-0.015565310013512485,0.015327326311286282,57.37736552251905,-0.7613898972904238,1.7568655365250718,3.732699419031336,3.446961509531617,1518.6159711595596,5.07915055714036,101018.79695348363,287.98381960800316,50.66011517738145,14.049885875644529,0.0,0.14654596512252524
1.0209999999999984,40.242873688448235,140.01038210263846,26.07727214095384,5.849857606137002,5.849619669679099,0.05276108587128847,50.281721654806795,2.989250005316578,3.2586552909270967,50.475796006312166,13.971911395933443,74.82912398237404,0.6729313502890325,279.6969039403334,-1.624954882955716e-7,-0.016191112646498876,0.015823966820747434,55.96205485259261,-0.7943376898603257,1.716783845273325,3.7080364638636762,3.3951258701861975,1556.639416660577,5.025963884780334,101012.55242766518,287.98043249558043,51.271882962017685,13.879318149523902,0.0,0.1483738339970176
1.0319999999999971,40.242873923624444,140.01038030196085,26.604853566532014,6.0050867413984435,6.004837761584095,0.05468298431044083,50.90163631073889,2.9806714397134098,3.2771263306789806,51.09403623055713,14.160664964117016,74.81861731035085,0.7097625488188217,279.7350649497767,-1.7140967826604492e-7,-0.016829730329762472,0.016324987410700733,56.44369669439699,-0.8280076139864697,1.675398901143416,3.683707169488156,3.3443611288101733,1594.924332111802,4.973834652639484,101006.23049859997,287.9770032259049,51.880637412521104,13.713077807162376,0.0,0.15019204821910165
1.042999999999996,40.24287416211743,140.01037847711194,27.13893621716374,6.162402576093308,6.162142199284303,0.05664826247155075,51.522729578805674,2.9717201293800724,3.2951291103165246,51.7134475705474,14.34983388242622,74.80769389004776,0.7476899598904729,279.7743637722601,-1.8059385441538534e-7,-0.017481231064497456,0.016830296616910063,56.58088924604193,-0.8624761227210281,1.6326085514615833,3.659359956789921,3.294324383888099,1633.7453431719432,4.922268268689399,100999.83099374133,287.9735316989701,52.4907673751466,13.549837866580647,0.0,0.15201373779253818
1.0539999999999947,40.24287440395612,140.01037662797577,27.679552394424682,6.321815363508938,6.321543218527543,0.0586585593590212,52.151087505194816,2.9623868415664862,3.312647483369908,52.34009263578591,14.541018856411771,74.79634509548781,0.7867174515636133,279.8148046027968,-1.9004964769110612e-7,-0.01814569984470758,0.017339813125804012,57.09298865474389,-0.8978580604304025,1.588266731419342,3.634556339550578,3.244606694442318,1673.4926101058186,4.870661633067409,100993.35353808956,287.97001770483723,53.10824132959639,13.387987471194984,0.0,0.15385672462833272
1.0649999999999935,40.24287464917475,140.01037475440214,28.226745043047636,6.483338325167674,6.483054021783723,0.060715642316235385,52.777040383106836,2.9526621093787093,3.3296647479207953,52.96433585409899,14.731690564280026,74.78456188776944,0.826848539953286,279.85639130386835,-1.9977856950016687e-7,-0.018823244033461927,0.0178534688591923,56.47679528808274,-0.9339881221998585,1.5425238183529137,3.609964229977066,3.195788746978217,1713.5589823957798,4.819894886814486,100986.79762932475,287.9664609643687,53.72355975236373,13.229867132567218,0.0,0.15569268510415782
1.0759999999999923,40.242874897759705,140.0103728565814,28.780449001915425,6.646955261102448,6.646658395180747,0.06282054497389478,53.39531287675253,2.942538365845474,3.3461660972738367,53.58091821526869,14.920468404129045,74.77233552870334,0.8680860900416556,279.89912704890133,-2.0978210211023177e-7,-0.019513803781472463,0.018371095124586605,55.732901177738,-0.97075993828632,1.4954743584842987,3.5859103586013754,3.1481336252039087,1753.5945989282468,4.770382826153139,100980.16406058148,287.9628619011598,54.33152672980313,13.07656810136827,0.0,0.15750616002691517
1.086999999999991,40.2428751496933,140.01037093473428,29.34058935420017,6.812647352953376,6.812337506440492,0.06497425680066371,54.01082583036439,2.932008337530971,3.36213685845016,54.19474092588927,15.108647600949258,74.75965695012205,0.9104323437560137,279.9430144014391,-2.2006153702776017e-7,-0.020217287613783944,0.01889250717566489,56.58392764748635,-1.0082552098920665,1.4470117733269476,3.5620267923923272,3.1012928413299137,1793.9065476090373,4.7216157555870275,100973.45374176234,287.95922100217416,54.93696336733818,12.926721623049453,0.0,0.15931155689047982
1.0979999999999899,40.24287540502084,140.0103689886428,29.90722985018736,6.9804337080533205,6.980110439887153,0.06717886204301382,54.63402382480629,2.9210622058771345,3.377559218636888,54.81621174411365,15.298977755542534,74.7465174074548,0.9538888289637276,279.9880551709888,-2.3061811439588565e-7,-0.020933795453121372,0.019417633927627204,55.787687486444696,-1.0466820700680497,1.3968844542245629,3.5376108243881843,3.05464097895144,1835.1853037597568,4.672650170835712,100966.66592170355,287.95553785306464,55.55013114273902,12.777817548004952,0.0,0.16113947102671694
1.1089999999999887,40.24287566374251,140.01036701840633,30.480333640553845,7.1503060057072725,7.149968857178792,0.0694357013853697,55.251424801486095,2.9096920134869673,3.392417201648488,55.4318928476889,15.487920389680903,74.73290788925243,0.998456627075334,280.0342507285193,-2.414529681419854e-7,-0.02166329043181871,0.019946325419256675,56.78135887995437,-1.0857722469883833,1.3453627770811944,3.5135290252882196,3.008912685463637,1876.5381222072115,4.624617637728601,100959.80105451526,287.9518126933649,56.15776655706372,12.632855122035128,0.0,0.16295040069947533
1.1199999999999875,40.242875925895426,140.0103650238715,31.05994352010318,7.322277789647789,7.321926278173934,0.07174681703954078,55.873617012437734,2.8978882876966785,3.4066928535163195,56.05233617592348,15.678266200874962,74.71881943696881,1.044136146788095,280.08160175444726,-2.525671259161178e-7,-0.022405826701397114,0.02047848397760107,55.87226555944559,-1.125741116768806,1.2921854278776534,3.4890848035094084,2.963495088122792,1918.6741628493223,4.57658774693284,100952.8586404581,287.94804524494236,56.77027735337163,12.489359750288752,0.0,0.1647753652738306
1.1309999999999862,40.24287619148424,140.01036300511194,31.646030377151785,7.49634297814736,7.495976601183932,0.07411369996311157,56.49416972491212,2.8856429431116557,3.42036954290218,56.671130886125084,15.868328534907695,74.7042430452983,1.090927238325042,280.1301083609063,-2.6396152910336854e-7,-0.023161356449402915,0.02101395505054825,56.67829541068087,-1.1664539671600154,1.237478216947413,3.4646728377270803,2.9187116669214346,1961.1603140804796,4.529067003439307,100945.83904120313,287.9442356970261,57.38133037767877,12.348669718871578,0.0,0.16659551948704224
1.141999999999985,40.242876460548096,140.0103609619673,32.23863869450213,7.672515739186287,7.67213396799211,0.07653852130100569,57.11963891742591,2.8729464259109223,3.433428672785231,57.29481131546184,16.059841640626864,74.68916970725685,1.1388291016509953,280.1797699963876,-2.756370070899935e-7,-0.02392992392706912,0.02155263582468947,56.75687548822021,-1.2080535789787363,1.1810558581096555,3.43987744390697,2.8742002876958974,2004.4498700613935,4.481501372066904,100938.74173720533,287.94038376053146,57.99737411016446,12.209312320063265,0.0,0.16843007277766373
1.1529999999999838,40.24287673311317,140.01035889436955,32.8377835930206,7.850802264378969,7.850404544956506,0.07902325546444589,57.74391649278604,2.8597897462030275,3.4458520043906584,57.917287448174726,16.25120042612661,74.67359036730178,1.1878403755582279,280.2305855383804,-2.8759430147315174e-7,-0.02471153130788052,0.022094400359805914,56.33477330471584,-1.250406576782902,1.1230429684344405,3.4150596404224247,2.830252333927639,2048.1230276447022,4.434351236804494,100931.56656073817,287.93648933718913,58.61238935032846,12.072505778992674,0.0,0.17026112287405096
1.1639999999999826,40.2428770091752,140.01035680246068,33.443413820559805,8.03119058124572,8.030776338441404,0.08156932155943664,58.36021132844053,2.8461654599336046,3.45762286733358,58.531786919743574,16.44061465725512,74.65749597934554,1.2379590251233286,280.28255317682505,-2.9983404187576367e-7,-0.025506068998968217,0.02263906328615229,55.79089019062122,-1.2933468651285502,1.0636080588900456,3.3905958662429567,2.787162493799309,2091.692839034777,4.388091108505927,100924.31413902195,287.93255276013315,59.21967645992559,11.939501256235955,0.0,0.17206876095966187
1.1749999999999814,40.242877288729666,140.01035468638665,34.055476751891064,8.213668384288798,8.213237021060623,0.08417816192207295,58.977211456683854,2.8320662743236844,3.46872456983449,59.146970511852395,16.63038591114961,74.64087756970054,1.2891822280955036,280.3356702961756,-3.123567172012823e-7,-0.026313401030873776,0.023186427356592015,56.18749401233876,-1.3370623411669191,1.002517043652055,3.3659541681332836,2.7444772070234946,2135.7667228822006,4.3420196074415145,100916.98511582479,287.9285743714796,59.82778719566633,11.80843040305154,0.0,0.17387844754858095
1.1859999999999802,40.24287757181331,140.0103525460165,34.67400658226881,8.398247334892396,8.39779822423017,0.08685207622080537,59.5965741052422,2.8174830009640095,3.4791378926500345,59.76448992519237,16.820959251428093,74.62372618955469,1.3415064681508104,280.38993357188247,-3.2516269286673457e-7,-0.027133523526382982,0.023736366957847546,55.691348100959104,-1.3815913475118815,0.9397002536529071,3.3410297786711323,2.702101874175764,2180.466562754137,4.2959929996609025,100909.57909534189,287.9245539489899,60.438350871101875,11.6789102394102,0.0,0.17569503879865167
1.196999999999979,40.242877858425025,140.0103503814763,35.2989565789243,8.584916856644439,8.58444934740782,0.08959261848676925,60.20807263139295,2.802408405263649,3.4888456891097523,60.374146346755076,17.009630128483966,74.60603289639951,1.3949275713560254,280.4453390085349,-3.3825222623006424e-7,-0.027966305086767784,0.024288691148124576,55.74161213345429,-1.4266751508009865,0.8754367994453723,3.3163799739663675,2.6604746953791167,2225.0456525406175,4.250716907429373,100902.09665087784,287.9204917964317,61.041277403896125,11.552806995470673,0.0,0.17748855258107352
1.2079999999999778,40.242878148581376,140.0103481927765,35.9303160426318,8.773676388553975,8.773189801200378,0.09240174881036545,60.823253704209066,2.786834507447457,3.4978297047545404,60.98745322098591,17.199466011676556,74.58778883100354,1.449440573522781,280.5018818019923,-3.5162543060969037e-7,-0.02881164125170194,0.024843224389306844,55.53638052344501,-1.472588693494266,0.8093847116458801,3.2913462038661176,2.619054694243305,2270.3435038968914,4.2053370176029805,100894.5379243947,287.9163879833755,61.647947657500694,11.4278495658948,0.0,0.17929283636296556
1.2189999999999765,40.24287844229845,140.01034597993274,36.56807248291344,8.964524928090556,8.964018553798502,0.09528144369807645,61.433885509367265,2.7707534747739495,3.5060715870157684,61.596200382566586,17.38828730543705,74.56898516063383,1.5050398265154337,280.5595564496332,-3.6528230046840274e-7,-0.02966943139731737,0.02539979511163437,55.267058329765504,-1.5191163410946462,0.7417745339335136,3.2663640292520637,2.5781795855321503,2315.75072862978,4.160401480394998,100886.90307937353,287.9122425910166,62.25023615673515,11.305489681138226,0.0,0.18108375406479923
1.2299999999999753,40.24287873958564,140.01034374300752,37.21219847982074,9.157457422649559,9.156930523590091,0.09823356749909551,62.04504996012453,2.7541579469694466,3.513553338757373,62.205455288226105,17.577450463220018,74.54961312787134,1.5617189199989017,280.6183566691114,-3.792226937282626e-7,-0.03053952768429306,0.025958209411510325,55.61767481496483,-1.5663772336155626,0.6724447770484424,3.241144915333982,2.537610688363261,2361.6418219913617,4.115533648529553,100879.19245824008,287.90805579766226,62.85315161243307,11.184722895104551,0.0,0.18287620341430563
1.2409999999999741,40.2428790404697,140.01034148195131,37.862701437225944,9.352478529173908,9.351930333871588,0.10126040228733246,62.653779593949096,2.737039816646037,3.520255783067043,62.81225744345824,17.76617108530524,74.52966403279873,1.6194707192048992,280.67827543729084,-3.934463367572956e-7,-0.031421834263741934,0.02651830099383836,54.96155826428232,-1.6142838144241305,0.6014771441339655,3.215830880193656,2.497450443484993,2407.7907645144955,4.070905940895853,100871.40598645252,287.90382755515805,63.453760212798066,11.066005794967223,0.0,0.18466148130267201
1.251999999999973,40.24287934496418,140.01033919680395,38.51956058383948,9.549585171463516,9.549014876379292,0.10436396755026123,63.26765265922513,2.7193917195541566,3.5261604303865024,63.42416551846433,17.95647735662255,74.50912924857096,1.6782873468626682,280.7393049714748,-4.0795282275548765e-7,-0.03231618864838284,0.02707987203997562,55.978249808464504,-1.6630327376511445,0.5286130650905896,3.190023646146978,2.457382703569989,2454.7770460765455,4.026007801096091,100863.54392700554,287.89955799856966,64.05954083283426,10.947976648230213,0.0,0.18646180978058255
1.2629999999999717,40.24287965312353,140.01033688734148,39.182837160600386,9.748797136369394,9.74820389559098,0.10754727364724603,63.88039182459669,2.701204266653321,3.5312459664539224,64.03491752340892,18.146701208065085,74.48800018977728,1.7381602415054787,280.80143678950026,-4.2274161766005453e-7,-0.033222563608524464,0.027642791334822343,55.23316685712088,-1.7124483394562457,0.45403791932849197,3.164034765173245,2.4176425390036127,2502.1224550251413,3.9812269431624823,100855.60556137745,287.8952467298506,64.66429201831396,10.83166879527302,0.0,0.18825877983020026
1.2739999999999705,40.242879964943356,140.01033455372476,39.852472186423626,9.950100876880729,9.949483814059322,0.11081197531959619,64.48865070849811,2.682471378551321,3.535494976929242,64.64117455330863,18.335954476002104,74.46626833684633,1.7990801255036053,280.86466167680385,-4.378120634148942e-7,-0.03414071885367577,0.028206826843895996,55.30343115301159,-1.7624194337293813,0.3778687576777217,3.138015066635623,2.3783360386607897,2549.560872291231,3.9367452728906627,100847.59161013781,287.89089413241186,65.26470292302965,10.717562022600793,0.0,0.1900425753880086
1.2849999999999693,40.242880280452404,140.0103321959034,40.52847222508746,10.15350116212714,10.15285936153122,0.11416056361578453,65.10239146324238,2.6631853311802742,3.538887765128494,65.25287470261861,18.52690966893165,74.44392530239095,1.861036910619249,280.9289695877696,-4.531633438004985e-7,-0.03507049790536239,0.028771788076635677,55.802926951035005,-1.8132209235318855,0.2997463418058293,3.1114674621030263,2.3390796803778686,2597.8734728047766,3.8919331253429026,100839.50200942135,287.88650016359844,65.87061299969542,10.603975990238053,0.0,0.19184241439389657
1.295999999999968,40.24288059970122,140.01032981368994,41.21088613525044,10.359014651926023,10.358347151697041,0.11759610430551781,65.71767765972129,2.6433372663622103,3.541402892375152,65.86609084602557,18.71852155657864,74.42096275440623,1.9240198283478533,280.994349780782,-4.687945138486156e-7,-0.03601181492905154,0.029337518439153148,55.51648020395072,-1.8647347765794036,0.21978914479629133,3.084579040159731,2.300011294609467,2646.756548059568,3.8470206025974436,100831.3361894897,287.8820645058708,66.47813116609773,10.491525152826865,0.0,0.19364675193563413
1.3069999999999669,40.24288092270126,140.01032740714987,41.89968391222748,10.566636085490039,10.565941885734773,0.12112072678031183,66.3273097785942,2.6229207307260625,3.5430217243204263,66.47363942619869,18.908864755420538,74.39737244287524,1.9880173980615972,281.0607907851462,-4.847044987901401e-7,-0.0369644423471301,0.029903797279616336,55.062080170317316,-1.9167300707675259,0.1382646110123917,3.0576762686675942,2.261367261105433,2695.6306598681076,3.8024084432259997,100823.09452446495,287.87758735428406,67.080136691604,10.381278272918147,0.0,0.19543446857225777
1.3179999999999656,40.24288124945835,140.01032497638602,42.594823792870386,10.776356974492987,10.775635037551533,0.12473643892379283,66.93799394972265,2.6019298074159303,3.5437261320654745,67.08221126077247,19.099747101137456,74.37314628138039,2.053017318233626,281.1282802876831,-5.008920628555422e-7,-0.03792810630912714,0.030470385218149015,55.9730547079593,-1.969390832994995,0.05492507158962908,3.030434152276755,2.2228993265353947,2745.0306817805554,3.7576859316012103,100814.7775291706,287.8730689803107,67.6832554450132,10.272133059229368,0.0,0.19722523556658367
1.3289999999999644,40.24288158003084,140.01032252117295,43.29636532094139,10.988197306087862,10.98744654107885,0.1284466599448053,67.55129820739218,2.5803557075805847,3.5434940105834367,67.69337098183773,19.291597907910795,74.34827630408205,2.119006545181947,281.19680521385175,-5.173558171860877e-7,-0.038902694485930714,0.031037116863487552,54.66101768368454,-2.0227570598314544,-0.030305134087927524,3.0027748182764737,2.1845465197174354,2795.0878870664615,3.712752306009407,100806.38450652342,287.8685089969619,68.2890362714595,10.163821578379157,0.0,0.19902365364673114
1.3399999999999632,40.24288191440695,140.01032004172694,44.00423124250128,11.202138760893714,11.201358041347207,0.13225296920525542,68.15797424828087,2.5581939496983592,3.542308814791486,68.29788987701554,19.48193346487833,74.32275467163848,2.185971314028122,281.2663517496228,-5.340942396286048e-7,-0.03988767138078496,0.0316037163140249,55.55689706125336,-2.07651281613819,-0.11695062977290342,2.975101670849563,2.1465965026995337,2845.038937878917,3.668100878307007,100797.91639616223,287.8639079064011,68.88832819609532,10.057662692251409,0.0,0.2008025898775512
1.350999999999962,40.242882252632135,140.01031753791003,44.71845335173606,11.418193761773342,11.41738190812524,0.13615853044938175,68.7695824801854,2.535437029345856,3.540151796857862,68.90730433106202,19.673880469492502,74.29657432027626,2.2538970235008025,281.336905220802,-5.511056504600961e-7,-0.040881084182618065,0.03216990552733607,55.18366256253851,-2.1310052280383878,-0.20534118938079815,2.9468968712742423,2.1086681836571186,2895.83861954151,3.623087190032817,100789.37283325092,287.8592655020035,69.49256499924002,9.951920976070552,0.0,0.20259596263861143
