time_sec,lat_deg,lon_deg,alt_agl_m,down_range_m,local_x_m,local_y_m,u_mps,v_mps,w_mps,true_airspeed_mps,ground_speed_mps,pitch_deg,roll_deg,yaw_deg,p_rad_sec,q_rad_sec,r_rad_sec,ax_mps2,ay_mps2,az_mps2,alpha_deg,beta_deg,qbar_pa,total_aoa_deg,pressure_pa,temperature_k,gust_airspeed_mps,gust_aoa_deg,thrust_n,mach
0.001,40.242865,140.01045,5.3,0.0,0.0,0.0,0.0,0.0,0.0,0.6033721946635292,0.0,75.0,0.0,279.0,0.0,0.0,0.0,-9.44300554473819,0.0,0.0,0.0,0.0,0.22287209531948396,0.0,101261.34657293449,288.1155500287229,0.0,0.0,0.622109,0.0017731969632693407
0.012000000000000004,40.242865,140.01045,5.3,0.0,0.0,0.0,0.0,0.0,0.0,0.6033721946635292,0.0,75.0,0.0,279.0,0.0,0.0,0.0,-9.3812737493459,0.0,0.0,0.0,0.0,0.22287209531948396,0.0,101261.34657293449,288.1155500287229,0.0,0.0,1.9285387000000034,0.0017731969632693407
0.023000000000000013,40.242865,140.01045,5.3,0.0,0.0,0.0,0.0,0.0,0.0,0.6033721946635292,0.0,75.0,0.0,279.0,0.0,0.0,0.0,-7.802699998206317,0.0,0.0,0.0,0.0,0.22287209531948396,0.0,101261.34657293449,288.1155500287229,0.0,0.0,35.335811600000135,0.0017731969632693407
0.03400000000000002,40.242865,140.01045,5.3,0.0,0.0,0.0,0.0,0.0,0.0,0.6033721946635292,0.0,75.0,0.0,279.0,0.0,0.0,0.0,-3.2344076189091227,0.0,0.0,0.0,0.0,0.22287209531948396,0.0,101261.34657293449,288.1155500287229,0.0,0.0,132.01160700000008,0.0017731969632693407
0.04500000000000003,40.242865,140.01045,5.3,0.0,0.0,0.0,0.0,0.0,0.0,0.6033721946635292,0.0,75.0,0.0,279.0,0.0,0.0,0.0,-1.0763852097167268,0.0,0.0,0.0,0.0,0.22287209531948396,0.0,101261.34657293449,288.1155500287229,0.0,0.0,177.67443240000017,0.0017731969632693407
0.05600000000000004,40.242865000006134,140.01044999994926,5.30001628921902,4.36455335582646e-6,4.364553352922492e-6,-1.5921385235207597e-10,0.006722836494021434,0.0,0.0,0.5966493581695078,0.001739998121763006,75.0,0.0,279.0,0.0,0.0,0.0,1.6699123999865308,0.0,0.0,0.0,0.0,0.2179332352064504,0.0,101261.34644563656,288.11554995981027,0.0,0.0,235.7794415000002,0.0017534398162966048
0.06700000000000005,40.24286500009269,140.01044999923332,5.300246160158585,0.00006595773486504496,0.00006595773486480966,1.761843871563338e-10,0.04222460098839398,0.0,0.0,0.5611475936751352,0.010928530907651083,75.0,0.0,279.0,0.0,0.0,0.0,4.716553267529716,0.0,0.0,0.0,0.0,0.19276993992320918,0.0,101261.34407965073,288.11554867898553,0.0,0.0,300.2299804000003,0.0016491068368442558
0.07800000000000006,40.242865000395895,140.01044999672536,5.301051391621285,0.00028171948408668875,0.0002817194840866881,-1.9155767378949747e-11,0.11665913472308864,0.0,0.0,0.48671305994044056,0.030193605851516123,75.0,0.0,279.0,0.0,0.0,0.0,8.64008819926586,0.0,0.0,0.0,0.0,0.14502105864893752,0.0,101261.3352517557,288.11554390001055,0.0,0.0,383.2193662000004,0.0014303578068100118
0.08900000000000007,40.24286500108096,140.01044999105886,5.302870743728521,0.000769212368416068,0.0007692123684160583,1.2195891249211586e-10,0.23016521981612803,0.0,0.0,0.3732069748474012,0.05957114240862204,75.0,0.0,279.0,0.0,0.0,0.0,11.341347492225353,0.0,0.0,0.0,0.0,0.08526769116102272,0.0,101261.31470753731,288.11553277841045,0.0,0.0,440.3289920000003,0.0010967848703243833
0.10000000000000007,40.24286500227047,140.01044998121978,5.306029782707464,0.0016156764973443867,0.0016156764973443824,-1.1968778664559268e-10,0.3688025204200618,0.0,0.0,0.23456967424346742,0.0954531161665233,75.0,0.0,279.0,0.0,0.0,0.0,13.69050195595354,0.0,0.0,0.0,0.0,0.03368438352084176,0.0,101261.2783712,288.11551310775207,0.0,0.0,489.97332480000034,0.0006893560299477166
0.11100000000000008,40.24286500407429,140.01044996629946,5.310820273243706,0.0028992831496920573,0.002899283149692051,-1.928147053370348e-10,0.5392797965370417,0.0,0.0,0.06409239812648748,0.1395758819827988,75.0,0.0,279.0,0.0,0.0,0.0,17.087653527321287,0.0,0.0,0.0,0.0,0.0025147668371432886,0.0,101261.22280922654,288.1154830292939,0.0,0.0,561.7647710000007,0.000188355479330673
0.1220000000000001,40.24286500664251,140.01044994505642,5.317640802296473,0.0047268386265054965,0.004726838626505491,2.242296066705396e-10,0.7519316825042721,0.0,0.0,0.1485594878407429,0.1946142400480875,75.0,0.0,279.0,0.0,0.0,0.0,21.048097701901508,0.0,0.0,0.0,0.0,0.013510928389269452,0.0,101261.14335848129,288.1154400186328,0.0,0.0,645.4384274000004,0.00043658837003966754
0.1330000000000001,40.24286501013173,140.0104499161953,5.326907278167033,0.007209782599959674,0.007209782599959666,3.6060044858975127e-10,0.9963667948481716,0.0,0.0,0.3929946001846424,0.2578787024144629,75.0,0.0,279.0,0.0,0.0,0.0,23.327238116892005,0.0,0.0,0.0,0.0,0.09454905549826931,0.0,101261.03491770317,288.1153813141733,0.0,0.0,693.5275024000005,0.0011549372706010658
0.1440000000000001,40.242865014657404,140.01044987876114,5.338926314887031,0.010430274284985787,0.010430274284985785,1.962666559222198e-10,1.2726146452864915,0.0,0.0,0.6692424506229623,0.32937690727653285,75.0,0.0,279.0,0.0,0.0,0.0,27.055365041666235,0.0,0.0,0.0,0.0,0.27418929827194566,0.0,101260.8937876521,288.1153049132863,0.0,0.0,772.224341100001,0.001966778045832784
0.1550000000000001,40.24286502039029,140.0104498313415,5.354151396432651,0.014509822644938341,0.01450982264493834,1.9976612681757433e-10,1.602863028013611,0.0,0.0,0.9994908333500817,0.41485147834061775,75.0,0.0,279.0,0.0,0.0,0.0,32.35151492221365,0.0,0.0,0.0,0.0,0.6115620778879762,0.0,101260.71478011737,288.1152080072636,0.0,0.0,884.017419400001,0.0029373165984964977
0.16600000000000012,40.24286502755595,140.01044977207064,5.373181568190188,0.019608941402057396,0.0196089414020574,-8.906827098781323e-11,1.988367835834492,0.0,0.0,1.384995641170963,0.5146274645832489,75.0,0.0,279.0,0.0,0.0,0.0,37.36528436500704,0.0,0.0,0.0,0.0,1.174299705158246,0.0,101260.49072786041,288.1150867160111,0.0,0.0,989.7759705000011,0.004070243974458729
0.17700000000000013,40.24286503637015,140.01044969916396,5.396589812790419,0.025881161215822318,0.02588116121582231,5.305793200627296e-10,2.422197762706542,0.0,0.0,1.818825568043013,0.6269109119931694,75.0,0.0,279.0,0.0,0.0,0.0,40.173851907097216,0.0,0.0,0.0,0.0,2.025178374768525,0.0,101260.21468213772,288.11493727766646,0.0,0.0,1048.8763184000002,0.005345190633636632
0.18800000000000014,40.24286504695153,140.01044961163987,5.424691273411595,0.03341092711829157,0.03341092711829157,-4.2556330681620125e-10,2.868712004721648,0.0,0.0,2.265339810058119,0.7424773017361949,75.0,0.0,279.0,0.0,0.0,0.0,40.91341130756296,0.0,0.0,0.0,0.0,3.141569995672822,0.0,101259.88244526724,288.1147574196044,0.0,0.0,1064.2424437000002,0.006657415162260604
0.19900000000000015,40.242865059339756,140.01044950917054,5.45759123747943,0.04222644429483813,0.042226444294838135,2.49411958100354e-11,3.327689074006,0.0,0.0,2.724316879342471,0.8612693085323243,75.0,0.0,279.0,0.0,0.0,0.0,42.66697082132768,0.0,0.0,0.0,0.0,4.543535389756211,0.0,101259.49273308285,288.1145464463898,0.0,0.0,1101.0091062000006,0.008006266900544278
0.21000000000000016,40.24286507360374,140.0104493911859,5.495472722381993,0.05237675718144137,0.05237675718144137,4.765237700959934e-10,3.804370904141114,0.0,0.0,3.200998709477585,0.9846436446256166,75.0,0.0,279.0,0.0,0.0,0.0,43.7056364473621,0.0,0.0,0.0,0.0,6.272607462532749,0.0,101259.04341949128,288.1143032067515,0.0,0.0,1122.6585446000001,0.009407151212439279
0.22100000000000017,40.242865089802216,140.01044925719995,5.538491752994747,0.06390367264532616,0.06390367264532615,-1.488829077384013e-10,4.2973403680972515,0.0,0.0,3.6939681734337224,1.1122335305514457,75.0,0.0,279.0,0.0,0.0,0.0,45.85343397077985,0.0,0.0,0.0,0.0,8.35336843529756,0.0,101258.53260477405,288.1140266719073,0.0,0.0,1167.699219,0.01085590373876368
0.23200000000000018,40.24286510800672,140.01044910662122,5.586838261285491,0.07685807930061901,0.07685807930061901,1.610835336646188e-10,4.8036987881244135,0.0,0.0,4.200326593460884,1.243288733302497,75.0,0.0,279.0,0.0,0.0,0.0,46.292463757899355,0.0,0.0,0.0,0.0,10.800390610842253,0.0,101257.95799195592,288.1137155979496,0.0,0.0,1176.6576052000005,0.012344006132478637
0.2430000000000002,40.242865128258885,140.0104489391052,5.640622842746015,0.09126961451937664,0.09126961451937664,1.8410560749526628e-10,5.323381915040797,0.0,0.0,4.720009720377268,1.3777926239668874,75.0,0.0,279.0,0.0,0.0,0.0,47.97063943480127,0.0,0.0,0.0,0.0,13.63819534961889,0.0,101257.31823620111,288.1133692563528,0.0,0.0,1211.7445558000004,0.01387126992551427
0.25400000000000017,40.242865150622976,140.01044875412035,5.700016165660989,0.10718400734020142,0.10718400734020142,-1.2223926731946833e-10,5.858408342926742,0.0,0.0,5.255036148263213,1.5162676531369401,75.0,0.0,279.0,0.0,0.0,0.0,49.083564139498186,0.0,0.0,0.0,0.0,16.905190976159666,0.0,101256.61132324771,288.11298655611523,0.0,0.0,1234.8870607000001,0.015443627791424832
0.2650000000000002,40.24286517514742,140.0104485512661,5.765146831619001,0.12463571724759742,0.12463571724759744,-1.323356355054095e-10,6.402907824928338,0.0,0.0,5.799535630264809,1.6571944891274104,75.0,0.0,279.0,0.0,0.0,0.0,49.98473657634682,0.0,0.0,0.0,0.0,20.589813536451416,0.0,101255.83564005593,288.1125666233638,0.0,0.0,1253.5503176000004,0.0170438285070544
0.2760000000000002,40.242865201875176,140.0104483301872,5.8361289169897645,0.1436553109200888,0.1436553109200888,-1.0224209326392675e-10,6.960497099134617,0.0,0.0,6.357124904471088,1.8015092126368872,75.0,0.0,279.0,0.0,0.0,0.0,51.25560485270283,0.0,0.0,0.0,0.0,24.739135730573796,0.0,101254.98985683605,288.1121087374883,0.0,0.0,1279.9899900000005,0.01868250144069944
0.2870000000000002,40.24286523086012,140.01044809043793,5.913105514588018,0.16428112822611418,0.1642811282261142,2.394610169875744e-10,7.530503644899607,0.0,0.0,6.927131450236078,1.949037762513968,75.0,0.0,279.0,0.0,0.0,0.0,52.15532029350642,0.0,0.0,0.0,0.0,29.374244491085758,0.0,101254.0722534941,288.11161196649283,0.0,0.0,1298.5910644000003,0.020357670616090784
0.2980000000000002,40.242865262140896,140.01044783169863,5.996179275991772,0.18654067445809291,0.1865406744580929,2.0837057079781118e-10,8.107522203331962,0.0,0.0,7.504150008668433,2.0983811548138633,75.0,0.0,279.0,0.0,0.0,0.0,52.665687700268876,0.0,0.0,0.0,0.0,34.471439584856775,0.0,101253.08153657928,288.11107560926644,0.0,0.0,1308.9802734000002,0.0220534513348998
0.3090000000000002,40.24286529574258,140.01044755376188,6.0854167772433945,0.2104517918476864,0.21045179184768642,9.189406180443171e-12,8.691716691065174,0.0,0.0,8.088344496401644,2.24958181428313,75.0,0.0,279.0,0.0,0.0,0.0,53.6018561983345,0.0,0.0,0.0,0.0,40.04718459028604,0.0,101252.01690568996,288.11049923153894,0.0,0.0,1328.3278812000005,0.023770325746365225
0.32000000000000023,40.2428653317057,140.01044725629257,6.180925633107586,0.23604331118843352,0.23604331118843352,4.3844310820828625e-10,9.288207874744746,0.0,0.0,8.684835680081216,2.403965092855149,75.0,0.0,279.0,0.0,0.0,0.0,54.751546961800805,0.0,0.0,0.0,0.0,46.17128504339983,0.0,101250.87713131262,288.1098821666363,0.0,0.0,1352.1546507000005,0.025523343415430423
0.33100000000000024,40.24286537007263,140.01044693894008,6.282818399170978,0.2633453955598858,0.2633453955598858,2.9646814864170423e-10,9.891070861605687,0.0,0.0,9.287698666942157,2.5599975154421513,75.0,0.0,279.0,0.0,0.0,0.0,54.75477082142579,0.0,0.0,0.0,0.0,52.803262769130924,0.0,101249.66080335497,288.109223650022,0.0,0.0,1351.8436280000005,0.0272950925334223
0.34200000000000025,40.24286541086047,140.01044660156296,6.391140495418914,0.29237021445400124,0.29237021445400124,-2.7197689239644163e-10,10.500898081962394,0.0,0.0,9.897525887298864,2.717832414292398,75.0,0.0,279.0,0.0,0.0,0.0,56.009040401265025,0.0,0.0,0.0,0.0,59.96437700636576,0.0,101248.36737172569,288.10852338266403,0.0,0.0,1377.8477786000005,0.029087314624108514
0.35300000000000026,40.242865454115545,140.0104462437781,6.506014937154991,0.32315072853583166,0.3231507285358316,-2.979062690977585e-10,11.123906755596593,0.0,0.0,10.520534560933063,2.87907892429299,75.0,0.0,279.0,0.0,0.0,0.0,56.850061114025344,0.0,0.0,0.0,0.0,67.75024701661074,0.0,101246.99544369729,288.10778060922826,0.0,0.0,1395.1424069999994,0.03091828167371138
0.36400000000000027,40.242865499863164,140.0104458653762,6.627508921010357,0.3557049414255843,0.3557049414255843,4.885764778861379e-10,11.743935836985512,0.0,0.0,11.140563642321982,3.039554259073863,75.0,0.0,279.0,0.0,0.0,0.0,56.2352522934596,0.0,0.0,0.0,0.0,75.97042480027655,0.0,101245.54403376863,288.1069947947477,0.0,0.0,1381.8293092000004,0.032740499300982946
0.3750000000000003,40.24286554809012,140.01044546646636,6.75558740878725,0.39002346841826524,0.39002346841826524,5.326261029447998e-10,12.365486419476275,0.0,0.0,11.762114224812745,3.200423387317038,75.0,0.0,279.0,0.0,0.0,0.0,56.75672220181798,0.0,0.0,0.0,0.0,84.68289496433643,0.0,101244.0136025293,288.10616618709804,0.0,0.0,1392.4051754000002,0.03456719594258003
0.3860000000000003,40.24286559881562,140.01044504688983,6.890301379449929,0.42611996815772823,0.42611996815772823,3.659893638152667e-10,12.992416410119125,0.0,0.0,12.389044215455595,3.3626848088413523,75.0,0.0,279.0,0.0,0.0,0.0,57.02080809046731,0.0,0.0,0.0,0.0,93.94959767176925,0.0,101242.40359369596,288.1052944835188,0.0,0.0,1397.5686644999998,0.036409709906194423
0.3970000000000003,40.24286565205095,140.01044460655314,7.03168083753224,0.4640024802626362,0.4640024802626362,-3.875309795287052e-11,13.62051888754503,0.0,0.0,13.0171466928815,3.5252496922752528,75.0,0.0,279.0,0.0,0.0,0.0,57.373769086094406,0.0,0.0,0.0,0.0,103.71582986735763,0.0,101240.71359935729,288.10437946148613,0.0,0.0,1404.5985106000005,0.03825567810451889
0.4080000000000003,40.24286570781106,140.01044414533277,7.179765445931556,0.5036816314805229,0.5036816314805229,3.569027712257977e-10,14.253831851574468,0.0,0.0,13.650459656910938,3.689163148876399,75.0,0.0,279.0,0.0,0.0,0.0,57.540176977072896,0.0,0.0,0.0,0.0,114.05172296889805,0.0,101238.94319504107,288.10342088941485,0.0,0.0,1407.7090328,0.040116968155379316
0.4190000000000003,40.24286576610795,140.01044366312942,7.334587086828638,0.5451659649285321,0.5451659649285321,2.60761079395877e-10,14.890617807678158,0.0,0.0,14.287245613014628,3.8539754819698517,75.0,0.0,279.0,0.0,0.0,0.0,58.45363764274798,0.0,0.0,0.0,0.0,124.93896101130751,0.0,101237.09197587977,288.1024185462377,0.0,0.0,1426.4967530000008,0.04198847428866929
0.4300000000000003,40.24286582697196,140.0104431596921,7.496226349678482,0.5884770738293148,0.5884770738293149,7.971870386036528e-10,15.534474679310275,0.0,0.0,14.931102484646745,4.020617902668373,75.0,0.0,279.0,0.0,0.0,0.0,58.36234430419972,0.0,0.0,0.0,0.0,136.45137200113936,0.0,101235.15902991618,288.1013719362196,0.0,0.0,1424.1949702999998,0.04388077089989963
0.44100000000000034,40.242865890407955,140.0104426349805,7.664696174733321,0.6336184251757441,0.6336184251757441,6.176301969862408e-10,16.17745060292556,0.0,0.0,15.57407840826203,4.187032317242392,75.0,0.0,279.0,0.0,0.0,0.0,58.57927108261225,0.0,0.0,0.0,0.0,148.45398783413725,0.0,101233.14410579948,288.1002809212084,0.0,0.0,1428.3630369999998,0.04577048890459808
0.45200000000000035,40.242865956418434,140.01044208897406,7.840003152910398,0.6805917893548346,0.6805917893548347,4.1241089709931344e-10,16.82050969276229,0.0,0.0,16.21713749809876,4.35346825681843,75.0,0.0,279.0,0.0,0.0,0.0,58.31835055456564,0.0,0.0,0.0,0.0,160.96381916711192,0.0,101231.04714412575,288.0991454668911,0.0,0.0,1422.5152345999995,0.04766046215827644
0.46300000000000036,40.24286602499147,140.0104415217714,8.022115631459332,0.7293886793392872,0.7293886793392872,5.98287627773253e-10,17.457967830986487,0.0,0.0,16.85459563632296,4.518454563446448,75.0,0.0,279.0,0.0,0.0,0.0,57.92035092674412,0.0,0.0,0.0,0.0,173.8637237421046,0.0,101228.8684611117,288.09796574225993,0.0,0.0,1413.805688800001,0.049533986026316625
0.47400000000000037,40.24286609612238,140.01044093341133,8.2110211467849,0.7800057599021532,0.780005759902153,8.741097567988021e-10,18.101449428246323,0.0,0.0,17.498077233582794,4.6849998559902835,75.0,0.0,279.0,0.0,0.0,0.0,58.58216181995167,0.0,0.0,0.0,0.0,187.38943773860518,0.0,101226.60833849636,288.09674189756214,0.0,0.0,1427.3055179999994,0.051425223889468026
0.4850000000000004,40.242866169825135,140.01044032377814,8.406756849372591,0.8324529827409177,0.8324529827409177,1.0834680930216223e-9,18.741430767926204,0.0,0.0,18.138058573262676,4.850639215209662,75.0,0.0,279.0,0.0,0.0,0.0,58.11527875937142,0.0,0.0,0.0,0.0,201.34363887792603,0.0,101224.2662370441,288.09547363840363,0.0,0.0,1417.1650636000002,0.05330618694210755
0.4960000000000004,40.24286624608747,140.01043969297334,8.609290153413927,0.8867216162341598,0.8867216162341598,1.142250016794577e-9,19.38182594392324,0.0,0.0,18.77845374925971,5.016385683149475,75.0,0.0,279.0,0.0,0.0,0.0,58.14711554499574,0.0,0.0,0.0,0.0,215.80800540872804,0.0,101221.8425884604,288.0941611960656,0.0,0.0,1417.4761349999997,0.055188378739235294
0.5070000000000003,40.2428663249079,140.01043904100928,8.818617081359784,0.9428105967837187,0.9428105967837187,1.3331081238909803e-9,20.01988627594936,0.0,0.0,19.416514081285833,5.181527849002274,75.0,0.0,279.0,0.0,0.0,0.0,57.946842361909596,0.0,0.0,0.0,0.0,230.7181250595433,0.0,101219.33741761645,288.09280458144707,0.0,0.0,1412.9347652,0.05706372154992703
0.5180000000000003,40.24286640628106,140.0104383679303,9.034723408111065,1.0007161100109343,1.0007161100109343,1.966847379408776e-9,20.65964256542851,0.0,0.0,20.05627037076498,5.347108960943599,75.0,0.0,279.0,0.0,0.0,0.0,58.572941411557515,0.0,0.0,0.0,0.0,246.16740891693428,0.0,101216.75094076806,288.09140390900427,0.0,0.0,1425.6880127000006,0.05894406200624979
0.5290000000000004,40.24286649023042,140.0104376735422,9.257671475248081,1.0604548633972124,1.0604548633972124,1.986893927163891e-9,21.306382720492973,0.0,0.0,20.703010525829445,5.514497630306839,75.0,0.0,279.0,0.0,0.0,0.0,58.771041255702166,0.0,0.0,0.0,0.0,262.2937473626336,0.0,101214.08248330491,288.0899588106648,0.0,0.0,1429.4829097999998,0.060844941468764756
0.5400000000000004,40.24286657676098,140.01043695780365,9.487474558991575,1.1220304146645417,1.1220304146645417,1.6912596600970886e-9,21.94789269655103,0.0,0.0,21.3445205018875,5.680532629733927,75.0,0.0,279.0,0.0,0.0,0.0,57.799484180417,0.0,0.0,0.0,0.0,278.7944862992557,0.0,101211.33175385253,288.0884691257854,0.0,0.0,1408.8288325999993,0.06273046409118924
0.5510000000000004,40.24286666584041,140.0104362209822,9.724046764201981,1.1854197430387585,1.1854197430387585,2.6253631213446482e-9,22.582602889581413,0.0,0.0,21.979230694917884,5.844807715810886,75.0,0.0,279.0,0.0,0.0,0.0,57.708038288964275,0.0,0.0,0.0,0.0,295.6150287527368,0.0,101208.49975869196,288.0869353964028,0.0,0.0,1406.5892330000001,0.06459601713248028
0.5620000000000004,40.242866757463105,140.01043546312403,9.967373250444316,1.2506188772739109,1.2506188772739106,2.717055219703113e-9,23.220033314025823,0.0,0.0,22.616661119362295,6.009786849584883,75.0,0.0,279.0,0.0,0.0,0.0,58.14343729628869,0.0,0.0,0.0,0.0,313.0029237887732,0.0,101205.58679388837,288.08535777986975,0.0,0.0,1415.3609621,0.06646957983401547
0.5700000000000004,40.242866825704304,140.01043489866618,10.148604448676153,1.299179629550562,1.299179629550562,2.9795931000276e-9,23.686411250928668,0.0,0.0,23.0830447586861,6.130494341870961,75.0,0.0,279.0,0.0,0.0,0.0,58.41687762631038,0.0,0.0,0.0,0.0,326.03938189668213,0.0,101203.41714552823,288.0841827080952,0.0,0.0,1420.8355709000002,0.06784040347433341
0.5810000000000004,40.24286692953644,140.01043410253055,10.403272204004038,1.367804087870868,1.3678038338448728,0.0008336159335785853,24.899155208300588,3.1194181275160373,2.2795027445184135,25.197119523937353,6.3150414683532885,74.99995365360667,0.0002295973835578828,279.0002371804958,-5.570588184933582e-11,-0.00018331686001650836,0.00023961317079927597,58.49587695565136,-0.0260664347797642,2.5194396175787643,5.230813153937683,7.111496337776199,388.4876683063845,8.820094008299987,101200.5183072072,288.0823134697656,26.75621109767945,26.348060560589758,0.0,0.07405395032235247
0.5920000000000004,40.24286703654799,140.01043328158215,10.664713246873221,1.4385668180062132,1.438565828862514,0.0016869788466815916,25.540985387363317,3.1193101552301603,2.3071413671659995,25.833987916891907,6.507972526600713,74.99977924702512,0.001080430455981844,279.0011174960057,-2.620685781964038e-10,-0.00039244740429199054,0.0005094735333657456,58.30210938902006,-0.03341904452660585,2.5135919534220648,5.1615734436264376,6.935067705514258,408.36399762647125,8.637517030668246,101197.3807231227,288.080614099303,27.35680777594705,25.781750331909286,0.0,0.07592592076478598
0.6030000000000004,40.24286714672564,140.01043243592164,10.932896257272187,1.5114591017529437,1.5114569338392423,0.002559965056648794,26.184323028064306,3.1191226331304054,2.3347107453037537,26.47260041444289,6.7012871447101885,74.99947077374817,0.0025729610402693776,279.00266213195283,-6.239335487273601e-10,-0.0006095297286145508,0.0007858893861366796,58.72545791074647,-0.041259246293017166,2.5072820106310902,5.095272162011382,6.766568626695719,428.7918940352404,8.463295697174038,101194.162309968,288.07887090607403,27.960661163548366,25.236811183001596,0.0,0.07780303409535082
0.6140000000000004,40.242867260087,140.01043156541385,11.207864688979392,1.5864925573759514,1.5864888002634674,0.003452716013518431,26.83266408575472,3.1188500716280245,2.362205598426468,27.11639915249594,6.895891617323692,74.99902316338824,0.004722543823462248,279.004886987645,-1.1449070253460132e-9,-0.0008347289781685468,0.0010688863805362442,58.73120075731612,-0.049607255577193886,2.500485137163277,5.031046599981685,6.60461236932811,449.8895722209075,8.295786120493977,101190.86255265748,288.0770836076963,28.570948584138446,24.70930124345918,0.0,0.0796954073050121
0.6250000000000004,40.24286737662999,140.01043067007615,11.48961296780528,1.6636656609727327,1.663659934077719,0.004365231306436901,27.474598290291322,3.1184868828718115,2.389620491789413,27.754077137355914,7.088834099024813,74.9984312363954,0.007544544158506602,279.00780797499027,-1.8285985949791366e-9,-0.0010681770443277112,0.001358449487859282,58.42037518874787,-0.058454453725615266,2.4931981008974335,4.970827325458723,6.451457744238089,471.28511431611577,8.137927570807035,101187.48152446677,288.075252240368,29.176853801366285,24.207405054288827,0.0,0.08156980947591184
0.6360000000000005,40.24286749634249,140.0104297500048,11.778110228252455,1.7429700959031043,1.742962045521674,0.005297460087339889,28.118030186671394,3.1180273838354635,2.4169498467469497,28.39343872986507,7.282162148607273,74.99768974202085,0.011054163252836492,279.01144083760084,-2.678579716212416e-9,-0.0013099754855829605,0.0016545280684197303,58.109045377760076,-0.0678249997282909,2.485392895550467,4.912914088887011,6.3046551208343224,493.2352369421638,7.986730100388067,101184.01960241995,288.0733770047402,29.785690572934545,23.723497144589167,0.0,0.08344917809121005
0.6470000000000005,40.24286761921182,140.01042880530176,12.073323687773302,1.8243970585580305,1.824386355118415,0.0062493626025852955,28.754256672779086,3.117465821865898,2.444187912467911,29.025849246938783,7.4736245271135395,74.99679334726574,0.015266482394934373,279.01580119666585,-3.69839512517862e-9,-0.0015602295315758543,0.001957077192484662,57.883919840475855,-0.07770689972216457,2.477068955841341,4.858613458934086,6.165636456595848,515.4370915286611,7.8441037447624895,101180.47718665659,288.07145811392263,30.38914155592449,23.262968740143478,0.0,0.08530813591710189
0.6580000000000005,40.24286774522737,140.01042783605536,12.375224877705985,1.9079389315264834,1.9079252669769928,0.007220946280743046,29.39278836511459,3.116796335846369,2.4713287550557097,29.660712956554605,7.66568484046816,74.99573665682091,0.020196373676555503,279.02090445864917,-4.891542117572165e-9,-0.0018190379617090604,0.0022660453423691143,58.208204828130974,-0.08813273845919,2.468190851023164,4.806092172019617,6.0318701596280055,538.2157198775805,7.706915244889802,101176.85462558719,288.06949575294203,30.996094803880155,22.817661451242984,0.0,0.08717432275953173
0.6690000000000005,40.24286787440413,140.01042684215992,12.68384745275145,1.993604825995205,1.9935879107318355,0.008212454885563492,30.034121473595125,3.1160128272196856,2.498366081040177,30.298511872779454,7.858473360044976,74.99451418421015,0.025858618411012724,279.02676593791114,-6.261499788470402e-9,-0.0020865548962989877,0.0025814437204488326,58.335294515549144,-0.09911812611314443,2.4587354727005435,4.755159050977834,5.902950404303112,561.5946111894515,7.574712241200029,101173.15152251945,288.0674897031189,31.606958438055337,22.386539082385053,0.0,0.08904915581716114
0.6800000000000005,40.242868006748466,140.0104258235774,12.999203289289852,2.0813980278255393,2.0813775886524857,0.009224082133687472,30.674603377012144,3.115109101338371,2.5252934146875226,30.935615459862923,8.051046265689806,74.99312033973465,0.03226794906703164,279.03340090044117,-7.811739929588666e-9,-0.002362917145546656,0.0029032632459439684,58.05566007536222,-0.11066350289902932,2.4486915548821515,4.706274528457926,5.779281117439307,585.4431166815805,7.448080885594952,101169.3677420604,288.0654398872214,32.218198333868855,21.97133938946718,0.0,0.09092196521739969
0.6910000000000005,40.242868142253414,140.01042478037388,13.3212708822771,2.171312857642738,2.171288636140963,0.010255941194642848,31.313245147974687,3.1140789336871837,2.5521041655480654,31.571031737562876,8.243149353012107,74.99154944794358,0.03943896901969155,279.04082448095306,-9.545708584182396e-9,-0.0026482300109344175,0.0032314601750992496,57.96403820377969,-0.12277428457520918,2.4380438540180664,4.659443898883864,5.660701188526568,609.7212064300849,7.326884718093188,101165.50354956661,288.06334644503477,32.82879901815177,21.571836678363155,0.0,0.09278983583229053
0.7020000000000005,40.24286828090984,140.0104237126339,13.650022685122028,2.2633420469522925,2.263313797778687,0.011308151343724704,31.946789857862747,3.112916036282527,2.578791574773635,32.20151851167132,8.433941003780127,74.98979570228639,0.04738611908775872,279.04905165227484,-1.1466805643344804e-8,-0.0029425923357532763,0.0035659846431831377,57.453274262131046,-0.13544430358289453,2.42678649844338,4.614992736816985,5.5474377170267735,634.2971259624375,7.211490894041381,101161.55928307345,288.06120955565314,33.43557677770058,21.189146151692935,0.0,0.09464323889463437
0.7130000000000005,40.24286842270713,140.0104226204551,13.985426879617751,2.357477203585587,2.3574446929079866,0.012380844304340888,32.58333206594614,3.1116140457314008,2.6053487121738175,32.83509574222881,8.625519549982034,74.98785339916698,0.05612357084513151,279.0580970993146,-1.3578413035791913e-8,-0.003246091413918651,0.0039067754169723546,58.11819092006437,-0.14871579573806323,2.4148735917856134,4.5716186259220715,5.43778761868342,659.4815119077175,7.099747609597482,101157.53533190799,288.0590294258991,34.04619673915623,20.81754534478722,0.0,0.096505746121222
0.7240000000000005,40.242868567670925,140.010421503661,14.327539426890615,2.4537335779279235,2.4536965805737827,0.013474491882686512,33.22365921282182,3.110166162308638,2.6317680776410444,33.47253901725085,8.818091160484329,74.98571657578456,0.0656654183221744,279.0679754411099,-1.5883862108515337e-8,-0.003558895790542907,0.00425385696962056,58.14871904057811,-0.16260765412607808,2.4022772227965716,4.529151760710612,5.331439356340839,685.3131975911722,6.991294425419908,101153.43103243891,288.0568056920307,34.661374298509585,20.45613433123416,0.0,0.098379637639334
0.7350000000000005,40.24286871580637,140.01042036223336,14.676365501402282,2.5521127831393287,2.5520710818367887,0.014589417931260285,33.8613853007207,3.1085656345788055,2.658042109076314,34.10750331880027,9.010003791614244,74.98337915819911,0.07602569351119651,279.07870123565135,-1.8386477711309973e-8,-0.0038811327155750855,0.004607207128645913,57.624983170412285,-0.17709988206896335,2.3889954577224786,4.488385130882523,5.229206966121469,711.5363539057217,6.887250351774919,101149.24633058903,288.05453832045094,35.274945537051806,20.108011758401993,0.0,0.10024626520224487
0.7460000000000006,40.24286886709321,140.01041919634957,15.03184752072587,2.6525995698991687,2.6525529549636215,0.01572575413190974,34.492196211952034,3.1068059068477716,2.6841629588084657,34.735695951802406,9.200141341590454,74.98083509720011,0.08721817183483088,279.0902887664109,-2.1089568934428067e-8,-0.004213232540598042,0.004966743127475192,57.208527979334086,-0.19217332592555006,2.374983923755292,4.449756840609281,5.131466486765027,737.9627097539193,6.7881730992710585,101144.98192517826,288.0522276854326,35.8827057683233,19.774748218133375,0.0,0.10209301225795198
0.7570000000000006,40.24286902151611,140.01041800615104,15.393939340663058,2.7551817978393185,2.7551300659033395,0.016883693332938376,35.122213216832805,3.1048803230091635,2.7101225107668556,35.363185759943065,9.390091752871545,74.97807779568912,0.09925637918865224,279.1027520780191,-2.3996323638482853e-8,-0.004555547910106437,0.005332386196005992,57.393984456059044,-0.20786618933372553,2.3602281623142196,4.412350019222215,5.037043260481079,764.8390795017286,6.692565697184653,101140.63837795504,288.04987408694154,36.49047693703441,19.452329388965623,0.0,0.10393771617279006
0.7680000000000006,40.242869179086846,140.01041679157584,15.762659897146762,2.859864865662483,2.859807817374826,0.018063707607407387,35.755807657608784,3.1027818175738706,2.735912235319831,35.99430860587205,9.580990363210397,74.97510073588475,0.11215355888667929,279.1161049097104,-2.710992301819577e-8,-0.004908241459431621,0.005704116715471494,57.759305975532264,-0.2242159922568244,2.3446803212143554,4.375551270047599,4.945148800317348,792.3546271734153,6.5994214621812715,101136.21547010134,288.0474774019224,37.10242919290804,19.138060114847185,0.0,0.10579312116201108
0.7790000000000006,40.242869339830705,140.01041555246212,16.138059990866054,2.9666627932623797,2.966600231540937,0.01926642542361101,36.39664869152695,3.1005029881633175,2.761523104068909,36.632706214643036,9.773791223117763,74.97189704505067,0.125922892095099,279.1303609561518,-3.043349037476538e-8,-0.0052715096838753354,0.006081943458068509,58.8355652738428,-0.24126303039767055,2.328288617068787,4.338889787721706,4.855183668189206,820.6808042062944,6.507969968885129,101131.71260069823,288.04503730015665,37.72207794658649,18.829880589171925,0.0,0.10766993150433685
0.7900000000000006,40.24286950378243,140.01041428857874,16.52021249165272,3.075595584644826,3.0755273131385183,0.02049259441160478,37.03699384005072,3.098036132981216,2.7869456085120836,37.27068293463398,9.966489618723084,74.96845986526378,0.14057746288366157,279.1455338036019,-3.3970177138886867e-8,-0.005645579647347919,0.006465899122315307,57.24831406216896,-0.2589711777138326,2.3110677973461304,4.303261244162393,4.768075778178011,849.4836637048743,6.419487534710292,101127.12890447969,288.04255330803795,38.34193274228644,18.531279289822784,0.0,0.1095455290225791
0.8010000000000006,40.24286967090251,140.01041300025884,16.909009580712567,3.186634590240161,3.1865604159000576,0.021742298266973603,37.6665147509963,3.0953745684826433,2.812171124327864,37.89796806741404,10.156409457035133,74.96478218174636,0.1561301565110721,279.16163684049104,-3.772308971005658e-8,-0.006030482275676408,0.006855846121915165,57.27429278031053,-0.27726709816184625,2.29306837147219,4.269764800051615,4.684939313464154,878.2860091267146,6.335525584478491,101122.46568348633,288.04002612637584,38.95197021510894,18.24647785023857,0.0,0.11138972635253679
0.8120000000000006,40.242869841190824,140.0104116875397,17.30443799212009,3.2997766779283877,3.2996964083103335,0.02301602015968951,38.303082417066236,3.092510972153958,2.8371902330273384,38.532316244677624,10.34818855729812,74.96085694127724,0.17259342363815505,279.17868300939324,-4.1695245566983916e-8,-0.006426330987478099,0.007251719185054899,58.11671316571723,-0.2962897218074505,2.274150041812036,4.236283027103605,4.603372364234388,907.8996576718695,6.25287816569905,101117.72310578148,288.03745584141996,39.56942500441278,17.966794297319897,0.0,0.11325470813404453
0.8230000000000006,40.24287001467891,140.01041035022257,17.706559882101875,3.415039076683,3.4149525174200797,0.02431458488511362,38.93935211903028,3.0894373903372196,2.861992665641621,39.16642399883896,10.539924363184596,74.95667689286296,0.18997957899667675,279.1966851213357,-4.588962867325643e-8,-0.006833336822980075,0.007653534490918818,57.48203526188423,-0.3159963959759806,2.25433312090825,4.203608131831471,4.524176140412353,937.9910402227325,6.172660532002782,101112.90043503445,288.03484204917766,40.18717169516696,17.695264439396237,0.0,0.11511900859621507
0.8340000000000006,40.24287019135,140.01040898847472,18.11532022833695,3.5324074597728963,3.5323144163107436,0.02563837324206608,39.5696055172261,3.086146613951426,2.886568744692932,39.79460090049317,10.730135469306193,74.95223485740891,0.2083006674533895,279.21565569994976,-5.030921958302533e-8,-0.0072515754959480054,0.008061195269079545,57.48363559126732,-0.3363430941281262,2.2336413805949733,4.172287340314285,4.447862218625377,968.2825500237534,6.0956102604040066,101107.99834043028,288.0321851073172,40.79963554775376,17.433888674421194,0.0,0.11696590253922204
0.8450000000000006,40.24287037121258,140.01040760227616,18.530723771673976,3.6518836539975417,3.6517839294517773,0.026988051655701506,40.206812592196435,3.082630904681799,2.9109080876847515,40.42973878240439,10.922191689578945,74.94752335729422,0.2275684246386758,279.2356069700191,-5.495688787265262e-8,-0.007681176120523588,0.008474648806441514,57.78251264755382,-0.3574505539803438,2.211946710481789,4.140896817683329,4.372853457532032,999.39769179074,6.019597690398702,101103.01677449507,288.029484985027,41.419364770762165,17.176903231570673,0.0,0.1188332825183829
0.8560000000000006,40.24287055428382,140.01040619154398,18.95279524552418,3.773474919803006,3.773368313705859,0.028364405562307127,40.83942855013086,3.078882276277298,2.934999841029716,41.06035392491476,11.11309837953889,74.94253501126984,0.24779433320952168,279.25655088377664,-5.98355144133594e-8,-0.008122304055935356,0.008893871259454613,57.28784628358479,-0.379224976068898,2.189317030588071,4.110598305795153,4.300320751778052,1030.7758696864141,5.946261515434004,101097.95545021037,288.02674152156186,42.03513607018851,16.928745078399572,0.0,0.12068739554279025
0.8670000000000007,40.24287074055051,140.0104047564253,19.38148576046025,3.897168683445461,3.897054992817234,0.02976793889901841,41.47057029997688,3.0748932795943302,2.958833533928496,41.689541441082305,11.30366789482044,74.937262137987,0.2689896003423524,279.27849912911495,-6.494788423731286e-8,-0.0085750258228893,0.00931876024723766,57.58055430042488,-0.4016980891902887,2.1657058186400504,4.081011803579721,4.229802757289823,1062.5643019054332,5.8749988618372715,101092.81496356883,288.02395503472843,42.64994566898906,16.68777800161703,0.0,0.12253733918566506
0.8780000000000007,40.24287093002801,140.01040329685617,19.816813714281587,4.022970581932137,4.022849598835445,0.031199491035881044,42.10326335003453,3.070655815623908,2.982397828676538,42.320307284669866,11.494689395317423,74.93169713805254,0.2911650428853639,279.30146298378554,-7.029674905262865e-8,-0.009039484155972378,0.009749273435573224,57.03094322583212,-0.42490784470735377,2.1410587880094165,4.05179668584996,4.160895046750824,1094.9151152548823,5.805275515264382,101087.59510377473,288.02112540494346,43.266712478172884,16.452555669681317,0.0,0.12439194921774978
0.8890000000000007,40.2428711227075,140.0104018129552,20.2587391062737,4.1508705139971935,4.150742026447641,0.03265966706288048,42.73080177585452,3.0661622682141516,3.005681682737374,42.94597645694338,11.6844230245128,74.92583226200897,0.3143311875335913,279.3254534347341,-7.588480256416472e-8,-0.009515754315749423,0.01018531703492705,57.18497860226191,-0.4487887986375241,2.1154196772562393,4.02355416831924,4.094161183511385,1127.4813218043212,5.737906552487974,101082.2963604731,288.0182528922467,43.87888893124272,16.225271371275564,0.0,0.1262316061666801
0.9000000000000007,40.242871318603854,140.01040030466763,20.707277165173128,4.280873339300205,4.280737128958947,0.0341493760353081,43.366227962957026,3.0614043985238797,3.0286732262155276,43.57952255518241,11.876263643931015,74.91965962527416,0.3384981745667098,279.3504810797224,-8.17146537082628e-8,-0.01000396205334245,0.010626835551174687,58.314305946208336,-0.4734901314236976,2.0886271547343593,3.995018483055298,4.028271306312291,1160.9422551567131,5.671051760448045,101076.9185611241,288.0153373976395,44.499154892398266,16.00095605255271,0.0,0.12809444387970192
0.9110000000000007,40.242871517760335,140.01039877173093,21.162509243127612,4.4130018532511155,4.412857692713814,0.03566988441674457,44.003701222960444,3.056373159166185,3.051359502718454,44.21513239856319,12.06869616268083,74.91317134983466,0.36367589152202695,279.3765562508268,-8.778890925677691e-8,-0.010504325072013198,0.011073840661017832,57.37850714558027,-0.4989629054349725,2.0607059915932844,3.966725515635984,3.963734439582162,1195.0017826770418,5.605442362323174,101071.46074073412,288.01237839237905,45.121812164655715,15.781582061562471,0.0,0.1299633763213924
0.9220000000000007,40.24287172015065,140.01039721439986,21.624351548206977,4.547234223235753,4.547081880384629,0.0372216878212297,44.62612839037482,3.0510612094265825,3.073729122814487,44.83579061796862,12.257274902226035,74.90635941387357,0.38987393149587696,279.40368898457064,-9.411012593733668e-8,-0.011016859399990283,0.011526195524272247,56.15872354365941,-0.5250034340102411,2.031835494601092,3.940158064401373,3.901974946289078,1228.731785742816,5.543125295778751,101065.92391437314,288.00937642112774,45.73016641494237,15.572646311650798,0.0,0.13178838964254236
0.9330000000000007,40.242871925742755,140.0103956329734,22.09270601240318,4.6835448023922766,4.683384040374567,0.03880523650884182,45.2515109755001,3.045461416508565,3.095770767561387,45.459409119021075,12.446688987371282,74.89921563148864,0.41710130899743225,279.4318887373848,-1.0068071102173207e-7,-0.011541531237394665,0.011983729977220298,57.3244383791427,-0.5518227160280886,2.0017940371646934,3.913651706376347,3.84129216260598,1263.093395486992,5.4817180461641835,101060.30926819722,288.00633212132806,46.34175091049686,15.367719925911116,0.0,0.133622133178655
0.9440000000000007,40.24287213458928,140.01039402712976,22.567672432248756,4.821961525737132,4.821792095718504,0.04042204046973208,45.8864488023895,3.039564305457521,3.11747040764305,46.09255641211338,12.6386621598477,74.89173193171973,0.4453665909964507,279.4611644951912,-1.0750303727034426e-7,-0.012078563380375778,0.012446457982622281,57.73122333531773,-0.5795212936838571,1.970459602967021,3.8866342010290844,3.7811024603691323,1298.463272856262,5.420398434714968,101054.61561650847,288.0032448443345,46.963004126693754,15.164593989850385,0.0,0.13548391502701015
0.9550000000000007,40.242872346720624,140.01039239671425,23.04929712429232,4.9624979169982355,4.962319559075134,0.04207338626969004,46.52054620991727,3.033360848853186,3.1388142259747505,46.72488258362545,12.83049048088025,74.88390002296909,0.474678160948491,279.49152506567225,-1.1457944886435109e-7,-0.012628119484250473,0.012914349315908631,57.41145039906661,-0.6079778258237091,1.9379288908648737,3.8599857971190312,3.7222370099988713,1334.2721608774561,5.36036989647796,101048.84241504042,288.00011428913086,47.58376458891819,14.966498435960197,0.0,0.13734331354830098
0.9660000000000007,40.242872562133776,140.0103907418194,23.537547440450044,5.105146165936584,5.104958611284186,0.04376017198838544,47.15086107638728,3.026842941549743,3.1597891675382876,47.35345548131493,13.021410422903903,74.87571159847651,0.5050439876900822,279.5229788296984,-1.2191224089027735e-7,-0.013190250734828003,0.013387295078829705,57.05507874466515,-0.6371534510491365,1.9042206415676828,3.833912898323565,3.664856944000582,1370.3483192598176,5.3018871057570705,101042.99006613613,287.99694066790386,48.20113843075571,14.774104700313279,0.0,0.1391917102439001
0.9770000000000008,40.24287278082186,140.01038906256827,24.0323809351872,5.249895836061098,5.249698806688418,0.04548327765072635,47.776993955539766,3.0200026269029077,3.180382122430271,47.97787404355113,13.21132080001993,74.86715809780777,0.5364715879864431,279.55553372249426,-1.295035846182651e-7,-0.013764987323471181,0.013865173503618402,56.61378978701414,-0.6670399575069186,1.8693238618512185,3.8084026774818516,3.608910915909428,1406.6594791764326,5.24490011510484,101037.05908979922,287.9937242566076,48.8147149713983,14.587264949684078,0.0,0.14102792638403222
0.9880000000000008,40.24287300277687,140.01038735909373,24.53375185739792,5.396735643629445,5.396528852008198,0.04724358859784705,48.40014201244424,3.012832022115362,3.200579847884703,48.59932730996324,13.400537310397617,74.85823115462415,0.568967886972435,279.58919705810547,-1.3735559961465044e-7,-0.014352347147977979,0.014347856365368014,56.703291674667916,-0.6976518523010324,1.8332046419368775,3.7833178122611497,3.5542327443779285,1443.2666549420308,5.189190119836499,101031.05004559149,287.99046535262204,49.425647340029236,14.405379418652105,0.0,0.14285545722703608
0.9990000000000008,40.24287322801415,140.01038563136228,25.04166727384931,5.545668680710569,5.5454518268893205,0.0490423476599996,49.02725135642444,3.0053224828401097,3.220368057396636,49.22473066677955,13.590878091791332,74.8489222112101,0.6025393337779968,279.6239756760286,-1.4547029163844308e-7,-0.014952409063203914,0.01483525698609618,57.20031597954831,-0.729097094787083,1.7957315097620206,3.7580899075848744,3.500261875809055,1480.5789493597888,5.133954972355974,101024.9628601783,287.9871639100384,50.040724507314906,14.226293422009373,0.0,0.1446946306138287
1.0099999999999996,40.242873456567956,140.01038387920673,25.556176550971237,5.696709591569298,5.696482360587333,0.050881098602419406,49.6584999332409,2.9974646584225284,3.2397314375387665,49.854260297245965,13.782395117421425,74.83922275988776,0.6371919360815917,279.65987595660994,-1.5384963025441984e-7,-0.015565310013510745,0.015327326311288338,57.37736552251904,-0.7613898972905216,1.7568655365251507,3.7326994190313663,3.4469615095316146,1518.61597115956,5.079150557140381,101018.79695348363,287.98381960800316,50.66011517738146,14.049885875644533,0.0,0.14654596512252527
1.0209999999999984,40.24287368844824,140.01038210263846,26.077272141259943,5.849857606267778,5.849619669802835,0.05276108665252288,50.28172165480676,2.9892500053175213,3.2586552909269284,50.47579600631217,13.971911395933443,74.82912398237404,0.6729313502890583,279.6969039403335,-1.6249548829544962e-7,-0.016191112646497065,0.01582396682074954,55.962054852592665,-0.7943376898604375,1.7167838452734159,3.708036463863488,3.3951258701872686,1556.6394166604086,5.02596388478092,101012.55242765164,287.98043249557304,51.27188296201769,13.879318149524842,0.0,0.1483738339970195
1.0319999999999971,40.24287392362446,140.01038030196085,26.604853566068922,6.00508674166013,6.004837761831563,0.05468298587290965,50.901636310738866,2.980671439714353,3.277126330678819,51.094036230557144,14.160664964117025,74.81861731035087,0.7097625488189095,279.73506494977687,-1.7140967826591617e-7,-0.01682973032976061,0.016324987410702894,56.443696694397076,-0.828007613986584,1.6753989011435078,3.6837071694879775,3.344361128811231,1594.924332111628,4.973834652640061,101006.23049858629,287.97700322589753,51.88063741252112,13.713077807163302,0.0,0.15019204821910365
1.042999999999996,40.24287416211744,140.01037847711194,27.138936219326954,6.162402576224218,6.162142199408038,0.05664826325278527,51.522729578805695,2.9717201293800586,3.2951291103165627,51.71344757054743,14.349833882426223,74.80769389004776,0.7476899598906198,279.7743637722603,-1.8059385441526336e-7,-0.017481231064495527,0.01683029661691231,56.58088924604199,-0.8624761227211346,1.6326085514616773,3.6593599567899613,3.2943243838880827,1633.7453431717672,4.922268268689417,100999.8309937278,287.9735316989627,52.49076737514663,13.549837866580638,0.0,0.15201373779254018
1.0539999999999947,40.24287440395613,140.01037662797577,27.679552393082737,6.321815363639916,6.3215432186512786,0.05865856014025539,52.15108750519483,2.96238684156648,3.3126474833699526,52.34009263578592,14.541018856411776,74.79634509548784,0.7867174515636398,279.81480460279687,-1.9004964769097737e-7,-0.018145699844705574,0.017339813125806347,57.092988654743976,-0.8978580604305153,1.5882667314194394,3.6345563395506257,3.2446066944423095,1673.4926101056383,4.87066163306744,100993.35353807601,287.97001770482984,53.1082413295964,13.387987471194988,0.0,0.15385672462833475
1.0649999999999935,40.24287464917476,140.01037475440214,28.226745043715944,6.483338325298719,6.483054021907457,0.06071564309747002,52.77704038310682,2.9526621093796446,3.3296647479206225,52.96433585409903,14.73169056428003,74.78456188776953,0.8268485399533357,279.85639130386846,-1.9977856950007878e-7,-0.018823244033459863,0.017853468859194692,56.47679528808274,-0.9339881221999922,1.5425238183530197,3.60996422997688,3.1957887469792277,1713.5589823957826,4.819894886815017,100986.79762932475,287.9664609643687,53.72355975236377,13.229867132568103,0.0,0.15569268510415796
1.0759999999999923,40.24287489775971,140.01037285658137,28.780449002573775,6.6469552636151885,6.646658397689786,0.06282054537733406,53.39531287675252,2.9425383658464015,3.3461660972736715,53.58091821526872,14.920468404129048,74.77233552870344,0.8680860900418041,279.8991270489015,-2.0978210211015046e-7,-0.019513803781470343,0.018371095124589048,55.73290117773808,-0.9707599382864514,1.4954743584844112,3.585910358601199,3.148133625204901,1753.5945989280563,4.770382826153662,100980.16406056783,287.9628619011524,54.33152672980316,13.076568101369137,0.0,0.15750616002691728
1.086999999999991,40.24287514969331,140.0103709347343,29.340589354476936,6.812647350834142,6.812337504302654,0.06497425874092788,54.01082583036437,2.9320083375319,3.3621368584499907,54.19474092588929,15.108647600949272,74.75965695012212,0.9104323437561492,279.9430144014393,-2.2006153702763142e-7,-0.020217287613781762,0.018892507175667397,56.58392764748645,-1.0082552098922053,1.4470117733270669,3.56202679239215,3.101292841330896,1793.9065476088442,4.721615755587539,100973.4537417488,287.95922100216677,54.9369633673382,12.926721623050312,0.0,0.15931155689048196
1.0979999999999899,40.24287540502085,140.0103689886428,29.90722985058366,6.980433708184567,6.980110440010887,0.06717886282424823,54.634023824806285,2.921062205878069,3.377559218636725,54.81621174411369,15.298977755542548,74.74651740745486,0.9538888289638013,279.98805517098884,-2.30618114395784e-7,-0.020933795453119103,0.019417633927629796,55.78768748644488,-1.0466820700681874,1.3968844542246908,3.537610824388014,3.054640978952417,1835.185303759359,4.672650170836221,100966.66592167635,287.95553785304986,55.550131142739055,12.777817548005807,0.0,0.1611394710267212
1.1089999999999887,40.242875663742524,140.01036701840633,30.480333640389194,7.150306005969904,7.149968857426264,0.0694357029478383,55.251424801486074,2.909692013487906,3.392417201648339,55.431892847688914,15.487920389680903,74.7329078892525,0.9984566270753858,280.0342507285194,-2.4145296814185663e-7,-0.021663290431816383,0.019946325419259323,56.781358879954446,-1.0857722469885334,1.3453627770813208,3.513529025288067,3.0089126854646078,1876.5381222070066,4.624617637729115,100959.8010545016,287.9518126933575,56.15776655706373,12.632855122035984,0.0,0.16295040069947747
1.1199999999999875,40.24287592589543,140.0103650238715,31.05994351905889,7.322277789779172,7.321926278297669,0.07174681782077519,55.873617012437705,2.8978882876976004,3.406692853516168,56.0523361759235,15.678266200874965,74.7188194369688,1.0441361467883392,280.08160175444755,-2.5256712591600937e-7,-0.022405826701394717,0.02047848397760378,55.87226555944558,-1.1257411167689628,1.2921854278777796,3.4890848035092557,2.9634950881237354,1918.674162849323,4.576587746933334,100952.8586404581,287.94804524494236,56.770277353371654,12.489359750289585,0.0,0.16477536527383066
1.1309999999999862,40.24287619148425,140.01036300511194,31.64603037702904,7.496342978278812,7.4959766013076665,0.0741137007443462,56.49416972491209,2.8856429431125883,3.4203695429020184,56.67113088612509,15.868328534907707,74.70424304529831,1.0909272383251771,280.1301083609065,-2.6396152910325335e-7,-0.023161356449400445,0.021013955050551033,56.67829541068095,-1.166453967160175,1.237478216947552,3.4646728377269183,2.9187116669223787,1961.1603140802656,4.529067003439791,100945.83904118948,287.9442356970187,57.38133037767878,12.348669718872408,0.0,0.1665955194870444
1.141999999999985,40.24287646054811,140.0103609619673,32.23863869520302,7.672515739449332,7.67213396823958,0.07653852286347429,57.11963891742595,2.8729464259108974,3.4334286727852685,57.2948113154619,16.059841640626882,74.6891697072569,1.1388291016512013,280.1797699963879,-2.7563700708988507e-7,-0.023929923927066606,0.0215526358246923,56.75687548822032,-1.208053578978885,1.1810558581097945,3.439877443907005,2.8742002876958703,2004.4498700611775,4.481501372066913,100938.74173719168,287.94038376052407,57.997374110164515,12.209312320063246,0.0,0.16843007277766603
1.1529999999999838,40.24287673311318,140.01035889436955,32.83778359341117,7.850802264510562,7.850404545080241,0.0790232562456803,57.74391649278603,2.8597897462039574,3.4458520043904843,57.91728744817476,16.25120042612661,74.67359036730178,1.1878403755584224,280.23058553838064,-2.8759430147303654e-7,-0.024711531307877937,0.0220944003598088,56.33477330471594,-1.2504065767830699,1.1230429684345908,3.4150596404222533,2.8302523339285592,2048.1230276444844,4.4343512368049485,100931.56656072476,287.9364893371818,58.6123893503285,12.072505778993479,0.0,0.1702611228740532
1.1639999999999826,40.24287700917521,140.01035680246068,33.44341382298088,8.031190581377384,8.030776338565138,0.08156932234067105,58.36021132844049,2.846165459934526,3.457622867333413,58.531786919743574,16.440614657255114,74.65749597934558,1.2379590251234882,280.2825531768253,-2.9983404187568235e-7,-0.02550606899896556,0.022639063286155253,55.790890190621305,-1.293346865128722,1.0636080588902017,3.390595866242795,2.787162493800212,2091.692839034551,4.388091108506375,100924.31413900843,287.93255276012576,59.21967645992559,11.939501256236746,0.0,0.17206876095966409
1.1749999999999814,40.24287728872967,140.01035468638665,34.055476753517006,8.213668384420531,8.213237021184357,0.08417816270330758,58.97721145668385,2.8320662743246072,3.4687245698343045,59.14697051185242,16.63038591114961,74.6408775697005,1.289182228095745,280.33567029617586,-3.1235671720119423e-7,-0.026313401030871077,0.02318642735659502,56.18749401233875,-1.3370623411671028,1.0025170436522142,3.365954168133104,2.7444772070243886,2135.7667228822024,4.342019607441939,100916.98511582479,287.9285743714796,59.82778719566637,11.808430403052318,0.0,0.17387844754858103
1.1859999999999802,40.24287757181332,140.0103525460165,34.67400658328803,8.398247335024205,8.397798224353906,0.08685207700203978,59.596574105242205,2.8174830009639695,3.4791378926500465,59.76448992519237,16.820959251428093,74.62372618955469,1.3415064681509674,280.3899335718827,-3.251626928666058e-7,-0.027133523526380193,0.02373636695785064,55.691348100959104,-1.3815913475120545,0.9397002536530671,3.341029778671143,2.7021018741757254,2180.466562754137,4.295992999660887,100909.57909534189,287.9245539489899,60.438350871101875,11.678910239410166,0.0,0.17569503879865167
1.196999999999979,40.242877858425025,140.0103503814763,35.298956579652945,8.584916856644439,8.58444934740782,0.08959261848676925,60.208072631392966,2.8024084052636034,3.4888456891097737,60.374146346755104,17.009630128483977,74.60603289639948,1.3949275713562428,280.4453390085352,-3.3825222622991516e-7,-0.02796630508676492,0.024288691148127737,55.74161213345429,-1.426675150801165,0.8754367994455375,3.316379973966387,2.6604746953790728,2225.0456525406194,4.250716907429362,100902.09665087784,287.9204917964317,61.04127740389615,11.552806995470636,0.0,0.1774885525810736
1.2079999999999778,40.24287814858138,140.0103481927765,35.93031604262984,8.773676388685931,8.773189801324111,0.09240174959159986,60.82325370420904,2.786834507448358,3.4978297047543436,60.98745322098591,17.199466011676556,74.58778883100348,1.4494405735230091,280.5018818019925,-3.5162543060954807e-7,-0.028811641251699008,0.02484322438931003,55.53638052344512,-1.4725886934944583,0.8093847116460636,3.2913462038659342,2.6190546942441513,2270.343503896646,4.205337017603365,100894.53792438118,287.9163879833681,61.647947657500694,11.427849565895537,0.0,0.17929283636296786
1.2189999999999765,40.242878442298455,140.01034597993274,36.56807248433982,8.964524928222588,8.964018553922237,0.09528144447931086,61.43388550936726,2.770753474774844,3.5060715870155716,61.59620038256661,17.388287305437053,74.56898516063383,1.5050398265157208,280.55955644963353,-3.65282300468274e-7,-0.029669431397314337,0.025399795111637636,55.2670583297655,-1.5191163410948494,0.7417745339337006,3.266364029251881,2.578179585532982,2315.750728629782,4.160401480395368,100886.90307937353,287.9122425910166,62.25023615673517,11.305489681138948,0.0,0.1810837540647993
1.2299999999999753,40.24287873958565,140.01034374300752,37.21219847898281,9.157457422781667,9.156930523713825,0.09823356828033036,62.0450499601245,2.7541579469703272,3.513553338757173,62.205455288226105,17.577450463220007,74.54961312787134,1.5617189199992252,280.61835666911173,-3.7922269372812705e-7,-0.030539527684289938,0.025958209411513656,55.617674814964936,-1.5663772336157642,0.6724447770486438,3.2411449153337992,2.5376106883640728,2361.641821991103,4.11553364852991,100879.19245822643,287.90805579765487,62.85315161243307,11.184722895105255,0.0,0.182876203414308
1.2409999999999741,40.24287904046971,140.01034148195131,37.86270143906543,9.352478529306095,9.351930333995323,0.10126040306856687,62.653779593949125,2.73703981664596,3.520255783067037,62.81225744345826,17.766171085305224,74.52966403279876,1.61947071920515,280.6782754372911,-3.934463367571194e-7,-0.031421834263738735,0.026518300993841767,54.961558264282424,-1.6142838144243228,0.6014771441341674,3.2158308801936495,2.497450443484922,2407.790764514233,4.070905940895803,100871.40598643887,287.90382755515066,63.45376021279808,11.066005794967152,0.0,0.18466148130267446
1.251999999999973,40.24287934496419,140.01033919680395,38.51956058587443,9.549585171595782,9.549014876503028,0.10436396833149542,63.26765265922516,2.7193917195540833,3.5261604303864997,63.42416551846436,17.956477356622536,74.50912924857099,1.6782873468629909,280.7393049714752,-4.0795282275531825e-7,-0.032316188648379554,0.0270798720399791,55.978249808464604,-1.6630327376513432,0.5286130650908015,3.1900236461469738,2.4573827035699214,2454.7770460762786,4.026007801096047,100863.54392699189,287.8995579985623,64.05954083283429,10.947976648230144,0.0,0.18646180978058505
1.2629999999999717,40.24287965312354,140.01033688734148,39.182837163161125,9.748797136501741,9.748203895714715,0.10754727442848022,63.880391824596714,2.701204266653258,3.5312459664539326,64.03491752340895,18.146701208065085,74.48800018977717,1.7381602415057753,280.8014367895006,-4.22741617659858e-7,-0.03322256360852104,0.027642791334825917,55.233166857121,-1.7124483394564556,0.4540379193287118,3.164034765173253,2.4176425390035554,2502.122455024872,3.9812269431624543,100855.60556136393,287.8952467298432,64.66429201831399,10.831668795272968,0.0,0.18825877983020278
1.2739999999999705,40.24287996494337,140.01033455372476,39.8524721873857,9.950100877145585,9.949483814306792,0.11081197688206479,64.4886507084981,2.682471378552194,3.5354949769290576,64.64117455330863,18.335954476002104,74.46626833684626,1.7990801255039406,280.86466167680425,-4.378120634146706e-7,-0.03414071885367229,0.028206826843899614,55.30343115301158,-1.7624194337296135,0.37786875767794287,3.138015066635461,2.378336038661564,2549.560872291232,3.9367452728910006,100847.59161013781,287.89089413241186,65.26470292302965,10.717562022601468,0.0,0.19004257538800862
1.2849999999999693,40.24288028045241,140.0103321959034,40.52847222727254,10.153501162259651,10.152859361654954,0.11416056439701938,65.1023914632424,2.663185331180205,3.5388877651285178,65.25287470261863,18.526909668931655,74.44392530239092,1.8610369106195241,280.9289695877699,-4.5316334380028845e-7,-0.035070497905358794,0.0287717880766394,55.80292695103512,-1.8132209235321086,0.29974634180606263,3.1114674621030467,2.3390796803778073,2597.8734728044933,3.8919331253428817,100839.5020094077,287.88650016359105,65.87061299969544,10.603975990238,0.0,0.19184241439389904
1.295999999999968,40.24288059970123,140.01032981368994,41.21088613685667,10.359014652058619,10.358347151820777,0.117596105086752,65.71767765972133,2.6433372663621455,3.541402892375164,65.86609084602561,18.718521556578633,74.42096275440626,1.924019828348105,280.99434978078233,-4.687945138483784e-7,-0.036011814929047876,0.029337518439156926,55.516480203950714,-1.8647347765796374,0.21978914479652548,3.084579040159739,2.3000112946094093,2646.7565480595713,3.8470206025974156,100831.3361894897,287.8820645058708,66.47813116609777,10.49152515282681,0.0,0.19364675193563424
1.3069999999999669,40.24288092270126,140.01032740714987,41.89968391188255,10.566636085490039,10.565941885734773,0.12112072678031183,66.3273097785942,2.62292073072694,3.5430217243202398,66.47363942619872,18.90886475542055,74.39737244287524,1.9880173980618794,281.06079078514654,-4.847044987899436e-7,-0.036964442347126356,0.029903797279620174,55.06208017031743,-1.9167300707677775,0.13826461101264564,3.057676268667434,2.2613672611061895,2695.6306598678143,3.8024084432263194,100823.09452445128,287.87758735427667,67.08013669160403,10.381278272918802,0.0,0.19543446857226035
1.3179999999999656,40.24288124945836,140.01032497638602,42.5948237937111,10.776356974625754,10.775635037675267,0.12473643970502724,66.93799394972264,2.6019298074168127,3.5437261320652724,67.0822112607725,19.09974710113745,74.37314628138041,2.0530173182339,281.1282802876834,-5.008920628553728e-7,-0.0379281063091233,0.03047038521815291,55.97305470795929,-1.969390832995256,0.054925071589886805,3.030434152276583,2.2228993265361483,2745.0306817805567,3.757685931601518,100814.7775291706,287.8730689803107,67.68325544501322,10.27213305923002,0.0,0.19722523556658375
1.3289999999999644,40.24288158003085,140.01032252117295,43.296365321702964,10.988197306220721,10.987446541202585,0.12844666072604016,67.5512982073922,2.5803557075805097,3.543494010583461,67.69337098183773,19.291597907910788,74.34827630408196,2.119006545182223,281.19680521385214,-5.173558171858844e-7,-0.0389026944859268,0.03103711686349152,54.661017683684655,-2.0227570598317026,-0.03030513408766547,3.0027748182764933,2.184546519717371,2795.087887066157,3.712752306009386,100806.38450650978,287.8685089969545,68.2890362714595,10.1638215783791,0.0,0.19902365364673374
1.3399999999999632,40.24288191440695,140.01032004172694,44.0042312446628,11.202138760893714,11.201358041347207,0.13225296920525542,68.1579742482809,2.558193949698278,3.5423088147915047,68.29788987701556,19.481933464878328,74.3227546716385,2.185971314028289,281.2663517496231,-5.340942396284354e-7,-0.03988767138078097,0.03160371631402894,55.55689706125349,-2.076512816138445,-0.11695062977263053,2.9751016708495777,2.1465965026994644,2845.038937878611,3.6681008783069777,100797.91639614872,287.8639079063938,68.88832819609534,10.057662692251345,0.0,0.2008025898775539
1.350999999999962,40.24288225263214,140.01031753791003,44.718453352492716,11.418193761906386,11.417381908248975,0.1361585312306164,68.76958248018539,2.535437029346728,3.5401517968576877,68.90730433106202,19.67388046949251,74.29657432027626,2.2538970235010867,281.3369052208023,-5.51105650459947e-7,-0.04088108418261396,0.0321699055273402,55.183662562538636,-2.131005228038667,-0.20534118938051227,2.946896871274098,2.108668183657844,2895.8386195411963,3.623087190033121,100789.37283323742,287.85926550199616,69.49256499924002,9.951920976071186,0.0,0.202595962638614
